,OID_,id,name,name_alias,name_eng,category,subcategory,lon,lat,country,country_code,language_code,sd,sgg,sgg_sub,emd,ri,street,number_st,number_jb,update_date,dwnm,result
596,597,4345613,오케바리당구장,,Okebari Billiard Hall,Arts and Entertainment,Billiards,126.48553299999986,37.74699709999989,대한민국,KOR,KOR,인천광역시,강화군,,강화읍,관청리,동문안길,6,490-4,2018-09-18 15:00:00,"레져,체육||구기||당구장",False
616,617,2152156,엄지당구장,,thumb pool room,Arts and Entertainment,Billiards,124.7551705995481,37.77226309938759,대한민국,KOR,KOR,인천광역시,옹진군,,대청면,소청리,,,235,2022-08-04 10:04:43,"레져,체육||구기||당구장",False
648,649,6226129,제이당구,,J Billiards,Arts and Entertainment,Billiards,126.67812327431996,37.404615784609874,대한민국,KOR,KOR,인천광역시,연수구,,동춘동,,원인재로,88,925-7,2019-08-13 3:20:42,"레져,체육||구기||당구장",False
765,766,3121945,MBC당구장,엠비씨당구장,MBC billiard room,Arts and Entertainment,Billiards,126.65055866216586,37.41718220268446,대한민국,KOR,KOR,인천광역시,연수구,,옥련동,,능허대로,209-1,552-7,2020-01-14 23:38:51,"레져,체육||구기||당구장",False
1016,1017,27043503,SBS 당구클럽,,SBS Billiards Club,Arts and Entertainment,Billiards,126.69803854393189,37.42687769447136,대한민국,KOR,KOR,인천광역시,연수구,,선학동,,학나래로118번길,34,403-37,2022-08-12 13:15:03,"레져,체육||구기||당구장",False
1442,1443,5662020,킴스당구장,,Kim's Billiard Hall,Arts and Entertainment,Billiards,126.7008653485839,37.513232655081794,대한민국,KOR,KOR,인천광역시,부평구,,산곡동,,,,51-4,2022-08-04 10:04:43,"레져,체육||구기||당구장",False
1862,1863,3132614,스타당구장,,star billiard room,Arts and Entertainment,Billiards,126.7084040451719,37.48715194275459,대한민국,KOR,KOR,인천광역시,부평구,,산곡동,,경원대로,1236,310-96,2022-08-24 14:41:06,"레져,체육||구기||당구장",False
1900,1901,3116118,팡팡당구장,,big billiard hall,Arts and Entertainment,Billiards,126.6892342734429,37.45944899217118,대한민국,KOR,KOR,인천광역시,미추홀구,,주안동,,경원대로,857-1,999-7,2022-08-16 16:52:33,"레져,체육||구기||당구장",False
3660,3661,20203228,포커스당구장,,focus billiard room,Arts and Entertainment,Billiards,126.66288669778292,37.42780031858497,대한민국,KOR,KOR,인천광역시,연수구,,청학동,,청학로5번길,16-8,525-11,2022-08-24 14:41:06,"레져,체육||구기||당구장",False
4332,4333,27181393,가브리엘 당구장,,Gabriel Billiard Room,Arts and Entertainment,Billiards,126.7027600253719,37.453077128688165,대한민국,KOR,KOR,인천광역시,남동구,,구월동,,구월남로,120,1131-13,2022-08-16 16:52:33,"레져,체육||구기||당구장",False
4640,4641,3110227,구슬치기당구장,,bead billiard room,Arts and Entertainment,Billiards,126.63118808774684,37.47837406742816,대한민국,KOR,KOR,인천광역시,동구,,화평동,,화도진로,73,396,2022-08-24 14:41:06,"레져,체육||구기||당구장",False
5115,5116,5678828,백마당구장,,Baekmadang Stadium,Arts and Entertainment,Billiards,126.67919810803087,37.44552577982156,대한민국,KOR,KOR,인천광역시,미추홀구,,주안동,,미추홀대로540번길,4,1273-3,2022-05-01 12:37:48,"레져,체육||구기||당구장",False
7001,7002,3659801,알미골당구장,,Almigol Billiard Hall,Arts and Entertainment,Billiards,126.49618389999986,37.7420410999999,대한민국,KOR,KOR,인천광역시,강화군,,강화읍,갑곳리,강화대로312번길,12,341-4,2022-08-18 12:00:50,"레져,체육||구기||당구장",False
7190,7191,27209241,아이비당구클럽,,Ivy Billiards Club,Arts and Entertainment,Billiards,126.6545706946089,37.41314587791644,대한민국,KOR,KOR,인천광역시,연수구,,동춘동,,능허대로267번길,12,815-1,2022-05-01 12:37:48,"레져,체육||구기||당구장",False
8334,8335,27225069,오피스당구클럽,,office billiards club,Arts and Entertainment,Billiards,126.70935510048088,37.44213550092849,대한민국,KOR,KOR,인천광역시,남동구,,구월동,,선수촌공원로23번길,6-21,1538-1,2022-08-16 16:52:33,"레져,체육||구기||당구장",False
8522,8523,3117770,AKI당구장,아키당구장,AKI billiard room,Arts and Entertainment,Billiards,126.49441049520868,37.25775681598385,대한민국,KOR,KOR,인천광역시,옹진군,,영흥면,내리,영흥로,158,8-32,2022-05-01 12:37:48,"레져,체육||구기||당구장",False
8707,8708,3127084,가브리엘당구장,,Gabriel Billiard Hall,Arts and Entertainment,Billiards,126.7333000603059,37.517327110152095,대한민국,KOR,KOR,인천광역시,부평구,,삼산동,,평천로,388,426-4,2022-08-12 13:15:03,"레져,체육||구기||당구장",False
10842,10843,4347195,유진당구클럽,,Eugene Billiards Club,Arts and Entertainment,Billiards,126.6748642776329,37.49159179126568,대한민국,KOR,KOR,인천광역시,서구,,가좌동,,가정로78번길,31,157-18,2022-06-13 10:44:13,"레져,체육||구기||당구장",False
11970,11971,6209300,자월당구장,,Jawol Billiard Hall,Arts and Entertainment,Billiards,126.31630012715968,37.24928279099702,대한민국,KOR,KOR,인천광역시,옹진군,,자월면,자월리,자월서로,68-1,408-11,2022-08-24 14:41:06,"레져,체육||구기||당구장",False
12111,12112,3120550,아지트당구장,,hideout billiard hall,Arts and Entertainment,Billiards,126.73980851349496,37.54761470639692,대한민국,KOR,KOR,인천광역시,계양구,,병방동,,계양산로,215,316-18,2022-08-24 14:41:06,"레져,체육||구기||당구장",False
12144,12145,5679861,영영당구장,,Youngyeong billiard hall,Arts and Entertainment,Billiards,126.70398294554192,37.49567211673679,대한민국,KOR,KOR,인천광역시,부평구,,산곡동,,화랑북로,7-2,317-172,2019-11-14 0:00:00,"레져,체육||구기||당구장",False
13257,13258,5722413,샘당구장,,Sam billiard room,Arts and Entertainment,Billiards,126.62191659999984,37.47951569999967,대한민국,KOR,KOR,인천광역시,중구,,송월동1가,,참외전로,16,10-12,2022-05-18 1:20:18,"레져,체육||구기||당구장",False
13287,13288,3127633,동네당구장,,neighborhood billiard hall,Arts and Entertainment,Billiards,126.70853352865488,37.5080864544366,대한민국,KOR,KOR,인천광역시,부평구,,산곡동,,길주로,418,119-39,2022-08-24 14:41:06,"레져,체육||구기||당구장",False
13360,13361,20170883,CM당구클럽,씨엠당구클럽,CM Billiards Club,Arts and Entertainment,Billiards,126.73341011911997,37.53262506813543,대한민국,KOR,KOR,인천광역시,계양구,,작전동,,장제로,723,898-6,2021-12-23 15:49:18,"레져,체육||구기||당구장",False
13744,13745,5663347,떼굴떼굴당구클럽,,Tegul Tegul Billiards Club,Arts and Entertainment,Billiards,126.73835368102792,37.545288770069206,대한민국,KOR,KOR,인천광역시,계양구,,임학동,,장제로875번길,1,67-6,2022-08-24 14:41:06,"레져,체육||구기||당구장",False
13816,13817,5656973,레포츠당구장,,sports billiard room,Arts and Entertainment,Billiards,126.68116216250488,37.463814708341566,대한민국,KOR,KOR,인천광역시,미추홀구,,주안동,,주안로,102-1,140-1,2022-08-24 14:41:06,"레져,체육||구기||당구장",False
14057,14058,27095840,W 대대전용클럽,,W battalion club,Arts and Entertainment,Billiards,126.67105303695888,37.50670537490959,대한민국,KOR,KOR,인천광역시,서구,,석남동,,길주로,79,518-18,2022-05-01 12:37:48,"레져,체육||구기||당구장",False
15139,15140,20476440,도깨비당구장,,goblin billiard room,Arts and Entertainment,Billiards,126.67751002602296,37.41357829960868,대한민국,KOR,KOR,인천광역시,연수구,,연수동,,청능대로113번길,25,598-7,2022-05-01 12:37:48,"레져,체육||구기||당구장",False
15914,15915,5660923,한게임당구클럽,,Hangame Billiards Club,Arts and Entertainment,Billiards,126.67368851906092,37.56471482260261,대한민국,KOR,KOR,인천광역시,서구,,검암동,,승학로,482,606-7,2022-08-24 14:41:06,"레져,체육||구기||당구장",False
15961,15962,27178756,쉐빌로뜨당구클럽,,Chevillot Billiard Club,Arts and Entertainment,Billiards,126.68757216745692,37.465921882835694,대한민국,KOR,KOR,인천광역시,미추홀구,,주안동,,석정로,468,20-33,2022-08-16 16:52:33,"레져,체육||구기||당구장",False
16048,16049,27183904,플러스당구클럽,,Plus Billiard Club,Arts and Entertainment,Billiards,126.72386540614092,37.40169701139176,대한민국,KOR,KOR,인천광역시,남동구,,논현동,,논고개로,117,631-10,2022-08-16 16:52:33,"레져,체육||구기||당구장",False
17470,17471,4338747,짱구당구클럽,짱구당구장,jjanggu billiards club,Arts and Entertainment,Billiards,126.6752553995709,37.417014301051566,대한민국,KOR,KOR,인천광역시,연수구,,청학동,,용담로85번길,7,497-7,2022-08-16 16:52:33,"레져,체육||구기||당구장",False
18542,18543,3133194,동남당구장,,Southeast billiard hall,Arts and Entertainment,Billiards,126.67470876951188,37.42193526874787,대한민국,KOR,KOR,인천광역시,연수구,,연수동,,새말로36번길,8,557-3,2020-01-14 0:00:00,"레져,체육||구기||당구장",False
18836,18837,27234017,에스엠당구클럽,,SM Billiards Club,Arts and Entertainment,Billiards,126.72436896144464,37.39919195723394,대한민국,KOR,KOR,인천광역시,남동구,,논현동,,앵고개로847번길,72,743-2,2022-08-12 13:15:03,"레져,체육||구기||당구장",False
18876,18877,27136265,버호벤당구클럽,,Verhoeven Billiard Club,Arts and Entertainment,Billiards,126.70977009900488,37.44127950061718,대한민국,KOR,KOR,인천광역시,남동구,,구월동,,선수촌공원로,25,1534-2,2022-05-01 12:37:48,"레져,체육||구기||당구장",False
19732,19733,27048768,대대전용클럽,,battalion club,Arts and Entertainment,Billiards,126.72505099999997,37.401510599999774,대한민국,KOR,KOR,인천광역시,남동구,,논현동,,청능대로,593,616-4,2022-08-12 13:15:03,"레져,체육||구기||당구장",False
20248,20249,27210164,인영당구장,,Inyeong billiard hall,Arts and Entertainment,Billiards,126.71164147007993,37.50401114679097,대한민국,KOR,KOR,인천광역시,부평구,,산곡동,,원적로,407,411-5,2022-05-01 12:37:48,"레져,체육||구기||당구장",False
20600,20601,3124912,프로당구클럽,,professional billiards club,Arts and Entertainment,Billiards,126.71041229999994,37.533474699999815,대한민국,KOR,KOR,인천광역시,계양구,,효성동,,안남로,566,60-13,2022-07-19 20:20:05,"레져,체육||구기||당구장",False
21208,21209,3122267,플러스3당구클럽,,Plus 3 Billiards Club,Arts and Entertainment,Billiards,126.70196066898188,37.44561373278498,대한민국,KOR,KOR,인천광역시,남동구,,구월동,,성말로,9,1457,2019-11-14 23:28:31,"레져,체육||구기||당구장",False
21470,21471,3123043,비타민당구클럽,비타민당구장,vitamin billiards club,Arts and Entertainment,Billiards,126.71116707331493,37.525205362043096,대한민국,KOR,KOR,인천광역시,계양구,,효성동,,아나지로,174,302-9,2022-08-24 14:41:06,"레져,체육||구기||당구장",False
21821,21822,27050448,블루텍 당구클럽,,Blue Tech Billiards Club,Arts and Entertainment,Billiards,126.61438912655886,37.596159615336326,대한민국,KOR,KOR,인천광역시,서구,,오류동,,보듬로,158,1656-1,2022-08-16 16:52:33,"레져,체육||구기||당구장",False
23180,23181,20168252,신세계당구장,,Shinsegae Billiard Hall,Arts and Entertainment,Billiards,126.73649346423096,37.54527159420722,대한민국,KOR,KOR,인천광역시,계양구,,임학동,,임학동로,37,66-1,2022-08-24 14:41:06,"레져,체육||구기||당구장",False
23404,23405,4343196,정당구장,엘지당구장,party ballpark,Arts and Entertainment,Billiards,126.72838162249091,37.49804048983949,대한민국,KOR,KOR,인천광역시,부평구,,부평동,,부흥로328번길,3,241-4,2022-08-24 14:41:06,"레져,체육||구기||당구장",False
23846,23847,5721362,KT당구클럽,케이티당구클럽,KT Billiards Club,Arts and Entertainment,Billiards,126.73069868977292,37.50375015049449,대한민국,KOR,KOR,인천광역시,부평구,,부평동,,장제로,203,10-875,2019-12-09 0:00:00,"레져,체육||구기||당구장",False
24178,24179,27095042,류당구클럽,,Ryu Billiards Club,Arts and Entertainment,Billiards,126.73726904330196,37.497063478668,대한민국,KOR,KOR,인천광역시,부평구,,부개동,,동수천로,132,502-9,2022-08-08 10:29:42,"레져,체육||구기||당구장",False
24228,24229,3120741,풍림당구장,,Poonglim Billiard Hall,Arts and Entertainment,Billiards,126.65668299999994,37.42676799999979,대한민국,KOR,KOR,인천광역시,연수구,,옥련동,,비류대로186번길,21,643-3,2022-05-01 12:37:48,"레져,체육||구기||당구장",False
24493,24494,3127201,그린당구장,,green billiard room,Arts and Entertainment,Billiards,126.66510211026892,37.5135860591622,대한민국,KOR,KOR,인천광역시,서구,,석남동,,새오개로,37,199-135,2020-01-14 0:00:00,"레져,체육||구기||당구장",False
24718,24719,5673084,플러스당구장,,plus billiard room,Arts and Entertainment,Billiards,126.6719538843909,37.497677136221995,대한민국,KOR,KOR,인천광역시,서구,,가좌동,,가정로,146,114-71,2022-08-24 14:41:06,"레져,체육||구기||당구장",False
25215,25216,27235321,Y2K당구장,,Y2K billiard room,Arts and Entertainment,Billiards,126.69050439374676,37.61856971317271,대한민국,KOR,KOR,인천광역시,서구,,불로동,,검단로,842,308,2022-08-12 13:15:03,"레져,체육||구기||당구장",False
26866,26867,3118604,코빌당구장,,coville billiard room,Arts and Entertainment,Billiards,126.6902138467299,37.449589495487565,대한민국,KOR,KOR,인천광역시,미추홀구,,주안동,,경원대로,752,1565,2022-08-24 14:41:06,"레져,체육||구기||당구장",False
26868,26869,27047794,플러스대대전용당구클럽,,Plus Daejeon Billiards Club,Arts and Entertainment,Billiards,126.67674791099188,37.41405530203425,대한민국,KOR,KOR,인천광역시,연수구,,연수동,,먼우금로,190,597-4,2022-05-01 12:37:48,"레져,체육||구기||당구장",False
26878,26879,6209361,알콩당구클럽,,Alkong Billiards Club,Arts and Entertainment,Billiards,126.66758425355692,37.596744691767725,대한민국,KOR,KOR,인천광역시,서구,,마전동,,완정로65번길,5,1028-5,2020-01-14 0:00:00,"레져,체육||구기||당구장",False
26905,26906,3116378,프로당구클럽,,professional billiards club,Arts and Entertainment,Billiards,126.64536965354384,37.42244570888245,대한민국,KOR,KOR,인천광역시,연수구,,옥련동,,독배로,20,462-179,2022-08-16 16:52:33,"레져,체육||구기||당구장",False
27533,27534,20481538,가브리엘대대클럽,,Gabriel Battalion Club,Arts and Entertainment,Billiards,126.62485851778384,37.470632188980574,대한민국,KOR,KOR,인천광역시,중구,,신생동,,제물량로166번길,1-21,2-52,2022-08-24 14:41:06,"레져,체육||구기||당구장",False
27920,27921,4353345,매니아당구클럽,,Mania Billiards Club,Arts and Entertainment,Billiards,126.68162109999996,37.544145599999815,대한민국,KOR,KOR,인천광역시,서구,,심곡동,,심곡로,125,283-12,2022-08-12 13:15:03,"레져,체육||구기||당구장",False
28772,28773,4355076,럭셔리당구장,,luxury billiard room,Arts and Entertainment,Billiards,126.67430285445388,37.5437598886987,대한민국,KOR,KOR,인천광역시,서구,,심곡동,,탁옥로,42,249-1,2022-08-16 16:52:33,"레져,체육||구기||당구장",False
28937,28938,5711818,서문당구장,,Seomun Billiard Hall,Arts and Entertainment,Billiards,126.70798764751189,37.512526665918315,대한민국,KOR,KOR,인천광역시,부평구,,청천동,,세월천로,13,191-17,2022-05-01 12:37:48,"레져,체육||구기||당구장",False
29125,29126,20476395,필당구장,,billiard hall,Arts and Entertainment,Billiards,126.65004265940603,37.45709940262356,대한민국,KOR,KOR,인천광역시,미추홀구,,용현동,,독배로,420,459-29,2022-05-01 12:37:48,"레져,체육||구기||당구장",False
29444,29445,6227275,킹카당구장,,king car billiard room,Arts and Entertainment,Billiards,126.72526078351092,37.504757164794086,대한민국,KOR,KOR,인천광역시,부평구,,부평동,,길주남로,33,889-6,2022-08-24 14:41:06,"레져,체육||구기||당구장",False
29771,29772,27101177,드림당구장,,dream billiard room,Arts and Entertainment,Billiards,126.70510393032588,37.46533583111358,대한민국,KOR,KOR,인천광역시,남동구,,간석동,,경인로,607,250-3,2022-05-01 12:37:48,"레져,체육||구기||당구장",False
30754,30755,3809619,귀빈당구장,,VIP billiard room,Arts and Entertainment,Billiards,126.62900670707285,37.47497237649226,대한민국,KOR,KOR,인천광역시,중구,,내동,,우현로67번길,39,12-3,2022-08-16 16:52:33,"레져,체육||구기||당구장",False
30807,30808,4326836,삼성당구장,,Samsung Billiard Hall,Arts and Entertainment,Billiards,126.70105054739788,37.46781804190558,대한민국,KOR,KOR,인천광역시,남동구,,간석동,,백범로,451,574-21,2022-08-24 14:41:06,"레져,체육||구기||당구장",False
30859,30860,5662258,청라당구클럽,,Cheongna Billiards Club,Arts and Entertainment,Billiards,126.65237154285188,37.5333929622485,대한민국,KOR,KOR,인천광역시,서구,,청라동,,중봉대로612번길,10-22,162-8,2022-08-16 16:52:33,"레져,체육||구기||당구장",False
31344,31345,3126961,스카이당구장,스카이당구장,Sky Billiard Room,Arts and Entertainment,Billiards,126.67823605753787,37.41416319686696,대한민국,KOR,KOR,인천광역시,연수구,,연수동,,청능대로113번길,43,598-2,2022-08-16 16:52:33,"레져,체육||구기||당구장",False
32567,32568,27212100,용당구장,,dragon billiard room,Arts and Entertainment,Billiards,126.73351851336096,37.48467092076567,대한민국,KOR,KOR,인천광역시,부평구,,부개동,,동수로128번길,11,442-17,2022-08-16 16:52:33,"레져,체육||구기||당구장",False
32905,32906,4334123,장안당구장,,Jangan Billiard Hall,Arts and Entertainment,Billiards,126.64520373343785,37.46336034950718,대한민국,KOR,KOR,인천광역시,미추홀구,,숭의동,,경인로,17,162-1,2022-05-01 12:37:48,"레져,체육||구기||당구장",False
33255,33256,27182480,세븐당구클럽,,Seven billiard room,Arts and Entertainment,Billiards,126.72660829999997,37.493824599999805,대한민국,KOR,KOR,인천광역시,부평구,,부평동,,대정로,66,152-1,2022-08-12 13:15:03,"레져,체육||구기||당구장",False
33602,33603,5695066,강화당구클럽,강화당구장,Ganghwa Billiards Club,Arts and Entertainment,Billiards,126.48993849970967,37.74335010090015,대한민국,KOR,KOR,인천광역시,강화군,,강화읍,갑곳리,강화대로,361,204-2,2022-08-12 13:15:03,"레져,체육||구기||당구장",False
33908,33909,5675431,프로당구클럽,,professional billiards club,Arts and Entertainment,Billiards,126.70537065425589,37.500061683918986,대한민국,KOR,KOR,인천광역시,부평구,,산곡동,,부흥로123번길,33,263-22,2022-05-01 12:37:48,"레져,체육||구기||당구장",False
36576,36577,5715696,SBS당구장,에스비에스당구장,SBS billiard room,Arts and Entertainment,Billiards,126.6788767325529,37.49284281477078,대한민국,KOR,KOR,인천광역시,서구,,가좌동,,신진말로28번길,3,212-15,2020-01-14 0:00:00,"레져,체육||구기||당구장",False
36597,36598,5725337,큐당구장,,cue billiard room,Arts and Entertainment,Billiards,126.5073907729717,37.48420219753925,대한민국,KOR,KOR,인천광역시,중구,,운서동,,넙디로,26,2934-1,2022-08-24 14:41:06,"레져,체육||구기||당구장",False
36602,36603,5673891,비앤비당구클럽,B앤B당구장,B&B Billiards Club,Arts and Entertainment,Billiards,126.72557289955192,37.45351544642107,대한민국,KOR,KOR,인천광역시,남동구,,만수동,,복개동로,64,921,2022-08-16 16:52:33,"레져,체육||구기||당구장",False
36956,36957,5665859,빌텍당구장,,Biltech billiard room,Arts and Entertainment,Billiards,126.6713173047069,37.49451678781461,대한민국,KOR,KOR,인천광역시,서구,,가좌동,,가정로,109,146-20,2022-08-12 13:15:03,"레져,체육||구기||당구장",False
37185,37186,3131015,구리구리Q 당구장,,Guri Guri Q Billiard Room,Arts and Entertainment,Billiards,126.6675393414599,37.596372120489626,대한민국,KOR,KOR,인천광역시,서구,,마전동,,완정로65번길,9,1028-3,2022-05-01 12:37:48,"레져,체육||구기||당구장",False
37859,37860,27229141,에스비에스당구장,,SBS Billiard Hall,Arts and Entertainment,Billiards,126.74150356396694,37.5491413148717,대한민국,KOR,KOR,인천광역시,계양구,,병방동,,장제로,927,428,2022-08-24 14:41:06,"레져,체육||구기||당구장",False
37899,37900,5660259,길당구클럽,,Gil Billiards Club,Arts and Entertainment,Billiards,126.72641142942192,37.45936776467556,대한민국,KOR,KOR,인천광역시,남동구,,만수동,,백범로,203,897-2,2022-08-30 9:43:30,"레져,체육||구기||당구장",False
38442,38443,27501347,경남당구장,,Gyeongnam billiard hall,Arts and Entertainment,Billiards,126.70911041586729,37.5036874196196,대한민국,KOR,KOR,인천광역시,부평구,,산곡동,,안남로222번길,27,142-3,2022-08-30 9:43:30,"레져,체육||구기||당구장",False
39403,39404,27083451,cc당구장,,cc billiard room,Arts and Entertainment,Billiards,126.70411267684688,37.46015519608797,대한민국,KOR,KOR,인천광역시,남동구,,간석동,,석산로,112,458-10,2022-05-01 12:37:48,"레져,체육||구기||당구장",False
40026,40027,6227114,우리당구클럽,,our billiards club,Arts and Entertainment,Billiards,126.65353955606388,37.458799489708476,대한민국,KOR,KOR,인천광역시,미추홀구,,용현동,,독정이로33번길,3,492-9,2022-08-24 14:41:06,"레져,체육||구기||당구장",False
40458,40459,20199777,제닉스당구클럽,제닉스당구장,Xenix Billiards Club,Arts and Entertainment,Billiards,126.67637175346296,37.447574164096885,대한민국,KOR,KOR,인천광역시,미추홀구,,주안동,,신기길16번길,6-6,1327-28,2022-05-01 12:37:48,"레져,체육||구기||당구장",False
40506,40507,4340835,고래당구클럽,고래당구장,whale billiards club,Arts and Entertainment,Billiards,126.73680072331793,37.39981737672985,대한민국,KOR,KOR,인천광역시,남동구,,논현동,,장도로,64,678-4,2022-08-24 14:41:06,"레져,체육||구기||당구장",False
40637,40638,5659710,포커스당구장,,focus billiard room,Arts and Entertainment,Billiards,126.6791532451529,37.46606975174667,대한민국,KOR,KOR,인천광역시,미추홀구,,주안동,,길파로,1,25-39,2022-09-06 15:18:26,"레져,체육||구기||당구장",False
40955,40956,5672516,프로당구클럽,,professional billiards club,Arts and Entertainment,Billiards,126.72233716966988,37.45593836736277,대한민국,KOR,KOR,인천광역시,남동구,,만수동,,구월로,285,906-4,2022-08-16 16:52:33,"레져,체육||구기||당구장",False
41194,41195,6230680,봉봉당구클럽,봉봉당구장,Bonbong Billiards Club,Arts and Entertainment,Billiards,126.68254704309189,37.461157645382464,대한민국,KOR,KOR,인천광역시,미추홀구,,주안동,,주안중로,29,154-8,2019-11-14 23:30:27,"레져,체육||구기||당구장",False
41410,41411,5660718,프로당구클럽,,professional billiards club,Arts and Entertainment,Billiards,126.73606936319592,37.5224725466822,대한민국,KOR,KOR,인천광역시,부평구,,삼산동,,부평북로,384,378-1,2022-08-24 14:41:06,"레져,체육||구기||당구장",False
41413,41414,4358449,날마다당구클럽,,Daily billiards club,Arts and Entertainment,Billiards,126.67473634483387,37.54201974481871,대한민국,KOR,KOR,인천광역시,서구,,심곡동,,심곡로,44-1,256-4,2022-08-16 16:52:33,"레져,체육||구기||당구장",False
41696,41697,3257354,비트당구장,,beat billiard room,Arts and Entertainment,Billiards,126.71373888761092,37.46400223799839,대한민국,KOR,KOR,인천광역시,남동구,,간석동,,백범로,327,122-10,2022-08-24 14:41:06,"레져,체육||구기||당구장",False
42283,42284,27210962,미스터큐당구장,,Mr. Q Billiard Room,Arts and Entertainment,Billiards,126.72663805150792,37.50479204248528,대한민국,KOR,KOR,인천광역시,부평구,,부평동,,신트리로46번길,15-10,904-3,2022-05-01 12:37:48,"레져,체육||구기||당구장",False
43276,43277,5702128,KTB당구장,케이티비당구장,KTB billiard room,Arts and Entertainment,Billiards,126.68578918663188,37.49604402906289,대한민국,KOR,KOR,인천광역시,서구,,가좌동,,건지로399번길,3,79,2022-05-01 12:37:48,"레져,체육||구기||당구장",False
44164,44165,27140864,나인당구장,,Na individual ballpark,Arts and Entertainment,Billiards,126.7246808959189,37.498702491448704,대한민국,KOR,KOR,인천광역시,부평구,,부평동,,부흥로,295,441-36,2022-05-01 12:37:48,"레져,체육||구기||당구장",False
44445,44446,5675409,거북당구장,,turtle billiard room,Arts and Entertainment,Billiards,126.6564244888259,37.45145106919047,대한민국,KOR,KOR,인천광역시,미추홀구,,용현동,,인하로,71-1,192-2,2021-12-23 15:49:18,"레져,체육||구기||당구장",False
44611,44612,5656274,송도당구클럽,,Songdo Billiards Club,Arts and Entertainment,Billiards,126.65675876955088,37.427195436895744,대한민국,KOR,KOR,인천광역시,연수구,,옥련동,,한나루로,199,283-1,2020-01-14 23:23:42,"레져,체육||구기||당구장",False
44704,44705,3116375,SBS당구클럽,에스비에스당구클럽,SBS Billiards Club,Arts and Entertainment,Billiards,126.64467874714185,37.42329900249416,대한민국,KOR,KOR,인천광역시,연수구,,옥련동,,독배로,29,194-2,2022-08-24 14:41:06,"레져,체육||구기||당구장",False
44941,44942,27225108,자이당구장,,Jai Billiard Hall,Arts and Entertainment,Billiards,126.70940962273087,37.460628905849056,대한민국,KOR,KOR,인천광역시,남동구,,간석동,,석산로,157,195-3,2022-08-16 16:52:33,"레져,체육||구기||당구장",False
45141,45142,1256517,에이스당구장,,ace billiard room,Arts and Entertainment,Billiards,124.70353749959499,37.83318329998971,대한민국,KOR,KOR,인천광역시,옹진군,,대청면,대청리,대청로223번길,12,788-2,2022-05-01 12:37:48,"레져,체육||구기||당구장",False
45964,45965,4358522,풍림당구클럽,,Poonglim Billiards Club,Arts and Entertainment,Billiards,126.7154776114219,37.429305616967255,대한민국,KOR,KOR,인천광역시,남동구,,남촌동,,남촌로84번길,17,289,2022-08-16 16:52:33,"레져,체육||구기||당구장",False
46534,46535,5660391,국제당구클럽,,International Billiards Club,Arts and Entertainment,Billiards,126.68409240983696,37.43741629990018,대한민국,KOR,KOR,인천광역시,미추홀구,,문학동,,소성로,334,391-1,2022-05-01 12:37:48,"레져,체육||구기||당구장",False
46965,46966,5655994,프로당구장,,professional billiard room,Arts and Entertainment,Billiards,126.7089600127549,37.48775782540496,대한민국,KOR,KOR,인천광역시,부평구,,산곡동,,경원대로,1244,310-109,2019-11-14 23:28:27,"레져,체육||구기||당구장",False
47010,47011,27215420,씨씨당구클럽,,cc billiards club,Arts and Entertainment,Billiards,126.66372671267789,37.42872407915876,대한민국,KOR,KOR,인천광역시,연수구,,청학동,,청학로16번길,3,529-11,2022-08-16 16:52:33,"레져,체육||구기||당구장",False
48121,48122,27184824,sbs당구장,,sbs billiard room,Arts and Entertainment,Billiards,126.71481895548987,37.5066203718558,대한민국,KOR,KOR,인천광역시,부평구,,청천동,,원길로,34,259-3,2022-08-16 16:52:33,"레져,체육||구기||당구장",False
48231,48232,20760658,현대캐롬클럽,,Hyundai Carom Club,Arts and Entertainment,Billiards,126.6470252603799,37.46407801200077,대한민국,KOR,KOR,인천광역시,미추홀구,,숭의동,,경인로,35,148-29,2022-05-18 1:21:28,"레져,체육||구기||당구장",False
48301,48302,5712209,SBS당구장,에스비에스당구장,SBS billiard room,Arts and Entertainment,Billiards,126.72315434642093,37.45585618660629,대한민국,KOR,KOR,인천광역시,남동구,,만수동,,구월로,291-1,906-16,2022-05-01 12:37:48,"레져,체육||구기||당구장",False
48645,48646,27181129,빌몬스터 당구클럽,,Bill Monster Billiards Club,Arts and Entertainment,Billiards,126.72570533825493,37.49280195911141,대한민국,KOR,KOR,인천광역시,부평구,,부평동,,경원대로1403번길,33,153-3,2022-08-16 16:52:33,"레져,체육||구기||당구장",False
48680,48681,27184152,푸르지오당구클럽,,Prugio Billiards Club,Arts and Entertainment,Billiards,126.69514359161688,37.40962114039275,대한민국,KOR,KOR,인천광역시,남동구,,논현동,,남동서로236번길,30,448,2022-05-01 12:37:48,"레져,체육||구기||당구장",False
48754,48755,3104833,나이스당구장,,nice billiard hall,Arts and Entertainment,Billiards,126.65163199999996,37.4878779999998,대한민국,KOR,KOR,인천광역시,동구,,송현동,,방축로37번길,37,128-11,2022-08-16 16:52:33,"레져,체육||구기||당구장",False
49355,49356,5716216,씨유당구클럽,씨유당구클럽,Seeyu Billiards Club,Arts and Entertainment,Billiards,126.73765739791592,37.5348498336699,대한민국,KOR,KOR,인천광역시,계양구,,계산동,,오조산로45번길,7,1083-8,2022-08-16 16:52:33,"레져,체육||구기||당구장",False
49407,49408,20185442,킹당구장,,king billiard room,Arts and Entertainment,Billiards,126.71444812037994,37.432186010539375,대한민국,KOR,KOR,인천광역시,남동구,,남촌동,,남촌동로,38-1,349-3,2021-12-23 15:49:18,"레져,체육||구기||당구장",False
50878,50879,3455451,헐리우드당구장,,hollywood billiard hall,Arts and Entertainment,Billiards,126.48541339999984,37.64033579999985,대한민국,KOR,KOR,인천광역시,강화군,,길상면,온수리,마니산로,58,433-9,2022-08-16 16:52:33,"레져,체육||구기||당구장",False
51781,51782,27102249,태성당구카페,,Taeseong Billiards Cafe,Arts and Entertainment,Billiards,126.73730294870992,37.5396838975285,대한민국,KOR,KOR,인천광역시,계양구,,용종동,,오조산공원로,22,209-4,2022-05-01 12:37:48,"레져,체육||구기||당구장",False
52255,52256,6226413,벤허당구클럽,,Ben-Hur Billiards Club,Arts and Entertainment,Billiards,126.63128491128585,37.47395693247988,대한민국,KOR,KOR,인천광역시,중구,,인현동,,우현로90번길,19-8,24-18,2022-05-01 12:37:48,"레져,체육||구기||당구장",False
52524,52525,4333765,서울당구장,,Seoul billiard hall,Arts and Entertainment,Billiards,126.61800403598684,37.47500824211538,대한민국,KOR,KOR,인천광역시,중구,,선린동,,차이나타운로52번길,11,40-1,2022-08-18 12:00:50,"레져,체육||구기||당구장",False
54196,54197,3122560,하이런당구클럽,,high run billiards club,Arts and Entertainment,Billiards,126.68309464132588,37.42549112508628,대한민국,KOR,KOR,인천광역시,연수구,,연수동,,비류대로433번길,26,508,2022-05-01 12:37:48,"레져,체육||구기||당구장",False
54566,54567,6204234,SBS당구클럽,에스비에스당구클럽,SBS Billiards Club,Arts and Entertainment,Billiards,126.69493434407693,37.40907257305036,대한민국,KOR,KOR,인천광역시,남동구,,논현동,,남동대로239번길,72-29,449-2,2019-11-14 23:30:26,"레져,체육||구기||당구장",False
54569,54570,3131925,카카오당구클럽,엠비씨당구클럽,MBC Billiards Club,Arts and Entertainment,Billiards,126.6708166084978,37.40711381688831,대한민국,KOR,KOR,인천광역시,연수구,,동춘동,,앵고개로246번길,35,934-6,2022-08-18 12:00:50,"레져,체육||구기||당구장",False
54659,54660,5694252,프로당구장,,professional billiard room,Arts and Entertainment,Billiards,126.67165501272991,37.45844237100958,대한민국,KOR,KOR,인천광역시,미추홀구,,도화동,,한나루로,585,468-7,2022-08-24 14:41:06,"레져,체육||구기||당구장",False
55065,55066,3129479,VIP당구장,브이아이피당구장,V I P Billiard Room,Arts and Entertainment,Billiards,126.70430118619292,37.519869872136994,대한민국,KOR,KOR,인천광역시,부평구,,청천동,,마장로,465,14-15,2019-11-14 0:00:00,"레져,체육||구기||당구장",False
56323,56324,27093537,큐스타당구클럽,,Q Star Billiards Club,Arts and Entertainment,Billiards,126.64359865613184,37.385441122231846,대한민국,KOR,KOR,인천광역시,연수구,,송도동,,테크노파크로111번길,12,8-6,2022-08-12 13:15:03,"레져,체육||구기||당구장",False
56859,56860,27116091,더당구장,,the billiard room,Arts and Entertainment,Billiards,126.66060420943391,37.499470515650394,대한민국,KOR,KOR,인천광역시,서구,,석남동,,건지로,167,223-196,2022-08-12 13:15:03,"레져,체육||구기||당구장",False
57185,57186,5737703,프렌드당구장,,friend billiard room,Arts and Entertainment,Billiards,126.73331707834696,37.45263916519048,대한민국,KOR,KOR,인천광역시,남동구,,만수동,,하촌로,56,972-4,2022-08-12 13:15:03,"레져,체육||구기||당구장",False
57662,57663,3126533,샤방샤방당구장,,shabang shabang billiard room,Arts and Entertainment,Billiards,126.6827627666329,37.495712978304795,대한민국,KOR,KOR,인천광역시,서구,,가좌동,,원적로,103,122-5,2022-08-24 14:41:06,"레져,체육||구기||당구장",False
57677,57678,3135350,한게임당구장,,Hangame billiard hall,Arts and Entertainment,Billiards,126.68252207240988,37.48836706832908,대한민국,KOR,KOR,인천광역시,서구,,가좌동,,장고개로,276,332-14,2022-05-01 12:37:48,"레져,체육||구기||당구장",False
57817,57818,5692326,힐링당구클럽,,Healing Billiards Club,Arts and Entertainment,Billiards,126.62479421272683,37.47180719346447,대한민국,KOR,KOR,인천광역시,중구,,관동3가,,개항로,19,3-2,2022-08-16 16:52:33,"레져,체육||구기||당구장",False
58313,58314,6216211,진성당구장,,Jinseong Billiard Hall,Arts and Entertainment,Billiards,126.62453621022686,37.47055376486826,대한민국,KOR,KOR,인천광역시,중구,,신생동,,신포로,18,2-30,2022-08-24 14:41:06,"레져,체육||구기||당구장",False
58586,58587,3118697,짱당구클럽,,jjang billiard club,Arts and Entertainment,Billiards,126.72652202404292,37.52788721533291,대한민국,KOR,KOR,인천광역시,계양구,,작전동,,효서로,274,386-4,2022-08-24 14:41:06,"레져,체육||구기||당구장",False
58912,58913,5706152,연수역당구클럽,연수역당구장,Yeonsu Station Billiards Club,Arts and Entertainment,Billiards,126.6785013146974,37.41878975325314,대한민국,KOR,KOR,인천광역시,연수구,,연수동,,함박뫼로50번길,105,568-11,2022-08-24 14:41:06,"레져,체육||구기||당구장",False
58951,58952,3144018,거북당구클럽,,Turtle Billiards Club,Arts and Entertainment,Billiards,126.6736031655769,37.50327741688018,대한민국,KOR,KOR,인천광역시,서구,,석남동,,거북로,105-1,541-26,2022-05-01 12:37:48,"레져,체육||구기||당구장",False
59138,59139,3128307,부개당구클럽,,boogae billiards club,Arts and Entertainment,Billiards,126.73414019769092,37.5042072707578,대한민국,KOR,KOR,인천광역시,부평구,,부개동,,길주남로,111,12-215,2022-08-16 16:52:33,"레져,체육||구기||당구장",False
59416,59417,5701562,프라자당구클럽,,Plaza Billiards Club,Arts and Entertainment,Billiards,126.73617650936394,37.44307823714807,대한민국,KOR,KOR,인천광역시,남동구,,만수동,,장승남로,36,1041,2019-11-14 23:28:46,"레져,체육||구기||당구장",False
59535,59536,3129473,프로당구클럽,,professional billiards club,Arts and Entertainment,Billiards,126.70429801877488,37.52089751551281,대한민국,KOR,KOR,인천광역시,부평구,,청천동,,마장로,477,13-43,2019-11-14 23:24:32,"레져,체육||구기||당구장",False
59678,59679,27212741,메카당구장,,mecca billiard room,Arts and Entertainment,Billiards,126.71106978285488,37.40210714223405,대한민국,KOR,KOR,인천광역시,남동구,,논현동,,논현로,42,636-1,2022-08-16 16:52:33,"레져,체육||구기||당구장",False
59999,60000,5686177,엠비씨당구장,MBC당구장,MBC billiard room,Arts and Entertainment,Billiards,126.68420988436591,37.45844164541479,대한민국,KOR,KOR,인천광역시,미추홀구,,주안동,,경인로,397,79-10,2022-08-24 14:41:06,"레져,체육||구기||당구장",False
60094,60095,6232810,빅박스당구장,,big box billiard room,Arts and Entertainment,Billiards,126.73543589131692,37.5075648301686,대한민국,KOR,KOR,인천광역시,부평구,,삼산동,,충선로203번길,16,460-7,2022-08-24 14:41:06,"레져,체육||구기||당구장",False
60365,60366,27249639,두손당구장,,two-handed billiard room,Arts and Entertainment,Billiards,126.67981719999987,37.41578969999976,대한민국,KOR,KOR,인천광역시,연수구,,연수동,,용담로125번길,41,593-8,2022-05-01 12:37:48,"레져,체육||구기||당구장",False
60367,60368,20202883,원당구클럽,,Won Billiards Club,Arts and Entertainment,Billiards,126.69533565131896,37.40964030813468,대한민국,KOR,KOR,인천광역시,남동구,,논현동,,남동서로236번길,30,448,2021-12-23 15:49:18,"레져,체육||구기||당구장",False
60815,60816,27161792,존케이지 빌리어즈 당구장,,John Cage Billiards Billiards,Arts and Entertainment,Billiards,126.74768028528791,37.42578160144757,대한민국,KOR,KOR,인천광역시,남동구,,서창동,,서창남순환로215번길,36,688,2022-05-01 12:37:48,"레져,체육||구기||당구장",False
61330,61331,27121058,골든볼당구클럽,,Golden Ball Billiards Club,Arts and Entertainment,Billiards,126.7101334171719,37.5319232400454,대한민국,KOR,KOR,인천광역시,계양구,,효성동,,봉오대로555번길,14,66-1,2022-08-16 16:52:33,"레져,체육||구기||당구장",False
62183,62184,4336082,청학당구장,,Cheonghak Billiard Hall,Arts and Entertainment,Billiards,126.6622047770799,37.42756970303597,대한민국,KOR,KOR,인천광역시,연수구,,청학동,,청학로5번길,19,526-1,2022-08-24 14:41:06,"레져,체육||구기||당구장",False
62359,62360,5724274,캐빈당구장,,cabin billiard room,Arts and Entertainment,Billiards,126.70404384572988,37.5083178356616,대한민국,KOR,KOR,인천광역시,부평구,,산곡동,,길주로,378,99-33,2022-08-24 14:41:06,"레져,체육||구기||당구장",False
63590,63591,5709448,VIP당구장,VIP당구클럽,V I P Billiard Room,Arts and Entertainment,Billiards,126.69595590744092,37.44724403705548,대한민국,KOR,KOR,인천광역시,남동구,,구월동,,문화서로,21,1380-6,2022-08-24 14:41:06,"레져,체육||구기||당구장",False
64046,64047,5658487,스카이당구클럽,,Sky Billiards Club,Arts and Entertainment,Billiards,126.56351065071279,37.48877239636375,대한민국,KOR,KOR,인천광역시,중구,,중산동,,하늘별빛로65번길,7-4,1885-1,2022-08-16 16:52:33,"레져,체육||구기||당구장",False
64208,64209,5686751,보성당구클럽,,Boseong Billiards Club,Arts and Entertainment,Billiards,126.70470736632888,37.51786550965939,대한민국,KOR,KOR,인천광역시,부평구,,청천동,,마장로,446,11-34,2019-11-14 0:00:00,"레져,체육||구기||당구장",False
64517,64518,3115551,당구SBS클럽,당구에스비에스클럽,Billiards SBS Club,Arts and Entertainment,Billiards,126.67849075077189,37.437585714266966,대한민국,KOR,KOR,인천광역시,미추홀구,,문학동,,매소홀로514번길,38,353-7,2022-05-01 12:37:48,"레져,체육||구기||당구장",False
65551,65552,5673511,영진당구클럽,,Youngjin Billiards Club,Arts and Entertainment,Billiards,126.67915540527306,37.462954722716354,대한민국,KOR,KOR,인천광역시,미추홀구,,주안동,,미추홀대로733번길,15,221-2,2022-05-01 12:37:48,"레져,체육||구기||당구장",False
66150,66151,4330065,아지트당구클럽,,hideout billiards club,Arts and Entertainment,Billiards,126.60633844022784,37.454857490214856,대한민국,KOR,KOR,인천광역시,중구,,항동7가,,축항대로86번길,19,27-134,2022-08-12 13:15:03,"레져,체육||구기||당구장",False
66728,66729,3127184,성진당구장,,Seongjin Billiard Hall,Arts and Entertainment,Billiards,126.68034499999995,37.54382999999982,대한민국,KOR,KOR,인천광역시,서구,,심곡동,,탁옥로97번길,1,282-5,2022-08-16 16:52:33,"레져,체육||구기||당구장",False
66864,66865,5710218,포지션당구클럽,,position billiards club,Arts and Entertainment,Billiards,126.72658009224392,37.460084355891595,대한민국,KOR,KOR,인천광역시,남동구,,만수동,,백범로206번길,7,114-9,2021-12-23 15:49:18,"레져,체육||구기||당구장",False
66906,66907,27501287,인천당구아카데미,,Incheon Billiards Academy,Arts and Entertainment,Billiards,126.72406752070297,37.52870834275762,대한민국,KOR,KOR,인천광역시,계양구,,작전동,,봉오대로676번길,13,868-3,2022-08-30 9:43:30,"레져,체육||구기||당구장",False
66956,66957,5683451,시네루당구장,,Cineru billiard hall,Arts and Entertainment,Billiards,126.70452540045488,37.5127667518364,대한민국,KOR,KOR,인천광역시,부평구,,청천동,,세월천로,45,190-3,2022-08-24 14:41:06,"레져,체육||구기||당구장",False
66980,66981,20762934,황금당구장,,golden billiard room,Arts and Entertainment,Billiards,126.64424543925696,37.4755327428739,대한민국,KOR,KOR,인천광역시,동구,,송림동,,송림로,84,58-1,2022-08-24 14:41:06,"레져,체육||구기||당구장",False
68982,68983,5710160,알파당구클럽,알파당구장,Alpha Billiards Club,Arts and Entertainment,Billiards,126.69948287003692,37.46711826225236,대한민국,KOR,KOR,인천광역시,남동구,,간석동,,석정로,578,580-1,2022-08-24 14:41:06,"레져,체육||구기||당구장",False
69695,69696,5669816,동네당구장,,neighborhood billiard hall,Arts and Entertainment,Billiards,126.69535501929188,37.47179825119888,대한민국,KOR,KOR,인천광역시,부평구,,십정동,,배곶남로9번길,4,355-18,2022-08-24 14:41:06,"레져,체육||구기||당구장",False
70258,70259,5723929,하이런 당구클럽,하이런당구장,high run billiards club,Arts and Entertainment,Billiards,126.71013460000188,37.50371250000118,대한민국,KOR,KOR,인천광역시,부평구,,산곡동,,원적로,392,143-2,2022-08-16 16:52:33,"레져,체육||구기||당구장",False
70277,70278,4333731,만프로당구장,만프로당구장,manpro billiard room,Arts and Entertainment,Billiards,126.73925141213098,37.443311584193175,대한민국,KOR,KOR,인천광역시,남동구,,만수동,,장승남로,64,1039-1,2022-08-16 16:52:33,"레져,체육||구기||당구장",False
71446,71447,6206874,센트럴당구장,,Central billiard hall,Arts and Entertainment,Billiards,126.65956148790588,37.44505694869896,대한민국,KOR,KOR,인천광역시,미추홀구,,학익동,,소성로,93,420-18,2022-08-24 14:41:06,"레져,체육||구기||당구장",False
71514,71515,4349930,바다당구클럽,,sea billiards club,Arts and Entertainment,Billiards,126.70406378351989,37.517999853650494,대한민국,KOR,KOR,인천광역시,부평구,,청천동,,마장로,445,15-7,2022-08-12 13:15:03,"레져,체육||구기||당구장",False
72128,72129,4323355,석암당구장,,Seokam Billiard Hall,Arts and Entertainment,Billiards,126.69254113875888,37.45741768250628,대한민국,KOR,KOR,인천광역시,미추홀구,,주안동,,구월로,20,1583-7,2019-11-14 23:05:38,"레져,체육||구기||당구장",False
72431,72432,4341188,CJ당구클럽,씨제이당구클럽,CJ Billiards Club,Arts and Entertainment,Billiards,126.67597719999993,37.416320799999774,대한민국,KOR,KOR,인천광역시,연수구,,청학동,,용담로,93,500-4,2022-05-01 12:37:48,"레져,체육||구기||당구장",False
72510,72511,3124276,K&B당구장,케이앤비당구장,K&B billiard room,Arts and Entertainment,Billiards,126.72745372498493,37.537088225965284,대한민국,KOR,KOR,인천광역시,계양구,,계산동,,계산로,138,990-13,2022-08-24 14:41:06,"레져,체육||구기||당구장",False
73245,73246,27063310,ibs송도캐롬클럽,,ibs songdo carom club,Arts and Entertainment,Billiards,126.65162858598389,37.39555058603563,대한민국,KOR,KOR,인천광역시,연수구,,송도동,,신송로,121,3-4,2022-08-12 13:15:03,"레져,체육||구기||당구장",False
73481,73482,4343451,월드당구장,,world billiard hall,Arts and Entertainment,Billiards,126.6707677322899,37.50969168647679,대한민국,KOR,KOR,인천광역시,서구,,석남동,,길주로75번길,36,513,2022-08-24 14:41:06,"레져,체육||구기||당구장",False
73566,73567,3128875,수당구장,,billiard hall,Arts and Entertainment,Billiards,126.7026294989439,37.50146426725109,대한민국,KOR,KOR,인천광역시,부평구,,산곡동,,마장로,261,191-12,2022-08-24 14:41:06,"레져,체육||구기||당구장",False
74025,74026,6218801,1번지당구장,일번지당구장,1 billiard hall,Arts and Entertainment,Billiards,126.67772354007488,37.5149157915312,대한민국,KOR,KOR,인천광역시,서구,,가정동,,서달로179번길,12-4,565-3,2022-08-24 14:41:06,"레져,체육||구기||당구장",False
74524,74525,27157839,MBC당구장,엠비씨당구장,MBC billiard room,Arts and Entertainment,Billiards,126.74880818370896,37.423129041646256,대한민국,KOR,KOR,인천광역시,남동구,,서창동,,서창남순환로216번길,20,703-2,2022-08-16 16:52:33,"레져,체육||구기||당구장",False
75042,75043,3118429,세계당구클럽,,world billiards club,Arts and Entertainment,Billiards,126.63495740187984,37.46598760597317,대한민국,KOR,KOR,인천광역시,중구,,신흥동3가,,제물량로,65,3-4,2022-08-24 14:41:06,"레져,체육||구기||당구장",False
75242,75243,5656307,프로당구클럽,,professional billiards club,Arts and Entertainment,Billiards,126.7078450885569,37.519485707715205,대한민국,KOR,KOR,인천광역시,부평구,,청천동,,평천로,145,399-3,2019-11-14 23:19:54,"레져,체육||구기||당구장",False
75560,75561,6218878,SBS당구장,에스비에스당구장,SBS billiard room,Arts and Entertainment,Billiards,126.67947578149588,37.54352679025201,대한민국,KOR,KOR,인천광역시,서구,,심곡동,,탁옥로,90,298-2,2020-01-14 23:36:46,"레져,체육||구기||당구장",False
75670,75671,5689275,매니아당구클럽,,Mania Billiards Club,Arts and Entertainment,Billiards,126.74849148875596,37.43881767800728,대한민국,KOR,KOR,인천광역시,남동구,,서창동,,장아산로,134-13,548-3,2022-08-16 16:52:33,"레져,체육||구기||당구장",False
75716,75717,4326955,현대당구클럽,,Hyundai Billiards Club,Arts and Entertainment,Billiards,126.74026522631193,37.44364051100519,대한민국,KOR,KOR,인천광역시,남동구,,만수동,,장승남로,71,1031,2019-11-14 23:24:14,"레져,체육||구기||당구장",False
75839,75840,20185299,J당구장,제이당구장,J billiard room,Arts and Entertainment,Billiards,126.65555586438089,37.47628704367368,대한민국,KOR,KOR,인천광역시,미추홀구,,도화동,,송림로,197-1,14-13,2022-05-01 12:37:48,"레져,체육||구기||당구장",False
76194,76195,6203759,삼산당구장,,Samsan Billiard Hall,Arts and Entertainment,Billiards,126.36618288514444,37.693333195406446,대한민국,KOR,KOR,인천광역시,강화군,,삼산면,석포리,삼산북로,16,525-2,2020-05-14 23:00:43,"레져,체육||구기||당구장",False
76229,76230,3129063,챔피언당구장,,champion billiard room,Arts and Entertainment,Billiards,126.68196199999996,37.55033699999984,대한민국,KOR,KOR,인천광역시,서구,,연희동,,심곡로,195,697-5,2022-08-12 13:15:03,"레져,체육||구기||당구장",False
77052,77053,3126402,제우스당구장,,Zeus Billiard Room,Arts and Entertainment,Billiards,126.7036168073419,37.506563939268,대한민국,KOR,KOR,인천광역시,부평구,,산곡동,,마장로,320,100-80,2022-08-24 14:41:06,"레져,체육||구기||당구장",False
80503,80504,2150642,허슬러당구장,,hustler billiard room,Arts and Entertainment,Billiards,126.65688104386987,37.45151654106886,대한민국,KOR,KOR,인천광역시,미추홀구,,용현동,,인하로67번길,6-31,191-92,2021-12-23 15:49:18,"레져,체육||구기||당구장",False
81885,81886,20469478,대광당구장,,Daegwang Billiard Hall,Arts and Entertainment,Billiards,126.66504502355488,37.479878058509264,대한민국,KOR,KOR,인천광역시,동구,,송림동,,방축로,191,297-37,2022-05-01 12:37:48,"레져,체육||구기||당구장",False
81942,81943,27048218,프로당구장,,pro billiard room,Arts and Entertainment,Billiards,126.6870862985199,37.47929679755708,대한민국,KOR,KOR,인천광역시,서구,,가좌동,,백범로630번길,22,482,2022-05-01 12:37:48,"레져,체육||구기||당구장",False
81961,81962,3130951,원당구장,,Won billiard hall,Arts and Entertainment,Billiards,126.6746807088969,37.517393045874286,대한민국,KOR,KOR,인천광역시,서구,,가정동,,원창로,228,515-31,2022-08-24 14:41:06,"레져,체육||구기||당구장",False
82168,82169,5658099,그냥당구클럽,,just billiards club,Arts and Entertainment,Billiards,126.72587323978352,37.537454114379166,대한민국,KOR,KOR,인천광역시,계양구,,계산동,,계산로,121,965,2022-08-24 14:41:06,"레져,체육||구기||당구장",False
82185,82186,3109563,SBS당구클럽,에스비에스당구클럽,SBS Billiards Club,Arts and Entertainment,Billiards,126.63447351218484,37.47808364995597,대한민국,KOR,KOR,인천광역시,동구,,송현동,,송현로,17,67-40,2022-05-01 12:37:48,"레져,체육||구기||당구장",False
83032,83033,6206996,신흥당구장,,Sinheung Billiard Hall,Arts and Entertainment,Billiards,126.63639098302784,37.46581815234586,대한민국,KOR,KOR,인천광역시,중구,,선화동,,서해대로454번길,15,33-2,2022-05-01 12:37:48,"레져,체육||구기||당구장",False
84351,84352,20170884,OK당구클럽,오케이당구클럽,OK Billiards Club,Arts and Entertainment,Billiards,126.70356692872492,37.52794292505101,대한민국,KOR,KOR,인천광역시,계양구,,효성동,,효서로,71,581-2,2022-08-24 14:41:06,"레져,체육||구기||당구장",False
84704,84705,5680931,당구매니아,,billiards nia,Arts and Entertainment,Billiards,126.70426719786988,37.51975586776182,대한민국,KOR,KOR,인천광역시,부평구,,청천동,,마장로,463,14-8,2022-08-16 16:52:33,"레져,체육||구기||당구장",False
85010,85011,4358654,1번지당구클럽,일번지당구클럽,1 Billiards Club,Arts and Entertainment,Billiards,126.72538066070592,37.527447109595485,대한민국,KOR,KOR,인천광역시,계양구,,작전동,,아나지로299번길,22,416-6,2022-05-01 12:37:48,"레져,체육||구기||당구장",False
85735,85736,5698630,아트당구클럽,,Art Billiards Club,Arts and Entertainment,Billiards,126.69900369067288,37.446812211261566,대한민국,KOR,KOR,인천광역시,남동구,,구월동,,문화로,85,1371-20,2022-08-24 14:41:06,"레져,체육||구기||당구장",False
85744,85745,5681421,당구선수촌,,Billiards players village,Arts and Entertainment,Billiards,126.65435222081288,37.46753139967937,대한민국,KOR,KOR,인천광역시,미추홀구,,도화동,,석정로150번길,43,80-97,2022-05-01 12:37:48,"레져,체육||구기||당구장",False
85812,85813,4343692,제우스당구클럽,,Zeus Billiards Club,Arts and Entertainment,Billiards,126.6833051439889,37.56728538111872,대한민국,KOR,KOR,인천광역시,서구,,검암동,,승학로,577,508-1,2022-08-16 16:52:33,"레져,체육||구기||당구장",False
86643,86644,27117333,OK당구클럽,,OK Billiards Club,Arts and Entertainment,Billiards,126.68139941374189,37.462240731593766,대한민국,KOR,KOR,인천광역시,미추홀구,,주안동,,주안로104번길,37,150-4,2022-05-01 12:37:48,"레져,체육||구기||당구장",False
87107,87108,3135164,에이스당구장,에이스당구장,ace billiard room,Arts and Entertainment,Billiards,126.72182872113989,37.504714632401786,대한민국,KOR,KOR,인천광역시,부평구,,부평동,,길주남로,4,431-2,2022-08-16 16:52:33,"레져,체육||구기||당구장",False
87115,87116,20200271,알파당구클럽,,Alpha Billiards Club,Arts and Entertainment,Billiards,126.71771115909289,37.486867272687775,대한민국,KOR,KOR,인천광역시,부평구,,부평동,,부영로,18,760-600,2022-05-01 12:37:48,"레져,체육||구기||당구장",False
87827,87828,27181824,SBS당구장,,SBS billiard room,Arts and Entertainment,Billiards,126.7017976262739,37.45242368945309,대한민국,KOR,KOR,인천광역시,남동구,,구월동,,예술로,206,1131-3,2022-05-01 12:37:48,"레져,체육||구기||당구장",False
88122,88123,3124894,버팔로당구장,,buffalo billiard room,Arts and Entertainment,Billiards,126.74130017105092,37.54863465094852,대한민국,KOR,KOR,인천광역시,계양구,,병방동,,장제로,919-1,424,2022-08-16 16:52:33,"레져,체육||구기||당구장",False
88613,88614,27078718,프로당구장,,pro billiard room,Arts and Entertainment,Billiards,126.7084762001799,37.46430324347927,대한민국,KOR,KOR,인천광역시,남동구,,간석동,,남동대로916번길,3,211-3,2022-08-16 16:52:33,"레져,체육||구기||당구장",False
88652,88653,27100150,빌리스토리 당구클럽,,Billy Story Billiards Club,Arts and Entertainment,Billiards,126.67350772496287,37.594863542477434,대한민국,KOR,KOR,인천광역시,서구,,마전동,,완정로10번길,6-5,1009-7,2022-05-01 12:37:48,"레져,체육||구기||당구장",False
90148,90149,4330379,IBS당구클럽,아이비에스당구클럽,IBS Billiards Club,Arts and Entertainment,Billiards,126.73321776505294,37.45239303293396,대한민국,KOR,KOR,인천광역시,남동구,,만수동,,하촌로,52,972-7,2019-11-14 23:28:16,"레져,체육||구기||당구장",False
90309,90310,4324056,쎄븐당구클럽,,Seven Billiards Club,Arts and Entertainment,Billiards,126.72235900049292,37.45437740052617,대한민국,KOR,KOR,인천광역시,남동구,,구월동,,호구포로810번길,52,1261-1,2019-11-14 23:28:27,"레져,체육||구기||당구장",False
90698,90699,20013679,환타지아당구카페,,Fantasia billiards cafe,Arts and Entertainment,Billiards,126.74105713098592,37.519163384947205,대한민국,KOR,KOR,인천광역시,부평구,,삼산동,,대보로24번길,31,79-2,2022-08-24 14:41:06,"레져,체육||구기||당구장",False
90847,90848,27215138,이천당구장,,Icheon billiard hall,Arts and Entertainment,Billiards,126.73614280455693,37.40030249335016,대한민국,KOR,KOR,인천광역시,남동구,,논현동,,앵고개로934번길,51,676-7,2022-08-16 16:52:33,"레져,체육||구기||당구장",False
93328,93329,27071271,1박2일당구클럽,,2 Days 1 Night Billiards Club,Arts and Entertainment,Billiards,126.67773119338788,37.5492252406863,대한민국,KOR,KOR,인천광역시,서구,,연희동,,간촌로7번길,1,710-7,2022-05-01 12:37:48,"레져,체육||구기||당구장",False
93913,93914,27085073,송도대대클럽,,Songdo University Club,Arts and Entertainment,Billiards,126.65104120189287,37.39170099665575,대한민국,KOR,KOR,인천광역시,연수구,,송도동,,하모니로36번길,3,3-21,2022-08-16 16:52:33,"레져,체육||구기||당구장",False
94129,94130,5675001,스카이당구클럽,,Sky Billiards Club,Arts and Entertainment,Billiards,126.53598419347372,37.49325843545104,대한민국,KOR,KOR,인천광역시,중구,,운남동,,운중로,24,435-1,2020-01-14 23:23:42,"레져,체육||구기||당구장",False
94449,94450,27501031,대원당구클럽,,Daewon Billiards Club,Arts and Entertainment,Billiards,126.67586832248195,37.4895727418243,대한민국,KOR,KOR,인천광역시,서구,,가좌동,,원적로27번길,37-2,263-26,2022-08-30 9:43:30,"레져,체육||구기||당구장",False
95611,95612,5712350,SBS당구클럽,에스비에스당구클럽,SBS Billiards Club,Arts and Entertainment,Billiards,126.66586183705388,37.45302720544978,대한민국,KOR,KOR,인천광역시,미추홀구,,주안동,,인주대로,261,677-4,2022-08-24 14:41:06,"레져,체육||구기||당구장",False
95766,95767,27215225,월미당구장,,Wolmi billiard hall,Arts and Entertainment,Billiards,126.60037151651684,37.47637555848526,대한민국,KOR,KOR,인천광역시,중구,,북성동1가,,반달로5번길,3,98-117,2022-05-01 12:37:48,"레져,체육||구기||당구장",False
96581,96582,4338059,지코당구클럽,,Zico Billiards Club,Arts and Entertainment,Billiards,126.62958753255786,37.474889108463465,대한민국,KOR,KOR,인천광역시,중구,,인현동,,우현로87번길,17,27-7,2022-08-24 14:41:06,"레져,체육||구기||당구장",False
97158,97159,5704045,돌려당구장,돌려당구클럽,round billiard room,Arts and Entertainment,Billiards,126.70694435565788,37.447030687815165,대한민국,KOR,KOR,인천광역시,남동구,,구월동,,남동대로,723,1156,2022-08-16 16:52:33,"레져,체육||구기||당구장",False
97316,97317,5656312,홀당구클럽,,hall billiards club,Arts and Entertainment,Billiards,126.74629823916496,37.56729112455712,대한민국,KOR,KOR,인천광역시,계양구,,귤현동,,양지로,160,508-2,2022-08-16 16:52:33,"레져,체육||구기||당구장",False
97748,97749,27116468,나인당구장,,Na individual ballpark,Arts and Entertainment,Billiards,126.72573459999995,37.4939999999998,대한민국,KOR,KOR,인천광역시,부평구,,부평동,,시장로,33,192-6,2022-06-29 11:25:35,"레져,체육||구기||당구장",False
98448,98449,27157255,M당구장,,M billiard room,Arts and Entertainment,Billiards,126.65573390822688,37.5336069553829,대한민국,KOR,KOR,인천광역시,서구,,청라동,,청라에메랄드로,99,165-12,2022-08-16 16:52:33,"레져,체육||구기||당구장",False
99027,99028,1255036,연도당구장,,year billiard room,Arts and Entertainment,Billiards,125.70311249999708,37.66230709999981,대한민국,KOR,KOR,인천광역시,옹진군,,연평면,연평리,연평로,168,325-160,2018-09-18 15:00:00,"레져,체육||구기||당구장",False
99093,99094,3122359,우리동네당구클럽,우리동네당구장,Our neighborhood billiards club,Arts and Entertainment,Billiards,126.67448510001988,37.44861427861268,대한민국,KOR,KOR,인천광역시,미추홀구,,주안동,,인하로235번길,4,1432-18,2022-08-12 13:15:03,"레져,체육||구기||당구장",False
99796,99797,6218661,제우스당구클럽,,Zeus Billiards Club,Arts and Entertainment,Billiards,126.6721123942259,37.59465313812362,대한민국,KOR,KOR,인천광역시,서구,,마전동,,완정로,13,1016-8,2022-08-24 14:41:06,"레져,체육||구기||당구장",False
100045,100046,27157539,비바체당구클럽,,vivace billiards club,Arts and Entertainment,Billiards,126.73280530854092,37.45443860037627,대한민국,KOR,KOR,인천광역시,남동구,,만수동,,하촌로71번길,21,955-7,2022-05-01 12:37:48,"레져,체육||구기||당구장",False
100308,100309,20203212,쿨당구장,,cool billiard room,Arts and Entertainment,Billiards,126.73673768455498,37.40013656555986,대한민국,KOR,KOR,인천광역시,남동구,,논현동,,소래역로30번길,22,678-3,2022-08-24 14:41:06,"레져,체육||구기||당구장",False
101001,101002,3121740,달당구장,,moon billiard room,Arts and Entertainment,Billiards,126.64129788785988,37.46303521520269,대한민국,KOR,KOR,인천광역시,미추홀구,,숭의동,,인중로16번길,8,421-7,2019-11-14 0:00:00,"레져,체육||구기||당구장",False
101189,101190,4342029,영당구장,,Young billiard hall,Arts and Entertainment,Billiards,126.68541671722788,37.48686182189658,대한민국,KOR,KOR,인천광역시,서구,,가좌동,,고래울로28번길,1,347,2020-01-14 0:00:00,"레져,체육||구기||당구장",False
101205,101206,27426250,잘굴러대대당구클럽,,Jalroller Daedae Billiards Club,Arts and Entertainment,Billiards,126.6679039931419,37.449045438351256,대한민국,KOR,KOR,인천광역시,미추홀구,,주안동,,인하로,177,811-7,2022-08-08 10:29:42,"레져,체육||구기||당구장",False
102470,102471,27164483,보스당구,,boss billiards,Arts and Entertainment,Billiards,126.6948852496679,37.59276983698282,대한민국,KOR,KOR,인천광역시,서구,,당하동,,고산후로95번길,38,1028-1,2022-05-01 12:37:48,"레져,체육||구기||당구장",False
103661,103662,3104798,SBS당구클럽,에스비에스당구클럽,SBS Billiards Club,Arts and Entertainment,Billiards,126.64423016693787,37.473100304252974,대한민국,KOR,KOR,인천광역시,동구,,송림동,,샛골로,120,68-13,2021-12-23 15:49:18,"레져,체육||구기||당구장",False
105384,105385,5661619,만수당구클럽,,Mansu Billiards Club,Arts and Entertainment,Billiards,126.73963757112195,37.44360548607479,대한민국,KOR,KOR,인천광역시,남동구,,만수동,,장승남로,65-1,1030-4,2022-08-24 14:41:06,"레져,체육||구기||당구장",False
105529,105530,4345939,SBS당구장,에스비에스당구장,SBS billiard room,Arts and Entertainment,Billiards,126.73427738549492,37.53310576862091,대한민국,KOR,KOR,인천광역시,계양구,,작전동,,장제로,732,899-4,2021-12-23 15:49:18,"레져,체육||구기||당구장",False
106372,106373,27083443,탑당구클럽,,Top Billiard Club,Arts and Entertainment,Billiards,126.67177860150191,37.43950117788746,대한민국,KOR,KOR,인천광역시,미추홀구,,학익동,,매소홀로,446,673-1,2022-08-16 16:52:33,"레져,체육||구기||당구장",False
106547,106548,5713964,골드당구클럽,,gold billiards club,Arts and Entertainment,Billiards,126.73410693650192,37.454011881195456,대한민국,KOR,KOR,인천광역시,남동구,,만수동,,백범로,111,960,2022-08-12 13:15:03,"레져,체육||구기||당구장",False
106606,106607,27070238,스마트밸리당구장,,Smart Valley Billiard Hall,Arts and Entertainment,Billiards,126.64765013240988,37.36730792196792,대한민국,KOR,KOR,인천광역시,연수구,,송도동,,송도미래로,30,214,2022-08-16 16:52:33,"레져,체육||구기||당구장",False
106818,106819,4339036,자유공간당구클럽,,free space billiards club,Arts and Entertainment,Billiards,126.72385378497393,37.45817911983938,대한민국,KOR,KOR,인천광역시,남동구,,만수동,,구월말로103번길,25,903,2019-11-14 23:28:26,"레져,체육||구기||당구장",False
106934,106935,3123676,승림당구장,,Seunglim Billiard Hall,Arts and Entertainment,Billiards,126.71093542325988,37.52468629088971,대한민국,KOR,KOR,인천광역시,계양구,,효성동,,안남로466번길,1,302-13,2022-08-24 14:41:06,"레져,체육||구기||당구장",False
107367,107368,5684768,탑당구클럽,,Top billiards club,Arts and Entertainment,Billiards,126.6768874009569,37.44863587405348,대한민국,KOR,KOR,인천광역시,미추홀구,,주안동,,인하로257번길,8,1437,2022-08-24 14:41:06,"레져,체육||구기||당구장",False
108864,108865,4328170,국제당구장,,International Billiard Room,Arts and Entertainment,Billiards,126.64565172694086,37.463562593095965,대한민국,KOR,KOR,인천광역시,미추홀구,,숭의동,,경인로,23,160-52,2022-08-24 14:41:06,"레져,체육||구기||당구장",False
108984,108985,6215645,하이런당구클럽,,high run billiards club,Arts and Entertainment,Billiards,126.63713542903184,37.47002657952929,대한민국,KOR,KOR,인천광역시,중구,,유동,,서해대로,498,6-3,2022-05-18 1:14:04,"레져,체육||구기||당구장",False
109030,109031,20199314,SBS당구클럽,에스비에스당구클럽,SBS Billiards Club,Arts and Entertainment,Billiards,126.67545099723591,37.54918745364772,대한민국,KOR,KOR,인천광역시,서구,,연희동,,연희로,15,689-3,2021-12-23 15:49:18,"레져,체육||구기||당구장",False
109593,109594,27498624,박지현당구클럽,,Jihyun Park Billiards Club,Arts and Entertainment,Billiards,126.73487398997293,37.5356335219253,대한민국,KOR,KOR,인천광역시,계양구,,계산동,,계양문화로53번길,13,1074-5,2022-08-26 9:52:19,"레져,체육||구기||당구장",False
109771,109772,5708428,공때리네당구장,,ball ball pool hall,Arts and Entertainment,Billiards,126.6567808993189,37.49495029948079,대한민국,KOR,KOR,인천광역시,서구,,가좌동,,보도진로,80,173-631,2021-12-23 15:49:18,"레져,체육||구기||당구장",False
110427,110428,1850363,월드당구장,,world billiard hall,Arts and Entertainment,Billiards,124.66508749919628,37.960984599310606,대한민국,KOR,KOR,인천광역시,옹진군,,백령면,북포리,백령로,807,505,2022-08-04 10:04:43,"레져,체육||구기||당구장",False
110470,110471,20203233,프로당구클럽,,professional billiards club,Arts and Entertainment,Billiards,126.73107320680796,37.5011740823393,대한민국,KOR,KOR,인천광역시,부평구,,부평동,,부흥북로,81,98-83,2021-12-23 15:49:18,"레져,체육||구기||당구장",False
110730,110731,4338847,초심당구장,,Super heart billiard hall,Arts and Entertainment,Billiards,126.69991606459588,37.46974809964807,대한민국,KOR,KOR,인천광역시,부평구,,십정동,,배곶로,5,426-3,2022-08-24 14:41:06,"레져,체육||구기||당구장",False
110969,110970,27224590,한큐 스포츠클럽 당구클럽,,Hankyu Sports Club Billiards Club,Arts and Entertainment,Billiards,126.6943972883279,37.46388485896946,대한민국,KOR,KOR,인천광역시,미추홀구,,주안동,,주안로,219,46-1,2022-05-01 12:37:48,"레져,체육||구기||당구장",False
111884,111885,4340787,현대당구장,,modern billiard room,Arts and Entertainment,Billiards,126.41879269999978,37.45163209999979,대한민국,KOR,KOR,인천광역시,중구,,남북동,,남북로,165,46,2018-08-16 9:30:30,"레져,체육||구기||당구장",False
112533,112534,6210996,A1당구클럽,에이원당구클럽,A1 Billiards Club,Arts and Entertainment,Billiards,126.74968828671292,37.42414198970078,대한민국,KOR,KOR,인천광역시,남동구,,서창동,,서창남순환로,222,707-1,2019-11-14 23:30:26,"레져,체육||구기||당구장",False
112768,112769,3133462,갤럭시당구클럽,,Galaxy Billiards Club,Arts and Entertainment,Billiards,126.6733110153679,37.519891171986494,대한민국,KOR,KOR,인천광역시,서구,,가정동,,가정로394번길,2,504,2022-08-24 14:41:06,"레져,체육||구기||당구장",False
113481,113482,27074469,아너스대대클럽,,Honors battalion club,Arts and Entertainment,Billiards,126.73902873781594,37.443275225900976,대한민국,KOR,KOR,인천광역시,남동구,,만수동,,장승남로,62,1039,2022-05-01 12:37:48,"레져,체육||구기||당구장",False
114078,114079,3126349,천당구클럽,,Heaven Billiards Club,Arts and Entertainment,Billiards,126.67726794413691,37.41348281294215,대한민국,KOR,KOR,인천광역시,연수구,,연수동,,청능대로113번길,21,598-8,2022-08-12 13:15:03,"레져,체육||구기||당구장",False
114116,114117,27210191,준당구크럽,,semi-billiard club,Arts and Entertainment,Billiards,126.73806113635496,37.4861862041908,대한민국,KOR,KOR,인천광역시,부평구,,부개동,,동수로,175,265-19,2022-08-16 16:52:33,"레져,체육||구기||당구장",False
114155,114156,5661905,엘리트당구장,,elite billiard room,Arts and Entertainment,Billiards,126.74029074058792,37.54783043954032,대한민국,KOR,KOR,인천광역시,계양구,,병방동,,계양산로215번길,4,402,2022-08-24 14:41:06,"레져,체육||구기||당구장",False
114613,114614,20169690,서울당구클럽,,Seoul Billiards Club,Arts and Entertainment,Billiards,126.72209084610398,37.530945847285615,대한민국,KOR,KOR,인천광역시,계양구,,작전동,,봉오대로,659,864-32,2022-08-30 9:43:30,"레져,체육||구기||당구장",False
114790,114791,5667970,스카이당구장,,Sky Billiard Room,Arts and Entertainment,Billiards,126.63446698803484,37.45169519571348,대한민국,KOR,KOR,인천광역시,미추홀구,,용현동,,아암대로107번길,41,630-80,2022-08-24 14:41:06,"레져,체육||구기||당구장",False
115556,115557,5664249,형제당구장,,brothers billiard room,Arts and Entertainment,Billiards,126.6771175523059,37.469850292182365,대한민국,KOR,KOR,인천광역시,미추홀구,,주안동,,길파로41번길,47,10-68,2022-08-16 16:52:33,"레져,체육||구기||당구장",False
116883,116884,5683684,세븐당구클럽,,Seven Billiards Club,Arts and Entertainment,Billiards,126.68252199999993,37.55152749999981,대한민국,KOR,KOR,인천광역시,서구,,공촌동,,심곡로,208,309-10,2022-08-24 14:41:06,"레져,체육||구기||당구장",False
116919,116920,20760670,VIP당구장,,V I P Billiard Room,Arts and Entertainment,Billiards,126.64464839563688,37.46452054447487,대한민국,KOR,KOR,인천광역시,미추홀구,,숭의동,,석정로,58,161-47,2022-05-18 1:20:07,"레져,체육||구기||당구장",False
116999,117000,3121773,SKY당구클럽,스카이당구클럽,SKY Billiards Club,Arts and Entertainment,Billiards,126.65456859667488,37.45701898980308,대한민국,KOR,KOR,인천광역시,미추홀구,,용현동,,독정이로,11,490-31,2022-08-24 14:41:06,"레져,체육||구기||당구장",False
117171,117172,3128316,진명당구장,,Jinmyeong Billiard Hall,Arts and Entertainment,Billiards,126.72218486960995,37.51644487409032,대한민국,KOR,KOR,인천광역시,부평구,,갈산동,,평천로,286,177,2022-08-12 13:15:03,"레져,체육||구기||당구장",False
117621,117622,5714684,쌍용당구클럽,,Ssangyong Billiards Club,Arts and Entertainment,Billiards,126.65442600045589,37.42509519980096,대한민국,KOR,KOR,인천광역시,연수구,,옥련동,,청량로184번길,48,366-9,2022-08-24 14:41:06,"레져,체육||구기||당구장",False
117763,117764,27189223,MBC당구장,,MBC billiard room,Arts and Entertainment,Billiards,126.63927213049186,37.45748086255134,대한민국,KOR,KOR,인천광역시,미추홀구,,용현동,,아암대로29번길,47,571-53,2022-08-16 16:52:33,"레져,체육||구기||당구장",False
118406,118407,4340307,킹당구장,,king billiard room,Arts and Entertainment,Billiards,126.72224512006493,37.534673839588805,대한민국,KOR,KOR,인천광역시,계양구,,작전동,,계양대로,121,852-42,2022-08-16 16:52:33,"레져,체육||구기||당구장",False
118761,118762,3120734,SBS스포츠당구클럽,SBS스포츠당구장,SBS Sports Billiards Club,Arts and Entertainment,Billiards,126.65537299999993,37.42794299999978,대한민국,KOR,KOR,인천광역시,연수구,,옥련동,,비류대로,184,284-3,2021-12-23 15:49:18,"레져,체육||구기||당구장",False
119450,119451,27208174,더블당구장,,double billiard room,Arts and Entertainment,Billiards,126.4921901465607,37.49485707081693,대한민국,KOR,KOR,인천광역시,중구,,운서동,,영종대로,118,2806-1,2022-08-16 16:52:33,"레져,체육||구기||당구장",False
119490,119491,5706940,스타당구클럽,스타당구장,star billiards club,Arts and Entertainment,Billiards,126.7128860340079,37.44972048577717,대한민국,KOR,KOR,인천광역시,남동구,,구월동,,인주대로681번길,4,1220,2022-08-12 13:15:03,"레져,체육||구기||당구장",False
119670,119671,3132831,SBS당구장,에스비에스당구장,SBS billiard room,Arts and Entertainment,Billiards,126.67023632009588,37.50672038382089,대한민국,KOR,KOR,인천광역시,서구,,석남동,,길주로75번길,1,519-4,2022-08-24 14:41:06,"레져,체육||구기||당구장",False
119864,119865,5697042,SBS당구장,에스비에스당구장,SBS billiard room,Arts and Entertainment,Billiards,126.7054178391449,37.51272942879601,대한민국,KOR,KOR,인천광역시,부평구,,청천동,,세월천로,35,190-17,2022-08-16 16:52:33,"레져,체육||구기||당구장",False
120831,120832,27195525,프로아카데미당구클럽,,Pro Academy Billiards Club,Arts and Entertainment,Billiards,126.67144630630088,37.5097911848368,대한민국,KOR,KOR,인천광역시,서구,,석남동,,신석로,84,513-3,2022-08-16 16:52:33,"레져,체육||구기||당구장",False
121622,121623,6214491,1박2일당구장,일박이일당구장,1 night 2 days ballpark,Arts and Entertainment,Billiards,126.65901701500988,37.45319929747277,대한민국,KOR,KOR,인천광역시,미추홀구,,용현동,,인하로47번길,94,183-11,2022-08-24 14:41:06,"레져,체육||구기||당구장",False
121776,121777,5670945,허리우드당구장,,Hollywood Billiard Room,Arts and Entertainment,Billiards,126.68102318863008,37.462361298120015,대한민국,KOR,KOR,인천광역시,미추홀구,,주안동,,주안로104번길,34,143-8,2022-08-12 13:15:03,"레져,체육||구기||당구장",False
122714,122715,6230188,국제당구장,국제당구클럽,International Billiard Room,Arts and Entertainment,Billiards,126.53324246147974,37.493580213496955,대한민국,KOR,KOR,인천광역시,중구,,운남동,,관창로4번길,24,1514-4,2022-08-24 14:41:06,"레져,체육||구기||당구장",False
123409,123410,4334254,샘터당구클럽,,Samteo Billiards Club,Arts and Entertainment,Billiards,126.65690731893989,37.46709168180077,대한민국,KOR,KOR,인천광역시,미추홀구,,도화동,,숙골로43번길,158-25,81-4,2022-05-01 12:37:48,"레져,체육||구기||당구장",False
123427,123428,27085339,88당구클럽,팔팔당구클럽,88 Billiards Club,Arts and Entertainment,Billiards,126.48905634086472,37.49280418287115,대한민국,KOR,KOR,인천광역시,중구,,운서동,,흰바위로,37,2793-3,2022-05-01 12:37:48,"레져,체육||구기||당구장",False
125051,125052,20203085,스카이당구장,,Sky Billiard Room,Arts and Entertainment,Billiards,126.68206416623894,37.45148192925459,대한민국,KOR,KOR,인천광역시,미추홀구,,주안동,,인주대로,409,1483-16,2022-08-24 14:41:06,"레져,체육||구기||당구장",False
125139,125140,27179074,CL당구장,,CL Billiard Room,Arts and Entertainment,Billiards,126.68765994623188,37.458340313440175,대한민국,KOR,KOR,인천광역시,미추홀구,,주안동,,경인로425번길,6,1007-4,2022-07-05 16:31:26,"레져,체육||구기||당구장",False
125453,125454,20202894,남부당구장,,Southern billiard hall,Arts and Entertainment,Billiards,126.72502219325092,37.488766758919695,대한민국,KOR,KOR,인천광역시,부평구,,부평동,,동수북로,170,697-16,2022-05-18 1:22:57,"레져,체육||구기||당구장",False
126428,126429,4449725,우리동네당구장,,Our neighborhood billiard hall,Arts and Entertainment,Billiards,126.7251175207469,37.491755506794085,대한민국,KOR,KOR,인천광역시,부평구,,부평동,,경원대로1403번길,6,159-44,2021-12-23 15:49:18,"레져,체육||구기||당구장",False
126438,126439,5659891,해룡당구장,,Haeryong Billiard Hall,Arts and Entertainment,Billiards,126.74538203504596,37.55607160864081,대한민국,KOR,KOR,인천광역시,계양구,,박촌동,,장제로,1013,52-3,2022-08-16 16:52:33,"레져,체육||구기||당구장",False
126564,126565,3105552,아름당구클럽,,beautiful billiards club,Arts and Entertainment,Billiards,126.48674199999986,37.744686999999885,대한민국,KOR,KOR,인천광역시,강화군,,강화읍,신문리,강화대로393번길,10,4-2,2022-08-24 14:41:06,"레져,체육||구기||당구장",False
127956,127957,5667443,새론당구클럽,,Saeron Billiards Club,Arts and Entertainment,Billiards,126.68916914019788,37.45869754471488,대한민국,KOR,KOR,인천광역시,미추홀구,,주안동,,경원대로,851,1005-1,2022-08-24 14:41:06,"레져,체육||구기||당구장",False
128749,128750,3123634,K당구장,케이당구장,K billiard room,Arts and Entertainment,Billiards,126.7232624970979,37.53765829779771,대한민국,KOR,KOR,인천광역시,계양구,,계산동,,계산로,99,968-38,2019-11-14 23:24:34,"레져,체육||구기||당구장",False
129465,129466,5694365,우리당구장,,our billiard room,Arts and Entertainment,Billiards,126.65400176193685,37.558829527665914,대한민국,KOR,KOR,인천광역시,서구,,경서동,,도요지로,32,732-2,2022-08-16 16:52:33,"레져,체육||구기||당구장",False
129506,129507,5658749,코코당구장,,coco billiard room,Arts and Entertainment,Billiards,126.72479053995691,37.455353132770256,대한민국,KOR,KOR,인천광역시,남동구,,만수동,,구월로,308,910-4,2022-08-16 16:52:33,"레져,체육||구기||당구장",False
129637,129638,5678483,프로당구장,,professional billiard room,Arts and Entertainment,Billiards,126.73290479626291,37.517362548727405,대한민국,KOR,KOR,인천광역시,부평구,,삼산동,,평천로,384,426-2,2022-08-12 13:15:03,"레져,체육||구기||당구장",False
129686,129687,20169552,금보당구클럽,,Geumbo Billiards Club,Arts and Entertainment,Billiards,126.70707722832395,37.534044163868025,대한민국,KOR,KOR,인천광역시,계양구,,효성동,,길마로,13,34-42,2021-12-23 15:49:18,"레져,체육||구기||당구장",False
129889,129890,4338515,SS당구장,에스에스당구장,SS billiard room,Arts and Entertainment,Billiards,126.69821900773988,37.425817953969855,대한민국,KOR,KOR,인천광역시,연수구,,선학동,,경원대로467번길,3,407,2022-05-01 12:37:48,"레져,체육||구기||당구장",False
130012,130013,27080888,마전당구클럽,,Magic Billiards Club,Arts and Entertainment,Billiards,126.6690939888039,37.60894654819171,대한민국,KOR,KOR,인천광역시,서구,,마전동,,검단로,609,1140,2022-05-01 12:37:48,"레져,체육||구기||당구장",False
130635,130636,3135253,스타당구클럽,,star billiards club,Arts and Entertainment,Billiards,126.68097592303388,37.49393898699848,대한민국,KOR,KOR,인천광역시,서구,,가좌동,,원적로,79,129-37,2022-05-01 12:37:48,"레져,체육||구기||당구장",False
131298,131299,5716741,VIP당구클럽,브이아이피당구클럽,VIP Billiards Club,Arts and Entertainment,Billiards,126.67146260221492,37.46755323415808,대한민국,KOR,KOR,인천광역시,미추홀구,,도화동,,석정로324번길,3,129-1,2022-08-24 14:41:06,"레져,체육||구기||당구장",False
131425,131426,20476446,허리우드당구장,,Hollywood Billiard Room,Arts and Entertainment,Billiards,126.67987036027795,37.41534261793068,대한민국,KOR,KOR,인천광역시,연수구,,연수동,,샘말로87번길,17,611,2022-08-24 14:41:06,"레져,체육||구기||당구장",False
132655,132656,5705711,공간당구장,공간당구클럽,space billiard room,Arts and Entertainment,Billiards,126.69574227532988,37.447686000522765,대한민국,KOR,KOR,인천광역시,남동구,,구월동,,문화서로23번길,8,1359-17,2022-08-24 14:41:06,"레져,체육||구기||당구장",False
133227,133228,5671843,빅박스당구장,,big box billiard room,Arts and Entertainment,Billiards,126.70517012417488,37.5134338941385,대한민국,KOR,KOR,인천광역시,부평구,,청천동,,세월천로,34,180-4,2022-08-16 16:52:33,"레져,체육||구기||당구장",False
133548,133549,4327342,탑당구클럽,탑당구장,Top billiards club,Arts and Entertainment,Billiards,126.69970102534592,37.45193416892237,대한민국,KOR,KOR,인천광역시,남동구,,구월동,,문화로,143,1111-11,2022-08-24 14:41:06,"레져,체육||구기||당구장",False
133797,133798,27184197,OK당구클럽,,OK Billiards Club,Arts and Entertainment,Billiards,126.72357894617592,37.40130421445426,대한민국,KOR,KOR,인천광역시,남동구,,논현동,,청능대로,581,631-8,2022-05-01 12:37:48,"레져,체육||구기||당구장",False
134164,134165,6206092,SBS당구장,에스비에스당구장,SBS billiard room,Arts and Entertainment,Billiards,126.73224892651592,37.45082098212168,대한민국,KOR,KOR,인천광역시,남동구,,만수동,,하촌로,32,968-8,2019-11-14 23:30:26,"레져,체육||구기||당구장",False
134304,134305,27157651,탑 당구클럽,,Top Billiard Club,Arts and Entertainment,Billiards,126.6970454394779,37.460750617477856,대한민국,KOR,KOR,인천광역시,남동구,,간석동,,경인로,520,520,2022-08-12 13:15:03,"레져,체육||구기||당구장",False
134692,134693,27216151,작당당구장,, billiard room,Arts and Entertainment,Billiards,126.64533066473285,37.50708510916888,대한민국,KOR,KOR,인천광역시,서구,,원창동,,북항로,30,381-75,2022-05-01 12:37:48,"레져,체육||구기||당구장",False
134807,134808,27195509,에이원당구클럽,,a-one billiards club,Arts and Entertainment,Billiards,126.62811919363584,37.47977300248067,대한민국,KOR,KOR,인천광역시,동구,,화수동,,운교로,7,287-77,2022-08-16 16:52:33,"레져,체육||구기||당구장",False
135165,135166,3135150,세븐당구장,,Seven billiard hall,Arts and Entertainment,Billiards,126.72474409544591,37.49869019095999,대한민국,KOR,KOR,인천광역시,부평구,,부평동,,부흥로,295,441-36,2022-08-24 14:41:06,"레져,체육||구기||당구장",False
135205,135206,3108826,아우디당구클럽,,Audi Billiards Club,Arts and Entertainment,Billiards,126.73625572132596,37.5360430267131,대한민국,KOR,KOR,인천광역시,계양구,,계산동,,계양문화로59번길,1,1076-5,2022-08-12 13:15:03,"레져,체육||구기||당구장",False
137145,137146,27138070,큐당구클럽,,Q Billiards Club,Arts and Entertainment,Billiards,126.75655790339997,37.559042251761305,대한민국,KOR,KOR,인천광역시,계양구,,동양동,,동양로,103,580-1,2022-05-01 12:37:48,"레져,체육||구기||당구장",False
137182,137183,6204900,당구매니아,,billiards nia,Arts and Entertainment,Billiards,126.67639081751496,37.41768814863268,대한민국,KOR,KOR,인천광역시,연수구,,청학동,,용담로85번길,32,498,2022-08-24 14:41:06,"레져,체육||구기||당구장",False
137699,137700,5656806,로타리당구클럽,로타리당구장,Rotary Billiards Club,Arts and Entertainment,Billiards,126.65077013356289,37.41755624678565,대한민국,KOR,KOR,인천광역시,연수구,,옥련동,,능허대로,205,552,2022-08-24 14:41:06,"레져,체육||구기||당구장",False
138806,138807,3720628,현대당구장,,modern billiard room,Arts and Entertainment,Billiards,126.73805079999993,37.52788789999979,대한민국,KOR,KOR,인천광역시,계양구,,작전동,,효서로,377,580,2022-08-16 16:52:33,"레져,체육||구기||당구장",False
139036,139037,5712953,빅뱅당구클럽,,Big Bang Billiards Club,Arts and Entertainment,Billiards,126.7074767895799,37.4842714156702,대한민국,KOR,KOR,인천광역시,부평구,,십정동,,이규보로,141,186-114,2019-11-14 0:00:00,"레져,체육||구기||당구장",False
139276,139277,5662880,태평양당구장,,pacific billiard hall,Arts and Entertainment,Billiards,126.63564290433185,37.45315338549196,대한민국,KOR,KOR,인천광역시,미추홀구,,용현동,,낙섬서로,41,629-104,2022-08-24 14:41:06,"레져,체육||구기||당구장",False
139864,139865,27205844,ESPN당구장,,ESPN Billiard Room,Arts and Entertainment,Billiards,126.67649144082888,37.59328875005952,대한민국,KOR,KOR,인천광역시,서구,,당하동,,원당대로,676,1092-10,2022-08-16 16:52:33,"레져,체육||구기||당구장",False
140225,140226,27052836,필당구존,,must-go zone,Arts and Entertainment,Billiards,126.65027659557185,37.53390372836499,대한민국,KOR,KOR,인천광역시,서구,,청라동,,중봉대로,610,162-2,2022-08-16 16:52:33,"레져,체육||구기||당구장",False
140897,140898,27182581,대대전용 클럽 떼굴떼굴 당구장,,daegul club billiard room,Arts and Entertainment,Billiards,126.73522739999991,37.498001899999785,대한민국,KOR,KOR,인천광역시,부평구,,부개동,,부흥로,389,67-9,2022-05-01 12:37:48,"레져,체육||구기||당구장",False
141158,141159,3131568,스타당구장,,star billiard room,Arts and Entertainment,Billiards,126.67577688461688,37.51758738721151,대한민국,KOR,KOR,인천광역시,서구,,가정동,,원창로,237,508-12,2020-01-14 23:43:27,"레져,체육||구기||당구장",False
141165,141166,20171054,왕당구장,,king billiard hall,Arts and Entertainment,Billiards,126.70911143314093,37.532526336276206,대한민국,KOR,KOR,인천광역시,계양구,,효성동,,안남로553번길,11,82-1,2022-05-01 12:37:48,"레져,체육||구기||당구장",False
141425,141426,3119482,동남당구클럽,,Southeast Billiards Club,Arts and Entertainment,Billiards,126.66921158029288,37.40005170513676,대한민국,KOR,KOR,인천광역시,연수구,,동춘동,,먼우금로,19,943,2020-01-14 23:42:21,"레져,체육||구기||당구장",False
142430,142431,5675887,프로당구클럽,,professional billiards club,Arts and Entertainment,Billiards,126.73166010014792,37.45480311398827,대한민국,KOR,KOR,인천광역시,남동구,,만수동,,구월로,368,948-1,2022-08-24 14:41:06,"레져,체육||구기||당구장",False
142548,142549,5993779,초원당구클럽,,grassland billiards club,Arts and Entertainment,Billiards,126.77326706078495,37.46066587166429,대한민국,KOR,KOR,인천광역시,남동구,,장수동,,만의골로,202,34-4,2022-05-01 12:37:48,"레져,체육||구기||당구장",False
143697,143698,27054283,청라자이언트당구카페,,Cheongna Giant Billiards Cafe,Arts and Entertainment,Billiards,126.65029083122187,37.5325548934652,대한민국,KOR,KOR,인천광역시,서구,,청라동,,중봉대로,594,162-15,2022-08-16 16:52:33,"레져,체육||구기||당구장",False
144226,144227,27078099,제이에스당구클럽,,JS Billiards Club,Arts and Entertainment,Billiards,126.67613823195988,37.459075239840075,대한민국,KOR,KOR,인천광역시,미추홀구,,도화동,,경인로,323,377-4,2022-08-16 16:52:33,"레져,체육||구기||당구장",False
144300,144301,6209849,대영당구장,,Daeyeong Billiard Hall,Arts and Entertainment,Billiards,126.72026362629492,37.45359285308167,대한민국,KOR,KOR,인천광역시,남동구,,구월동,,호구포로790번길,21-17,1266-2,2019-11-14 23:30:27,"레져,체육||구기||당구장",False
145091,145092,27193446,한게임당구클럽,,Hangame Billiard Club,Arts and Entertainment,Billiards,126.65631173592593,37.60182365643774,대한민국,KOR,KOR,인천광역시,서구,,왕길동,,검단로,467,639-3,2022-08-16 16:52:33,"레져,체육||구기||당구장",False
145215,145216,20202978,당구친구,,billiards friend,Arts and Entertainment,Billiards,126.61958401863284,37.478974993502966,대한민국,KOR,KOR,인천광역시,중구,,송월동2가,,제물량로,314,5-1,2022-05-01 12:37:48,"레져,체육||구기||당구장",False
145307,145308,5716981,월드컵당구장,,World Cup Billiard Hall,Arts and Entertainment,Billiards,126.68978728008489,37.520061237026,대한민국,KOR,KOR,인천광역시,부평구,,청천동,,청농로,35,59-1,2019-11-14 23:25:17,"레져,체육||구기||당구장",False
145616,145617,5694660,가브리엘당구클럽,,Gabriel Billiards Club,Arts and Entertainment,Billiards,126.72447687224792,37.45579820018597,대한민국,KOR,KOR,인천광역시,남동구,,만수동,,구월로,303,908-17,2022-08-16 16:52:33,"레져,체육||구기||당구장",False
145723,145724,6226633,대흥당구장,,Daeheung Billiard Hall,Arts and Entertainment,Billiards,126.6809845463119,37.54379515625159,대한민국,KOR,KOR,인천광역시,서구,,심곡동,,탁옥로,101,283-11,2022-08-24 14:41:06,"레져,체육||구기||당구장",False
145800,145801,4331559,프로당구장,,professional billiard room,Arts and Entertainment,Billiards,126.66660948004892,37.44570803997297,대한민국,KOR,KOR,인천광역시,미추홀구,,학익동,,한나루로,432,295-5,2022-08-24 14:41:06,"레져,체육||구기||당구장",False
146248,146249,3730619,비바체당구클럽,,vivace billiards club,Arts and Entertainment,Billiards,126.69886434011693,37.59314785807292,대한민국,KOR,KOR,인천광역시,서구,,당하동,,원당대로,876,1028-17,2022-05-01 12:37:48,"레져,체육||구기||당구장",False
146739,146740,5697916,007당구장,공공칠당구장,007 billiard room,Arts and Entertainment,Billiards,126.68365016875185,37.437659870053366,대한민국,KOR,KOR,인천광역시,미추홀구,,문학동,,소성로,325-6,377-12,2019-11-14 0:00:00,"레져,체육||구기||당구장",False
146803,146804,2151094,맥스당구장,,max billiard room,Arts and Entertainment,Billiards,126.6608966773358,37.46877054298364,대한민국,KOR,KOR,인천광역시,미추홀구,,도화동,,석정로,229,1000,2022-05-01 12:37:48,"레져,체육||구기||당구장",False
146940,146941,5661400,런던당구클럽,,London Billiards Club,Arts and Entertainment,Billiards,126.68157648975388,37.466416399873374,대한민국,KOR,KOR,인천광역시,미추홀구,,주안동,,주염로,9,24-75,2022-08-18 12:00:50,"레져,체육||구기||당구장",False
