,OID_,id,name,name_alias,name_eng,category,subcategory,lon,lat,country,country_code,language_code,sd,sgg,sgg_sub,emd,ri,street,number_st,number_jb,update_date,dwnm,result
3054,3055,27049237,더벙커PC방,,The Bunker PC Room,Professional and Other Places,Recreation Facility,126.48904876556068,37.49380445212586,대한민국,KOR,KOR,인천광역시,중구,,운서동,,신도시남로141번길,9,2796-1,2022-05-01 12:37:48,"쇼핑,편의||오락시설||PC방||PC방-일반",False
4445,4446,27094855,아이센스리그PC 인천구월본점,,Ice Sense League PC Incheon Guwol Main Branch,Professional and Other Places,Recreation Facility,126.71347935194188,37.45249532749988,대한민국,KOR,KOR,인천광역시,남동구,,구월동,,구월남로,216,1215-2,2022-08-16 16:52:33,"쇼핑,편의||오락시설||PC방||프랜차이즈||아이센스리그PC",False
4620,4621,27069511,인디고 PC방 인천삼산점,,Indigo PC Room Incheon Samsan Branch,Professional and Other Places,Recreation Facility,126.73359599935192,37.507980892651915,대한민국,KOR,KOR,인천광역시,부평구,,삼산동,,충선로209번길,49,463-2,2022-08-24 14:41:06,"쇼핑,편의||오락시설||PC방||PC방-일반",False
5710,5711,3126546,이네이쳐PC방,이네이쳐피씨방,In Nature PC Room,Professional and Other Places,Recreation Facility,126.6530674208839,37.55919548530451,대한민국,KOR,KOR,인천광역시,서구,,경서동,,도요지로,23,723-4,2022-05-01 12:37:48,"쇼핑,편의||오락시설||PC방||PC방-일반",False
7228,7229,20482977,뽑기놀이터,,lottery playground,Professional and Other Places,Recreation Facility,126.67033647081195,37.507611113225806,대한민국,KOR,KOR,인천광역시,서구,,석남동,,길주로75번길,11,520-39,2022-05-01 12:37:48,"쇼핑,편의||오락시설||오락실||오락실-일반",False
7601,7602,27230999,맥스피드PC방 공항점,,Max Speed ​​PC Bang Airport Branch,Professional and Other Places,Recreation Facility,126.49080505610868,37.49415247723564,대한민국,KOR,KOR,인천광역시,중구,,운서동,,신도시남로142번길,1,2802-1,2022-08-16 16:52:33,"쇼핑,편의||오락시설||PC방||PC방-일반",False
7620,7621,2612140,노블레스PC존 학익점,노블레스피씨존 학익점,Noblesse PC Zone Hakik Point,Professional and Other Places,Recreation Facility,126.6803192138979,37.44460445642295,대한민국,KOR,KOR,인천광역시,미추홀구,,주안동,,주승로,88,1283-3,2021-12-23 15:49:18,"쇼핑,편의||오락시설||PC방||PC방-일반",False
7873,7874,27179101,라네이즈PC방,,Laneige PC Room,Professional and Other Places,Recreation Facility,126.68765994623188,37.458340313440175,대한민국,KOR,KOR,인천광역시,미추홀구,,주안동,,경인로425번길,6,1007-4,2022-05-01 12:37:48,"쇼핑,편의||오락시설||PC방||PC방-일반",False
8018,8019,4330853,샹떼PC방인천공항신도시점,샹떼피씨방인천공항신도시점,Chante PC BangIncheon Airport New Town Branch,Professional and Other Places,Recreation Facility,126.48857733658268,37.49418456653164,대한민국,KOR,KOR,인천광역시,중구,,운서동,,신도시남로141번길,16,2791-2,2022-08-16 16:52:33,"쇼핑,편의||오락시설||PC방||PC방-일반",False
8844,8845,3133228,그린PC방,그린피씨방,Green PC room,Professional and Other Places,Recreation Facility,126.70062267239793,37.513390428686094,대한민국,KOR,KOR,인천광역시,부평구,,산곡동,,세월천로,77,51-3,2022-05-01 12:37:48,"쇼핑,편의||오락시설||PC방||PC방-일반",False
9710,9711,20761370,스마일뽑기샵 간석점,,Smile Gacha Shop  Ganseok Branch,Professional and Other Places,Recreation Facility,126.70556927199888,37.46832924627067,대한민국,KOR,KOR,인천광역시,남동구,,간석동,,경인로653번길,40,230-4,2022-05-18 1:20:05,"쇼핑,편의||오락시설||오락실||오락실-일반",False
10043,10044,27057548,고고로 PC방,,Gogoro PC Room,Professional and Other Places,Recreation Facility,126.65203729399391,37.5339111101336,대한민국,KOR,KOR,인천광역시,서구,,청라동,,중봉대로612번길,10-17,161-3,2022-08-12 13:15:03,"쇼핑,편의||오락시설||PC방||PC방-일반",False
10819,10820,6207113,나과장뽑기방 구월점,,Nagwajang Gacha Room  Guwol Branch,Professional and Other Places,Recreation Facility,126.69632428434689,37.44831643679439,대한민국,KOR,KOR,인천광역시,남동구,,구월동,,문화서로,36,1360,2021-12-23 15:49:18,"쇼핑,편의||오락시설||오락실||오락실-일반",False
11438,11439,4340715,팡팡오락실사격장,,Pang Pang Recreational Shooting Range,Professional and Other Places,Recreation Facility,126.59661996340384,37.47299399097776,대한민국,KOR,KOR,인천광역시,중구,,북성동1가,,월미문화로,61-2,98-280,2022-08-12 13:15:03,"쇼핑,편의||오락시설||오락실||오락실-일반",False
13130,13131,27216249,벌툰 인천 청라점,,Beultun Incheon Cheongna Branch,Professional and Other Places,Recreation Facility,126.65682751243288,37.53343782412751,대한민국,KOR,KOR,인천광역시,서구,,청라동,,청라에메랄드로,94,167-5,2022-08-24 14:41:06,"쇼핑,편의||오락시설||만화방||프랜차이즈||벌툰",False
13356,13357,27126945,룰루랄라만화카페,,lululala cartoon cafe,Professional and Other Places,Recreation Facility,126.64462424636488,37.423313002715446,대한민국,KOR,KOR,인천광역시,연수구,,옥련동,,독배로,29,194-2,2022-08-12 13:15:03,"쇼핑,편의||오락시설||만화방||만화방-일반",False
13966,13967,20184793,하늘다리PC방,하늘다리피씨방,Sky Bridge PC Room,Professional and Other Places,Recreation Facility,126.71606517805888,37.43109860502297,대한민국,KOR,KOR,인천광역시,남동구,,남촌동,,남촌동로3번길,33,332-9,2022-05-01 12:37:48,"쇼핑,편의||오락시설||PC방||PC방-일반",False
14670,14671,3129454,민트PC존연수점,민트피씨존연수점,Mint PC Zone Yeonsu Branch,Professional and Other Places,Recreation Facility,126.67611205157787,37.42097816778215,대한민국,KOR,KOR,인천광역시,연수구,,연수동,,새말로,52,564-3,2021-12-23 15:49:18,"쇼핑,편의||오락시설||PC방||PC방-일반",False
15484,15485,20073430,스타PC방,스타피씨방,Star PC Room,Professional and Other Places,Recreation Facility,126.63634631960784,37.467004085053766,대한민국,KOR,KOR,인천광역시,중구,,선화동,,서해대로464번길,10,1-10,2021-12-23 15:49:18,"쇼핑,편의||오락시설||PC방||PC방-일반",False
15756,15757,27050562,철구PC 인천주안점,,Cheolgu PC Incheon Juan Branch,Professional and Other Places,Recreation Facility,126.68104512074588,37.46360353791569,대한민국,KOR,KOR,인천광역시,미추홀구,,주안동,,주안로104번길,8,140-4,2022-08-12 13:15:03,"쇼핑,편의||오락시설||PC방||프랜차이즈||철구PC",False
16081,16082,27108322,더엑스PC 인천도화점,,The XPC Incheon Dohwa Branch,Professional and Other Places,Recreation Facility,126.6639126553869,37.46573587231798,대한민국,KOR,KOR,인천광역시,미추홀구,,도화동,,경인로,191,619-5,2022-05-01 12:37:48,"쇼핑,편의||오락시설||PC방||프랜차이즈||더엑스PC",False
16426,16427,27181748,놀숲 인천구월점,,Nol Forest Incheon Guwol Branch,Professional and Other Places,Recreation Facility,126.70153976184493,37.44519955248767,대한민국,KOR,KOR,인천광역시,남동구,,구월동,,성말로,10,1463,2022-08-12 13:15:03,"쇼핑,편의||오락시설||만화방||프랜차이즈||놀숲",False
18660,18661,20184285,5STARPC방,5STAR피씨방,5STAR PC room,Professional and Other Places,Recreation Facility,126.69822932997592,37.42587686982887,대한민국,KOR,KOR,인천광역시,연수구,,선학동,,경원대로467번길,3,407,2021-12-23 15:49:18,"쇼핑,편의||오락시설||PC방||PC방-일반",False
19057,19058,3129690,Luxury PC방,럭셔리피씨방,Luxury PC room,Professional and Other Places,Recreation Facility,126.68154492965088,37.5491946111145,대한민국,KOR,KOR,인천광역시,서구,,연희동,,간촌로,41,699-7,2022-05-01 12:37:48,"쇼핑,편의||오락시설||PC방||PC방-일반",False
21642,21643,3808817,프라임PC방,프라임피씨방,Prime PC Room,Professional and Other Places,Recreation Facility,126.65778222193391,37.453280395209674,대한민국,KOR,KOR,인천광역시,미추홀구,,용현동,,인하로77번길,48,170-1,2022-08-24 14:41:06,"쇼핑,편의||오락시설||PC방||PC방-일반",False
22722,22723,26521633,템빨PC방,템빨피씨방 본점,Tempal PC Room,Professional and Other Places,Recreation Facility,126.7000331689269,37.47113465039888,대한민국,KOR,KOR,인천광역시,부평구,,십정동,,열우물로49번길,25,406-2,2022-08-16 16:52:33,"쇼핑,편의||오락시설||PC방||PC방-일반",False
22942,22943,27232729,니하오락실,,Niha Recreation Room,Professional and Other Places,Recreation Facility,126.61898689999984,37.475441299999765,대한민국,KOR,KOR,인천광역시,중구,,북성동2가,,차이나타운로44번길,7,10-15,2022-05-01 12:37:48,"쇼핑,편의||오락시설||오락실||오락실-일반",False
24074,24075,5706422,더카페PC방,더카페피씨방,The Cafe PC Room,Professional and Other Places,Recreation Facility,126.63164442815189,37.47232396920677,대한민국,KOR,KOR,인천광역시,중구,,경동,,큰우물로,5,203-2,2021-12-23 15:49:18,"쇼핑,편의||오락시설||PC방||PC방-일반",False
25318,25319,3121193,유비쿼터스PC방,유비쿼터스피씨방,Ubiquitous PC Room,Professional and Other Places,Recreation Facility,126.70389506912888,37.52791729250271,대한민국,KOR,KOR,인천광역시,계양구,,효성동,,효서로,73,581,2022-08-12 13:15:03,"쇼핑,편의||오락시설||PC방||PC방-일반",False
26942,26943,4331100,아이원PC방,아이원피씨방,i-one pc room,Professional and Other Places,Recreation Facility,126.65728474209592,37.452370272639065,대한민국,KOR,KOR,인천광역시,미추홀구,,용현동,,인하로67번길,24-31,195-13,2022-08-08 10:29:42,"쇼핑,편의||오락시설||PC방||PC방-일반",False
27151,27152,27225205,NOBLE PC CAFE,,NOBLE PC CAFE,Professional and Other Places,Recreation Facility,126.73958852180994,37.44323389270507,대한민국,KOR,KOR,인천광역시,남동구,,만수동,,장승남로,66,1039-2,2022-05-01 12:37:48,"쇼핑,편의||오락시설||PC방||PC방-일반",False
27217,27218,6223426,뽀꼬또뽀꼬인형뽑기,뽀꼬인형뽑기,Pokotopoko doll draw,Professional and Other Places,Recreation Facility,126.62535304289484,37.470884551258166,대한민국,KOR,KOR,인천광역시,중구,,신포동,,우현로35번길,22-2,26-11,2021-12-23 15:49:18,"쇼핑,편의||오락시설||오락실||오락실-일반",False
27240,27241,3444635,아비리스PC,아비리스피씨,Aviris PC,Professional and Other Places,Recreation Facility,126.71242648868788,37.5277654983942,대한민국,KOR,KOR,인천광역시,계양구,,효성동,,효서로,148,242-1,2021-12-23 15:49:18,"쇼핑,편의||오락시설||PC방||PC방-일반",False
27345,27346,27227349,해피투게더인형뽑기,,Happy Together Doll Draw,Professional and Other Places,Recreation Facility,126.61998889999984,37.478264899999765,대한민국,KOR,KOR,인천광역시,중구,,송월동3가,,동화마을길,27,11-89,2022-05-01 12:37:48,"쇼핑,편의||오락시설||오락실||오락실-일반",False
28674,28675,4635936,탐스PC방,탐스피씨방,TOMS PC room,Professional and Other Places,Recreation Facility,126.7225393458269,37.5163930021775,대한민국,KOR,KOR,인천광역시,부평구,,갈산동,,평천로,290,177-1,2019-11-14 23:25:17,"쇼핑,편의||오락시설||PC방||PC방-일반",False
29098,29099,27182435,컴컴PC방,,Comcom PC Room,Professional and Other Places,Recreation Facility,126.7253921687199,37.49393195353238,대한민국,KOR,KOR,인천광역시,부평구,,부평동,,시장로29번길,8,192-7,2022-08-16 16:52:33,"쇼핑,편의||오락시설||PC방||PC방-일반",False
29403,29404,20202322,인형뽑기대왕,,king of dolls,Professional and Other Places,Recreation Facility,126.67077415581792,37.5030847783011,대한민국,KOR,KOR,인천광역시,서구,,석남동,,거북로,82,586-3,2021-12-23 15:49:18,"쇼핑,편의||오락시설||오락실||오락실-일반",False
29406,29407,27068043,센스PC방,센스피씨방,Sense PC Room,Professional and Other Places,Recreation Facility,126.65354264257095,37.45944930477315,대한민국,KOR,KOR,인천광역시,미추홀구,,용현동,,독정이로,40,492-3,2022-08-16 16:52:33,"쇼핑,편의||오락시설||PC방||PC방-일반",False
29633,29634,27069339,로밍pc카페,,roaming pc cafe,Professional and Other Places,Recreation Facility,126.72262341747216,37.50256566427598,대한민국,KOR,KOR,인천광역시,부평구,,부평동,,주부토로81번길,50,950,2022-08-16 16:52:33,"쇼핑,편의||오락시설||PC방||PC방-일반",False
29690,29691,20028143,뽑기나라 인천부개점,,Opened Gachagi Nara Incheon Bu,Professional and Other Places,Recreation Facility,126.74176046901692,37.4930090463727,대한민국,KOR,KOR,인천광역시,부평구,,부개동,,부일로113번길,47-1,489-1,2021-12-23 15:49:18,"쇼핑,편의||오락시설||오락실||오락실-일반",False
30307,30308,5719209,그린PC방,그린피씨방,Green PC room,Professional and Other Places,Recreation Facility,126.67436718372188,37.45904844575749,대한민국,KOR,KOR,인천광역시,미추홀구,,도화동,,제일로,35,435-1,2019-11-14 0:00:00,"쇼핑,편의||오락시설||PC방||PC방-일반",False
30974,30975,5691312,무한뽑기상사,,infinite lottery boss,Professional and Other Places,Recreation Facility,126.65776511358388,37.46718980500077,대한민국,KOR,KOR,인천광역시,미추홀구,,도화동,,석정로202번길,12-5,87-4,2022-05-01 12:37:48,"쇼핑,편의||오락시설||오락실||오락실-일반",False
31969,31970,27151739,카툰카페 만화공장,,cartoon cafe cartoon factory,Professional and Other Places,Recreation Facility,126.65573079999996,37.53360729999982,대한민국,KOR,KOR,인천광역시,서구,,청라동,,청라에메랄드로,99,165-12,2022-08-12 13:15:03,"쇼핑,편의||오락시설||만화방||만화방-일반",False
32114,32115,20762966,뽑기매니아,,lottery mania,Professional and Other Places,Recreation Facility,126.72667236663992,37.49104881626089,대한민국,KOR,KOR,인천광역시,부평구,,부평동,,경원대로,1420,182-8,2022-05-18 1:21:35,"쇼핑,편의||오락시설||오락실||오락실-일반",False
32442,32443,19041744,만화카페 다봄,,Manga Cafe Dabom,Professional and Other Places,Recreation Facility,126.67174360028892,37.40697149966235,대한민국,KOR,KOR,인천광역시,연수구,,동춘동,,앵고개로264번길,30-6,933-14,2022-09-06 15:18:26,"쇼핑,편의||오락시설||만화방||만화방-일반",False
33346,33347,20763037,뽑기매니아,,lottery mania,Professional and Other Places,Recreation Facility,126.6758548806019,37.45773453696927,대한민국,KOR,KOR,인천광역시,미추홀구,,주안동,,경인로326번길,21,508-25,2022-05-18 1:21:28,"쇼핑,편의||오락시설||오락실||오락실-일반",False
34776,34777,3120541,로하스PC방,로하스피씨방,LOHAS PC room,Professional and Other Places,Recreation Facility,126.73762426835793,37.54766400558491,대한민국,KOR,KOR,인천광역시,계양구,,병방동,,계양산로,195,316,2019-11-14 23:19:30,"쇼핑,편의||오락시설||PC방||PC방-일반",False
34840,34841,3127694,3POP PC 갈산점,하늘다리피씨방,3POP PC Galsan branch,Professional and Other Places,Recreation Facility,126.72589166010094,37.51526384111288,대한민국,KOR,KOR,인천광역시,부평구,,갈산동,,주부토로,223,171-11,2022-08-18 12:00:50,"쇼핑,편의||오락시설||PC방||PC방-일반",False
35407,35408,6216004,드루와PC클럽,드루와피씨클럽,Drew and PC club,Professional and Other Places,Recreation Facility,126.73133658010694,37.50468900863718,대한민국,KOR,KOR,인천광역시,부평구,,부평동,,장제로,214,915-2,2019-11-14 23:30:26,"쇼핑,편의||오락시설||PC방||PC방-일반",False
35533,35534,27225170,무한뽑기상사,,infinite lottery boss,Professional and Other Places,Recreation Facility,126.69452749537892,37.46427162539797,대한민국,KOR,KOR,인천광역시,남동구,,간석동,,석산로,5,394-14,2022-05-01 12:37:48,"쇼핑,편의||오락시설||오락실||오락실-일반",False
35870,35871,20482692,더뽑기샵,,the lottery shop,Professional and Other Places,Recreation Facility,126.62872473088191,37.475838192788395,대한민국,KOR,KOR,인천광역시,중구,,전동,,홍예문로68번길,28,19-46,2022-05-01 12:37:48,"쇼핑,편의||오락시설||오락실||오락실-일반",False
37832,37833,27160813,킹스PC방 동암점,,King's PC Bang Dongam,Professional and Other Places,Recreation Facility,126.70413749999994,37.47112689999978,대한민국,KOR,KOR,인천광역시,부평구,,십정동,,동암남로,5,516-3,2022-09-06 15:18:26,"쇼핑,편의||오락시설||PC방||PC방-일반",False
37837,37838,6230171,짱구오락실,,Jjanggu Game Room,Professional and Other Places,Recreation Facility,126.59854298407284,37.47551122302016,대한민국,KOR,KOR,인천광역시,중구,,북성동1가,,월미로234번길,10,98-446,2022-08-12 13:15:03,"쇼핑,편의||오락시설||오락실||오락실-일반",False
38398,38399,27498061,퍼스트클래스PC cafe,퍼스트클래스피씨 검단점,First Class PC cafe,Professional and Other Places,Recreation Facility,126.66927139999994,37.595918999999846,대한민국,KOR,KOR,인천광역시,서구,,마전동,,완정로,43,1021-1,2022-08-30 9:43:30,"쇼핑,편의||오락시설||PC방||PC방-일반",False
38420,38421,20481975,5STARPC,,5STARPC,Professional and Other Places,Recreation Facility,126.70307409342195,37.45179603295428,대한민국,KOR,KOR,인천광역시,남동구,,구월동,,인주대로591번길,38,1129-1,2022-05-01 12:37:48,"쇼핑,편의||오락시설||PC방||PC방-일반",False
39340,39341,20184617,엔조이PC방 남촌본점,엔조이피씨방 남촌본점,Enjoy PC room Namchon Main Branch,Professional and Other Places,Recreation Facility,126.71619801970095,37.43193016474299,대한민국,KOR,KOR,인천광역시,남동구,,남촌동,,남촌동로,23,330-5,2021-12-23 15:49:18,"쇼핑,편의||오락시설||PC방||PC방-일반",False
39505,39506,5706257,뉴캐슬PC존,뉴캐슬피씨존,Newcastle PC Zone,Professional and Other Places,Recreation Facility,126.68664283378888,37.43825623557205,대한민국,KOR,KOR,인천광역시,미추홀구,,문학동,,매소홀로,582,380-4,2022-08-18 12:00:50,"쇼핑,편의||오락시설||PC방||PC방-일반",False
39770,39771,6211130,킹덤PC,킹덤피씨,Kingdom PC,Professional and Other Places,Recreation Facility,126.70403109999997,37.51808989999981,대한민국,KOR,KOR,인천광역시,부평구,,청천동,,마장로,447,15-23,2022-08-24 14:41:06,"쇼핑,편의||오락시설||PC방||PC방-일반",False
40741,40742,20762940,젠틀뽑기매니아,,Gentle draw mania,Professional and Other Places,Recreation Facility,126.6549135521539,37.45662183948267,대한민국,KOR,KOR,인천광역시,미추홀구,,용현동,,독정이로,5,490-69,2022-05-18 1:20:07,"쇼핑,편의||오락시설||오락실||오락실-일반",False
40808,40809,5717669,스페이스멀티게임존,스페이스게임존,space multi game zone,Professional and Other Places,Recreation Facility,126.72566049831994,37.537250181315606,대한민국,KOR,KOR,인천광역시,계양구,,계산동,,계산로,122,989-37,2021-12-23 15:49:18,"쇼핑,편의||오락시설||오락실||오락실-일반",False
42730,42731,4338174,제노PC존,제노피씨존,Xeno PC Zone,Professional and Other Places,Recreation Facility,126.63163411407685,37.472221848675865,대한민국,KOR,KOR,인천광역시,중구,,경동,,큰우물로,3,207-3,2021-12-23 15:49:18,"쇼핑,편의||오락시설||PC방||PC방-일반",False
43096,43097,4335066,세븐스타PC카페,세븐스타피씨카페,Seven Star PC Cafe,Professional and Other Places,Recreation Facility,126.74539403525095,37.556104808613114,대한민국,KOR,KOR,인천광역시,계양구,,박촌동,,장제로,1013,52-3,2022-05-01 12:37:48,"쇼핑,편의||오락시설||PC방||PC방-일반",False
43319,43320,27067014,만화모리,,Manga Mori,Professional and Other Places,Recreation Facility,126.5601548554508,37.48898879977936,대한민국,KOR,KOR,인천광역시,중구,,중산동,,자연대로,40,1886-20,2022-08-12 13:15:03,"쇼핑,편의||오락시설||만화방||만화방-일반",False
43549,43550,4347715,PC방가는길,피씨방가는길,On the way to the PC room,Professional and Other Places,Recreation Facility,126.73638708973596,37.52608967096961,대한민국,KOR,KOR,인천광역시,계양구,,작전동,,까치말로6번길,2,665-1,2022-08-16 16:52:33,"쇼핑,편의||오락시설||PC방||PC방-일반",False
43616,43617,27182569,진PC방 인하대점,,Jin PC Room Inha University,Professional and Other Places,Recreation Facility,126.64912009999996,37.44814629999978,대한민국,KOR,KOR,인천광역시,미추홀구,,용현동,,독배로,311,665-12,2022-08-16 16:52:33,"쇼핑,편의||오락시설||PC방||PC방-일반",False
44583,44584,27231529,아이센스리그PC 영종도점,,Ice Sense League PC Yeongjongdo Branch,Professional and Other Places,Recreation Facility,126.5073704729037,37.48421499716665,대한민국,KOR,KOR,인천광역시,중구,,운서동,,넙디로,26,2934-1,2022-08-16 16:52:33,"쇼핑,편의||오락시설||PC방||프랜차이즈||아이센스리그PC",False
44981,44982,27124261,아이센스리그PC 인천구월동점,,Ice Sense League PC Incheon Guwol-dong,Professional and Other Places,Recreation Facility,126.70280730200292,37.44445209379219,대한민국,KOR,KOR,인천광역시,남동구,,구월동,,인하로507번길,23,1473-2,2022-05-01 12:37:48,"쇼핑,편의||오락시설||PC방||프랜차이즈||아이센스리그PC",False
45090,45091,27184535,맥스게임존 인천부평점,,Max Game Zone Incheon Bupyeong,Professional and Other Places,Recreation Facility,126.73309739697692,37.5084044997357,대한민국,KOR,KOR,인천광역시,부평구,,삼산동,,체육관로,14,462-1,2022-08-24 14:41:06,"쇼핑,편의||오락시설||오락실||오락실-일반",False
46205,46206,2615186,더나인PC까페,더나인피씨까페,The Nine PC cafe,Professional and Other Places,Recreation Facility,126.7228957457019,37.52820500447922,대한민국,KOR,KOR,인천광역시,계양구,,작전동,,계양대로,50,866-11,2019-11-14 23:29:13,"쇼핑,편의||오락시설||PC방||PC방-일반",False
46383,46384,6223701,K1멀티게임존,케이원멀티게임존,K1 multi game zone,Professional and Other Places,Recreation Facility,126.63407200850985,37.45065879062457,대한민국,KOR,KOR,인천광역시,미추홀구,,용현동,,낙섬서로10번길,1,627-379,2021-12-23 15:49:18,"쇼핑,편의||오락시설||오락실||오락실-일반",False
46826,46827,27154265,달콤PC방,,Sweet PC room,Professional and Other Places,Recreation Facility,126.7222103966649,37.5399775738567,대한민국,KOR,KOR,인천광역시,계양구,,계산동,,계산천서로,46,973-8,2022-05-01 12:37:48,"쇼핑,편의||오락시설||PC방||PC방-일반",False
46953,46954,27136103,TOP PC and CAFE,TOP 피씨 and CAFE,TOP PC and CAFE,Professional and Other Places,Recreation Facility,126.67846115628588,37.460673921337765,대한민국,KOR,KOR,인천광역시,미추홀구,,주안동,,석바위로,48,203-12,2022-08-16 16:52:33,"쇼핑,편의||오락시설||PC방||PC방-일반",False
47967,47968,27218732,스타덤PC방 부평점,,Stardom PC Bang Bupyeong,Professional and Other Places,Recreation Facility,126.73592933083594,37.5071550423504,대한민국,KOR,KOR,인천광역시,부평구,,삼산동,,길주로,659,461-4,2022-08-16 16:52:33,"쇼핑,편의||오락시설||PC방||PC방-일반",False
49649,49650,27455427,빠삐용PC,,Papillon PC,Professional and Other Places,Recreation Facility,126.65769769111796,37.452434559905896,대한민국,KOR,KOR,인천광역시,미추홀구,,용현동,,인하로77번길,30,181-13,2022-08-16 16:52:33,"쇼핑,편의||오락시설||PC방||PC방-일반",False
50744,50745,6212011,짱게임랜드,,jjang game land,Professional and Other Places,Recreation Facility,126.61805188986985,37.475669904365056,대한민국,KOR,KOR,인천광역시,중구,,북성동2가,,차이나타운로44번길,26,12-5,2022-08-12 13:15:03,"쇼핑,편의||오락시설||오락실||오락실-일반",False
53086,53087,6211982,노리존게임프라자,,Norizon game plaza,Professional and Other Places,Recreation Facility,126.59810311600783,37.47463192109876,대한민국,KOR,KOR,인천광역시,중구,,북성동1가,,월미로242번길,9,98-469,2022-08-12 13:15:03,"쇼핑,편의||오락시설||오락실||오락실-일반",False
53348,53349,26870448,젠틀맨뽑기놀이터,,Gentleman lottery playground,Professional and Other Places,Recreation Facility,126.74972524794394,37.42285401083576,대한민국,KOR,KOR,인천광역시,남동구,,서창동,,서창남순환로216번길,35,706,2022-05-01 12:37:48,"쇼핑,편의||오락시설||오락실||오락실-일반",False
53494,53495,5367772,긱스타피씨방,,Geek Star PC Room,Professional and Other Places,Recreation Facility,126.65498492723675,37.45186252999781,대한민국,KOR,KOR,인천광역시,미추홀구,,용현동,,인하로,59,199-18,2022-08-12 13:15:03,"쇼핑,편의||오락시설||PC방||PC방-일반",False
54478,54479,6209655,팬텀피씨카페,PHANTOMPCCAFE,Phantom PC Cafe,Professional and Other Places,Recreation Facility,126.66905736675488,37.517189216422096,대한민국,KOR,KOR,인천광역시,서구,,신현동,,염곡로,364,278-8,2022-05-01 12:37:48,"쇼핑,편의||오락시설||PC방||PC방-일반",False
54866,54867,3131915,온PC,온피씨,on PC,Professional and Other Places,Recreation Facility,126.6719025469079,37.40748928563456,대한민국,KOR,KOR,인천광역시,연수구,,동춘동,,앵고개로264번길,10-11,934-1,2020-01-14 23:41:10,"쇼핑,편의||오락시설||PC방||PC방-일반",False
55396,55397,3110226,해피빈PC방,해피빈피씨방,Happy Bean PC Room,Professional and Other Places,Recreation Facility,126.63118308874486,37.478391066947786,대한민국,KOR,KOR,인천광역시,동구,,화평동,,화도진로,73,396,2022-08-12 13:15:03,"쇼핑,편의||오락시설||PC방||PC방-일반",False
55423,55424,20485100,뽑기왕,,king of draw,Professional and Other Places,Recreation Facility,126.72338390746899,37.53252172019113,대한민국,KOR,KOR,인천광역시,계양구,,작전동,,작전시장로,6,863-1,2022-05-01 12:37:48,"쇼핑,편의||오락시설||오락실||오락실-일반",False
55704,55705,3122348,하늘다리PC방,하늘다리피씨방,Sky Bridge PC Room,Professional and Other Places,Recreation Facility,126.71608919999991,37.43111879999979,대한민국,KOR,KOR,인천광역시,남동구,,남촌동,,남촌동로3번길,33,332-9,2022-05-23 11:08:19,"쇼핑,편의||오락시설||PC방||PC방-일반",False
57421,57422,20199730,부라더인형뽑기,부라더뽑기,Brother doll lottery,Professional and Other Places,Recreation Facility,126.37494109434773,37.445609034246885,대한민국,KOR,KOR,인천광역시,중구,,을왕동,,을왕로,5,717-13,2021-12-23 15:49:18,"쇼핑,편의||오락시설||오락실||오락실-일반",False
59140,59141,3118617,라네이즈PC방,라네이즈피씨방,Laneige PC Room,Professional and Other Places,Recreation Facility,126.66738547781488,37.45251981518376,대한민국,KOR,KOR,인천광역시,미추홀구,,주안동,,인주대로,277,678-6,2019-11-14 0:00:00,"쇼핑,편의||오락시설||PC방||PC방-일반",False
59593,59594,27208092,맥스라이더,,max rider,Professional and Other Places,Recreation Facility,126.72357559999992,37.48935319999979,대한민국,KOR,KOR,인천광역시,부평구,,부평동,,광장로,16,738-21,2022-05-01 12:37:48,"쇼핑,편의||오락시설||오락실||오락실-일반",False
60333,60334,4339875,해변오락실,,Beach Game Room,Professional and Other Places,Recreation Facility,126.59675653326084,37.47330394191928,대한민국,KOR,KOR,인천광역시,중구,,북성동1가,,월미문화로,57-1,98-277,2022-08-12 13:15:03,"쇼핑,편의||오락시설||오락실||오락실-일반",False
60524,60525,6143845,탐스PC,,TOMS PC,Professional and Other Places,Recreation Facility,126.6626089003669,37.471466601050366,대한민국,KOR,KOR,인천광역시,미추홀구,,도화동,,숙골로,104,1006-2,2022-05-01 12:37:48,"쇼핑,편의||오락시설||PC방||PC방-일반",False
61814,61815,3122422,제노PC존,제노피씨존,Xeno PC Zone,Professional and Other Places,Recreation Facility,126.71182763514304,37.52778412521187,대한민국,KOR,KOR,인천광역시,계양구,,효성동,,효서로,144,251-1,2022-05-01 12:37:48,"쇼핑,편의||오락시설||PC방||PC방-일반",False
62206,62207,27056115,케이스타PC카페 인천복성점,,K-Star PC Cafe Incheon Bokseong,Professional and Other Places,Recreation Facility,126.61809109999984,37.475727599999765,대한민국,KOR,KOR,인천광역시,중구,,북성동2가,,차이나타운로44번길,26,12-5,2022-08-12 13:15:03,"쇼핑,편의||오락시설||PC방||PC방-일반",False
62408,62409,27218821,프리미엄본스pc카페 구월선수촌점,,Premium Bons PC Cafe Guwol Sports Village,Professional and Other Places,Recreation Facility,126.70977482857091,37.441558025994574,대한민국,KOR,KOR,인천광역시,남동구,,구월동,,선수촌공원로,27,1534-1,2022-08-12 13:15:03,"쇼핑,편의||오락시설||PC방||PC방-일반",False
62446,62447,27080653,아이탐스pc방,,itams pc room,Professional and Other Places,Recreation Facility,126.69712151115992,37.42383150719566,대한민국,KOR,KOR,인천광역시,연수구,,선학동,,학나래로6번길,7,411-5,2022-08-16 16:52:33,"쇼핑,편의||오락시설||PC방||PC방-일반",False
62996,62997,27184216,아이비스PC방 인천부평공원점,,Ibis PC Bang Incheon Bupyeong Park Branch,Professional and Other Places,Recreation Facility,126.71187535708388,37.490442773308494,대한민국,KOR,KOR,인천광역시,부평구,,부평동,,경원대로,1286,274-21,2022-08-12 13:15:03,"쇼핑,편의||오락시설||PC방||프랜차이즈||아이비스PC방",False
63202,63203,27075705,선학동피찌방PC,,Seonhak-dong Pizzibang PC,Professional and Other Places,Recreation Facility,126.69740175301692,37.42381755273906,대한민국,KOR,KOR,인천광역시,연수구,,선학동,,학나래로6번길,11,411-4,2022-08-16 16:52:33,"쇼핑,편의||오락시설||PC방||PC방-일반",False
63327,63328,20483552,인형뽑아방,,doll pick up room,Professional and Other Places,Recreation Facility,126.72527284215695,37.4539849488548,대한민국,KOR,KOR,인천광역시,남동구,,만수동,,구월말로58번길,8,920-1,2022-05-01 12:37:48,"쇼핑,편의||오락시설||오락실||오락실-일반",False
63890,63891,27550426,뽑기방,,drawing room,Professional and Other Places,Recreation Facility,126.74564363297196,37.48442263774951,대한민국,KOR,KOR,인천광역시,부평구,,일신동,,일신로8번길,4,109-36,2022-09-06 15:18:26,"쇼핑,편의||오락시설||오락실||오락실-일반",False
63952,63953,6212150,스타일PC방,스타일피씨방,style pc room,Professional and Other Places,Recreation Facility,126.62460320133786,37.47064641007456,대한민국,KOR,KOR,인천광역시,중구,,신생동,,신포로,18-1,2-29,2022-08-16 16:52:33,"쇼핑,편의||오락시설||PC방||PC방-일반",False
64405,64406,2613090,띵스PC방,띵스피씨방,Things PC Room,Professional and Other Places,Recreation Facility,126.7167607098859,37.431951677524765,대한민국,KOR,KOR,인천광역시,남동구,,남촌동,,남촌동로,17,329-4,2022-08-12 13:15:03,"쇼핑,편의||오락시설||PC방||PC방-일반",False
65069,65070,6226131,THE뽑기샵 5호점,더뽑기샵 5호점,THE Gacha Shop 5,Professional and Other Places,Recreation Facility,126.62951432094486,37.474552860195566,대한민국,KOR,KOR,인천광역시,중구,,인현동,,우현로83번길,15,30-3,2021-12-23 15:49:18,"쇼핑,편의||오락시설||오락실||오락실-일반",False
66814,66815,5660220,뽑기요기요,,I'm going to pull,Professional and Other Places,Recreation Facility,126.4894980857107,37.49376361764634,대한민국,KOR,KOR,인천광역시,중구,,운서동,,신도시남로141번길,7,2796-6,2020-01-14 23:24:59,"쇼핑,편의||오락시설||오락실||오락실-일반",False
66825,66826,27216898,샹떼pc방 인천계산점,,Chante PC Bang Incheon Gyesan Branch,Professional and Other Places,Recreation Facility,126.72522639264793,37.5454550504298,대한민국,KOR,KOR,인천광역시,계양구,,계산동,,하느재로20번길,1,925-9,2022-05-01 12:37:48,"쇼핑,편의||오락시설||PC방||PC방-일반",False
67488,67489,27184872,라이킷PC 청천점,,Likeit PC Cheongcheon Branch,Professional and Other Places,Recreation Facility,126.7143902999999,37.505481699999805,대한민국,KOR,KOR,인천광역시,부평구,,청천동,,원길로,19,234-2,2022-08-30 9:43:30,"쇼핑,편의||오락시설||PC방||PC방-일반",False
70994,70995,27076512,5스타PC방,,5 Star PC Room,Professional and Other Places,Recreation Facility,126.67023519999988,37.5098773999998,대한민국,KOR,KOR,인천광역시,서구,,석남동,,신석로,74-1,523-2,2022-05-01 12:37:48,"쇼핑,편의||오락시설||PC방||PC방-일반",False
71279,71280,20185419,젠틀맨뽑기노리터,젠틀맨노리터,Gentleman gacha no liter,Professional and Other Places,Recreation Facility,126.71634818938796,37.43195545015519,대한민국,KOR,KOR,인천광역시,남동구,,남촌동,,남촌동로,21,330-1,2021-12-23 15:49:18,"쇼핑,편의||오락시설||오락실||오락실-일반",False
71979,71980,4337356,노이pc카페,노이피씨카페,NoiPC Cafe,Professional and Other Places,Recreation Facility,126.64854095749986,37.45882341793276,대한민국,KOR,KOR,인천광역시,미추홀구,,숭의동,,독배로,443,294-11,2022-05-01 12:37:48,"쇼핑,편의||오락시설||PC방||PC방-일반",False
72234,72235,20477862,뽑기매니아,,lottery mania,Professional and Other Places,Recreation Facility,126.72463789375696,37.450825488024805,대한민국,KOR,KOR,인천광역시,남동구,,구월동,,구월말로,22,1309,2022-05-01 12:37:48,"쇼핑,편의||오락시설||오락실||오락실-일반",False
72310,72311,27197071,프리미엄본스PC,,Premium Bones PC,Professional and Other Places,Recreation Facility,126.64470959999989,37.45827819999976,대한민국,KOR,KOR,인천광역시,미추홀구,,용현동,,낙섬중로,138,685-12,2022-05-01 12:37:48,"쇼핑,편의||오락시설||PC방||PC방-일반",False
74628,74629,27077676,장동민의옹PC 인천작전점,장동민의옹피씨 인천작전점,Jang Dongmin's Ong PC Incheon Operation Branch,Professional and Other Places,Recreation Facility,126.73303857364992,37.53294668580501,대한민국,KOR,KOR,인천광역시,계양구,,작전동,,장제로,719-23,897-1,2022-08-16 16:52:33,"쇼핑,편의||오락시설||PC방||PC방-일반",False
75210,75211,27184763,WANNABE PC,,WANNABE PC,Professional and Other Places,Recreation Facility,126.73104641311592,37.511403374863086,대한민국,KOR,KOR,인천광역시,부평구,,갈산동,,굴포로,88,369,2022-08-16 16:52:33,"쇼핑,편의||오락시설||PC방||PC방-일반",False
75429,75430,27068925,탑플레이PC 인천만수점,,Top Play PC Incheon Mansu Branch,Professional and Other Places,Recreation Facility,126.72450377252493,37.45579100005497,대한민국,KOR,KOR,인천광역시,남동구,,만수동,,구월로,303,908-17,2022-05-01 12:37:48,"쇼핑,편의||오락시설||PC방||PC방-일반",False
75677,75678,27183617,놀숲 인천송도점,,Nol Forest Incheon Songdo Branch,Professional and Other Places,Recreation Facility,126.64844295226585,37.36688538129632,대한민국,KOR,KOR,인천광역시,연수구,,송도동,,송도미래로,30,214,2022-09-06 15:18:26,"쇼핑,편의||오락시설||만화방||프랜차이즈||놀숲",False
77039,77040,5722444,초콜릿PC방,초콜릿피씨존,chocolate pc room,Professional and Other Places,Recreation Facility,126.70451465911492,37.5168947300056,대한민국,KOR,KOR,인천광역시,부평구,,청천동,,마장로,434,174-5,2022-08-12 13:15:03,"쇼핑,편의||오락시설||PC방||PC방-일반",False
77086,77087,27196419,이스타 pc방,,easter pc room,Professional and Other Places,Recreation Facility,126.66283228900392,37.378656107791834,대한민국,KOR,KOR,인천광역시,연수구,,송도동,,송도과학로16번길,33-4,176-5,2022-08-24 14:41:06,"쇼핑,편의||오락시설||PC방||PC방-일반",False
77498,77499,3115567,나인티PC카페,나인티피씨카페,Ninety PC Cafe,Professional and Other Places,Recreation Facility,126.72117867287092,37.537547786601486,대한민국,KOR,KOR,인천광역시,계양구,,계산동,,계산로,82,987-2,2022-05-01 12:37:48,"쇼핑,편의||오락시설||PC방||PC방-일반",False
78497,78498,3125042,엘도라도PC방,엘도라도피씨,El Dorado PC Room,Professional and Other Places,Recreation Facility,126.65172096375488,37.39486316857574,대한민국,KOR,KOR,인천광역시,연수구,,송도동,,신송로125번길,7,3-5,2022-05-01 12:37:48,"쇼핑,편의||오락시설||PC방||PC방-일반",False
78645,78646,6011911,스타덤PC방 계양점,스타덤피시방계양점,Stardom PC Bang  Gyeyang,Professional and Other Places,Recreation Facility,126.73798137303795,37.53152039410551,대한민국,KOR,KOR,인천광역시,계양구,,작전동,,오조산로,7,910-7,2022-08-24 14:41:06,"쇼핑,편의||오락시설||PC방||PC방-일반",False
79219,79220,27179966,쓰리팝X짱PC방,,3 Pop X-chan PC Room,Professional and Other Places,Recreation Facility,126.6927353999999,37.41893589999975,대한민국,KOR,KOR,인천광역시,연수구,,연수동,,원인재로,286,532,2022-05-01 12:37:48,"쇼핑,편의||오락시설||PC방||PC방-일반",False
79347,79348,20184859,젠틀맨뽑기놀이터,,Gentleman lottery playground,Professional and Other Places,Recreation Facility,126.65142569048894,37.45708798102099,대한민국,KOR,KOR,인천광역시,미추홀구,,용현동,,독정이로9번길,64,459-19,2021-12-23 15:49:18,"쇼핑,편의||오락시설||오락실||오락실-일반",False
79518,79519,20464335,이에프씨PC방 경인여대점,,FC PC Room  Kyungin Women's University,Professional and Other Places,Recreation Facility,126.72284920797388,37.545342519066615,대한민국,KOR,KOR,인천광역시,계양구,,계산동,,경명대로1045번길,17,931-23,2022-05-18 1:20:59,"쇼핑,편의||오락시설||PC방||PC방-일반",False
80946,80947,27489355,스마일뽑기샵 완정사거리점,,Smile Gacha Shop Wanjeong Intersection,Professional and Other Places,Recreation Facility,126.67302389208994,37.59434608966824,대한민국,KOR,KOR,인천광역시,서구,,마전동,,완정로,8,1010-2,2022-08-18 12:00:50,"쇼핑,편의||오락시설||오락시설-일반",False
81350,81351,27155720,만화스토리,,cartoon story,Professional and Other Places,Recreation Facility,126.70351375449688,37.47127421534897,대한민국,KOR,KOR,인천광역시,부평구,,십정동,,아트센터로,38,475-8,2022-08-16 16:52:33,"쇼핑,편의||오락시설||만화방||만화방-일반",False
81419,81420,27071435,HighendPC,Highend피씨,HighendPC,Professional and Other Places,Recreation Facility,126.72535191670391,37.52766917191262,대한민국,KOR,KOR,인천광역시,계양구,,작전동,,아나지로299번길,24,416-4,2022-08-16 16:52:33,"쇼핑,편의||오락시설||PC방||PC방-일반",False
81758,81759,6212045,트리플멀티카페,,triple multi cafe,Professional and Other Places,Recreation Facility,126.72386760914792,37.49322444936018,대한민국,KOR,KOR,인천광역시,부평구,,부평동,,부평문화로66번길,17,201-21,2019-11-14 23:30:26,"쇼핑,편의||오락시설||멀티방",False
82006,82007,20761665,SKYPC방,,SKYPC room,Professional and Other Places,Recreation Facility,126.67382592088096,37.41825061534078,대한민국,KOR,KOR,인천광역시,연수구,,청학동,,청능대로53번길,31,470-2,2022-05-01 12:37:48,"쇼핑,편의||오락시설||PC방||PC방-일반",False
82072,82073,26879772,스마일뽑기샵 부개점,,Smile Lottery Shop ,Professional and Other Places,Recreation Facility,126.73465446572192,37.49421067839249,대한민국,KOR,KOR,인천광역시,부평구,,부개동,,부평문화로163번길,9-1,105-1,2022-05-01 12:37:48,"쇼핑,편의||오락시설||오락실||오락실-일반",False
82189,82190,27215177,착PC,,PC,Professional and Other Places,Recreation Facility,126.72072310721292,37.455591043875565,대한민국,KOR,KOR,인천광역시,남동구,,구월동,,구월로,272,1264-75,2022-05-01 12:37:48,"쇼핑,편의||오락시설||PC방||PC방-일반",False
82769,82770,27194447,상상만화카페,,imaginary cartoon cafe,Professional and Other Places,Recreation Facility,126.65081618996587,37.39424748862395,대한민국,KOR,KOR,인천광역시,연수구,,송도동,,해돋이로120번길,23,3-7,2022-08-16 16:52:33,"쇼핑,편의||오락시설||만화방||만화방-일반",False
83187,83188,27150267,울툰 만화카페,,Ultoon Manga Cafe,Professional and Other Places,Recreation Facility,126.6967404215259,37.59396708779053,대한민국,KOR,KOR,인천광역시,서구,,원당동,,원당대로,855,824-7,2022-09-06 15:18:26,"쇼핑,편의||오락시설||만화방||만화방-일반",False
84292,84293,27217283,그레이PC방 송현점,,Gray PC Bang Songhyeon,Professional and Other Places,Recreation Facility,126.63344092932084,37.47856050393785,대한민국,KOR,KOR,인천광역시,동구,,송현동,,수문통로,26,67-84,2022-08-16 16:52:33,"쇼핑,편의||오락시설||PC방||PC방-일반",False
85299,85300,27227743,조이툰 만화카페,,Joytoon Cartoon Cafe,Professional and Other Places,Recreation Facility,126.48949399172265,37.49276927570074,대한민국,KOR,KOR,인천광역시,중구,,운서동,,흰바위로,41,2794-1,2022-08-12 13:15:03,"쇼핑,편의||오락시설||만화방||만화방-일반",False
85521,85522,4341347,동막오락실,,Dongmak Recreation Room,Professional and Other Places,Recreation Facility,126.45984979999984,37.59243599999983,대한민국,KOR,KOR,인천광역시,강화군,,화도면,동막리,해안남로,1466,4-2,2018-09-19 17:15:55,"쇼핑,편의||오락시설||오락실||오락실-일반",False
86313,86314,27181888,아이존팝 인천구월점,,izone pop Incheon Guwol,Professional and Other Places,Recreation Facility,126.7014942968299,37.444884912317285,대한민국,KOR,KOR,인천광역시,남동구,,구월동,,인하로489번길,28,1463-2,2022-08-16 16:52:33,"쇼핑,편의||오락시설||오락실||프랜차이즈||아이존팝",False
87789,87790,6207026,뽑기일번지,,Draw date number,Professional and Other Places,Recreation Facility,126.6744893535029,37.51762071728918,대한민국,KOR,KOR,인천광역시,서구,,가정동,,원창로,225,507-7,2020-01-14 0:00:00,"쇼핑,편의||오락시설||오락실||오락실-일반",False
88712,88713,27042970,페라리PC카페,,Ferrari PC Cafe,Professional and Other Places,Recreation Facility,126.72752766959591,37.39753651381945,대한민국,KOR,KOR,인천광역시,남동구,,논현동,,논고개로,61,747-1,2022-05-01 12:37:48,"쇼핑,편의||오락시설||PC방||PC방-일반",False
88775,88776,20184363,뽑고또뽑기,,pull and pull,Professional and Other Places,Recreation Facility,126.66336480004392,37.463448720721296,대한민국,KOR,KOR,인천광역시,미추홀구,,도화동,,수봉북로,22-1,624-363,2021-12-23 15:49:18,"쇼핑,편의||오락시설||오락실||오락실-일반",False
88998,88999,27228901,브이아이피씨카페,,VIP Café,Professional and Other Places,Recreation Facility,126.73767676528396,37.54425379709022,대한민국,KOR,KOR,인천광역시,계양구,,임학동,,장제로,863,69-27,2022-08-12 13:15:03,"쇼핑,편의||오락시설||PC방||PC방-일반",False
90013,90014,20202992,동네뽑기방,,neighborhood lottery,Professional and Other Places,Recreation Facility,126.67379179375897,37.50118101110161,대한민국,KOR,KOR,인천광역시,서구,,석남동,,석남로109번길,3-1,577-73,2021-12-23 15:49:18,"쇼핑,편의||오락시설||오락실||오락실-일반",False
90266,90267,27120428,FR레이싱 FR PC방,,FR Racing FR PC Room,Professional and Other Places,Recreation Facility,126.65116032453489,37.39457094083955,대한민국,KOR,KOR,인천광역시,연수구,,송도동,,신송로125번길,13,3-6,2022-08-16 16:52:33,"쇼핑,편의||오락시설||PC방||PC방-일반",False
90461,90462,26869358,베스트365인형뽑기방,,Best 365 doll lottery room,Professional and Other Places,Recreation Facility,126.72204364516088,37.45198369160687,대한민국,KOR,KOR,인천광역시,남동구,,구월동,,구월남로,292,1274-19,2022-05-01 12:37:48,"쇼핑,편의||오락시설||오락실||오락실-일반",False
90899,90900,27223594,해피로PC방 인천도화점,,Happyro PC Bang Incheon Dohwa Branch,Professional and Other Places,Recreation Facility,126.6738975764009,37.45911640180788,대한민국,KOR,KOR,인천광역시,미추홀구,,도화동,,제일로,31,434-2,2022-08-12 13:15:03,"쇼핑,편의||오락시설||PC방||프랜차이즈||해피로PC방",False
91599,91600,27048141,젤리PC카페,,Jelly PC Cafe,Professional and Other Places,Recreation Facility,126.70303432172288,37.4997335799374,대한민국,KOR,KOR,인천광역시,부평구,,산곡동,,마장로242번길,5,251-20,2022-05-01 12:37:48,"쇼핑,편의||오락시설||PC방||PC방-일반",False
92251,92252,27045499,케이스타PC방,,K-Star PC Room,Professional and Other Places,Recreation Facility,126.66975438567188,37.52721494764359,대한민국,KOR,KOR,인천광역시,서구,,가정동,,봉오재3로,90,619-1,2022-08-08 10:29:42,"쇼핑,편의||오락시설||PC방||PC방-일반",False
92422,92423,20061164,만화카페 달콤카툰,,cartoon cafe sweet cartoon,Professional and Other Places,Recreation Facility,126.67993739675188,37.49333314496438,대한민국,KOR,KOR,인천광역시,서구,,가좌동,,신진말로,37-1,197-12,2022-08-16 16:52:33,"쇼핑,편의||오락시설||만화방||만화방-일반",False
92832,92833,27152918,하늘다리PC방체인사업부,,Sky Bridge PC Block Chain Division,Professional and Other Places,Recreation Facility,126.6810378776899,37.43900262506337,대한민국,KOR,KOR,인천광역시,미추홀구,,문학동,,매소홀로535번길,7,337-24,2022-05-01 12:37:48,"쇼핑,편의||오락시설||PC방||PC방-일반",False
94614,94615,6206930,풍선다트인형,,balloon dart doll,Professional and Other Places,Recreation Facility,126.61926916142784,37.47785751091137,대한민국,KOR,KOR,인천광역시,중구,,송월동2가,,차이나타운로,16,8-20,2022-05-18 1:15:41,"쇼핑,편의||오락시설||오락실||오락실-일반",False
95095,95096,27070530,드림존PC방,,Dream Zone PC Room,Professional and Other Places,Recreation Facility,126.67993042250488,37.46119610279996,대한민국,KOR,KOR,인천광역시,미추홀구,,주안동,,미추홀대로,713,210-9,2022-08-16 16:52:33,"쇼핑,편의||오락시설||PC방||PC방-일반",False
95214,95215,20483977,뽑기클라쓰,,Draw class,Professional and Other Places,Recreation Facility,126.67020095905396,37.502396137333406,대한민국,KOR,KOR,인천광역시,서구,,석남동,,건지로249번길,36,584-15,2022-05-01 12:37:48,"쇼핑,편의||오락시설||오락실||오락실-일반",False
96173,96174,27554423,뽑기플렉스 주안점,,Main point of Gachagi Flex,Professional and Other Places,Recreation Facility,126.67794799639894,37.45922554989849,대한민국,KOR,KOR,인천광역시,미추홀구,,주안동,,주안서로,4,196-11,2022-09-06 15:18:26,"쇼핑,편의||오락시설||오락실||오락실-일반",False
96735,96736,27183916,만화카페 깨비툰,,cartoon cafe kkaebitoon,Professional and Other Places,Recreation Facility,126.68447269999994,37.49649559999981,대한민국,KOR,KOR,인천광역시,서구,,가좌동,,원적로,120,75-1,2022-09-06 15:18:26,"쇼핑,편의||오락시설||만화방||만화방-일반",False
97567,97568,27124373,북앤빅뱅 구월점,,Book & Big Bang Guwol,Professional and Other Places,Recreation Facility,126.71050307698091,37.44983800239077,대한민국,KOR,KOR,인천광역시,남동구,,구월동,,인주대로,661,1205-3,2022-08-16 16:52:33,"쇼핑,편의||오락시설||만화방||만화방-일반",False
97719,97720,4322368,노블존PC 도화동점,노블존피씨도화동점,Noble Zone PC Dohwa-dong,Professional and Other Places,Recreation Facility,126.65528644674087,37.478024783843566,대한민국,KOR,KOR,인천광역시,미추홀구,,도화동,,연송로,38,24-7,2022-05-01 12:37:48,"쇼핑,편의||오락시설||PC방||PC방-일반",False
97826,97827,20184609,팡팡인형뽑기,,Pop puppet draw,Professional and Other Places,Recreation Facility,126.67959801754796,37.437507177378286,대한민국,KOR,KOR,인천광역시,미추홀구,,문학동,,소성로,292,155-34,2021-12-23 15:49:18,"쇼핑,편의||오락시설||오락실||오락실-일반",False
98603,98604,20474648,행운오락실,,lucky game room,Professional and Other Places,Recreation Facility,126.45669041497781,37.59356221458174,대한민국,KOR,KOR,인천광역시,강화군,,화도면,동막리,해안남로,1496-1,10-15,2022-05-01 12:37:48,"쇼핑,편의||오락시설||오락실||오락실-일반",False
99699,99700,27212365,철구PC 인천구월점,,Cheolgu PC Incheon Guwol Branch,Professional and Other Places,Recreation Facility,126.70149429719793,37.44486541246939,대한민국,KOR,KOR,인천광역시,남동구,,구월동,,인하로489번길,28,1463-2,2022-08-12 13:15:03,"쇼핑,편의||오락시설||PC방||프랜차이즈||철구PC",False
100006,100007,27185177,비트맥스dvd영화관,,beat max dvd movie theater,Professional and Other Places,Recreation Facility,126.73452418670594,37.53276941499431,대한민국,KOR,KOR,인천광역시,계양구,,작전동,,도두리로6번길,14,900-5,2022-05-01 12:37:48,"쇼핑,편의||오락시설||DVD방",False
100601,100602,27196043,라이또PC방 인천만수점,,Light PC Bang Incheon Mansu,Professional and Other Places,Recreation Facility,126.73855524561696,37.46500804912578,대한민국,KOR,KOR,인천광역시,남동구,,만수동,,만수로,116,1-162,2022-08-12 13:15:03,"쇼핑,편의||오락시설||PC방||프랜차이즈||라이또PC방",False
101186,101187,27173426,킹덤PC방,,Kingdom PC Room,Professional and Other Places,Recreation Facility,126.70975229444092,37.46077370141317,대한민국,KOR,KOR,인천광역시,남동구,,간석동,,석산로,159,195-1,2022-08-16 16:52:33,"쇼핑,편의||오락시설||PC방||PC방-일반",False
102233,102234,27114530,교동 추억의뽑기,,Gyodong Memories Gacha,Professional and Other Places,Recreation Facility,126.2814215004306,37.78233190391303,대한민국,KOR,KOR,인천광역시,강화군,,교동면,대룡리,대룡안길,35,525-4,2022-08-12 13:15:03,"쇼핑,편의||오락시설||오락실||오락실-일반",False
103217,103218,27235849,3POP 구월점,,3POP Guwol,Professional and Other Places,Recreation Facility,126.6930331999999,37.45079579999978,대한민국,KOR,KOR,인천광역시,남동구,,구월동,,인주대로,507,1119-1,2022-05-01 12:37:48,"쇼핑,편의||오락시설||PC방||PC방-일반",False
104859,104860,6226089,인형뽑기 가정점,,Puppet Draw Home Store,Professional and Other Places,Recreation Facility,126.67375744008088,37.5176549210713,대한민국,KOR,KOR,인천광역시,서구,,가정동,,석곶로,2,507-5,2020-01-14 0:00:00,"쇼핑,편의||오락시설||오락실||오락실-일반",False
104917,104918,20054251,7PC방,7피씨방 문학점,7pc room,Professional and Other Places,Recreation Facility,126.67887300019788,37.43763921952297,대한민국,KOR,KOR,인천광역시,미추홀구,,문학동,,소성로,285,356-9,2022-08-12 13:15:03,"쇼핑,편의||오락시설||PC방||PC방-일반",False
105192,105193,27224602,프리미엄 본스PC방,,Premium Bones PC Room,Professional and Other Places,Recreation Facility,126.67986446200288,37.462489835986574,대한민국,KOR,KOR,인천광역시,미추홀구,,주안동,,미추홀대로,729,225-1,2022-05-01 12:37:48,"쇼핑,편의||오락시설||PC방||PC방-일반",False
106227,106228,27187148,URBAN PC카페,,URBAN PC Cafe,Professional and Other Places,Recreation Facility,126.64491929999994,37.533422299999806,대한민국,KOR,KOR,인천광역시,서구,,청라동,,청라커낼로,280,157-5,2022-08-16 16:52:33,"쇼핑,편의||오락시설||PC방||PC방-일반",False
106374,106375,2155098,청소년오락실,,youth arcade,Professional and Other Places,Recreation Facility,126.67790769172892,37.446634103154864,대한민국,KOR,KOR,인천광역시,미추홀구,,주안동,,인하로266번길,33,1341-60,2019-11-14 23:23:57,"쇼핑,편의||오락시설||오락실||오락실-일반",False
107469,107470,3132052,제노PC방,제노피씨방,Xeno PC Room,Professional and Other Places,Recreation Facility,126.73447612535196,37.49369938770808,대한민국,KOR,KOR,인천광역시,부평구,,부개동,,부평문화로,164,139-1,2022-08-16 16:52:33,"쇼핑,편의||오락시설||PC방||PC방-일반",False
109148,109149,5707470,헬싱PC카페산곡점,헬싱피씨카페산곡점,Helsing PC Cafe Sangok Branch,Professional and Other Places,Recreation Facility,126.7030217364519,37.5001844941547,대한민국,KOR,KOR,인천광역시,부평구,,산곡동,,마장로,250,251-1,2022-08-24 14:41:06,"쇼핑,편의||오락시설||PC방||PC방-일반",False
111082,111083,4332812,브라보PC방,브라보피씨방,Bravo PC room,Professional and Other Places,Recreation Facility,126.6828941982129,37.46111309516427,대한민국,KOR,KOR,인천광역시,미추홀구,,주안동,,석바위로,87,92-5,2019-11-14 0:00:00,"쇼핑,편의||오락시설||PC방||PC방-일반",False
111174,111175,3109559,엔터PC방,엔터피씨방,Enter PC room,Professional and Other Places,Recreation Facility,126.63338808260183,37.477041277591766,대한민국,KOR,KOR,인천광역시,동구,,송현동,,송현로,1,72-129,2022-08-16 16:52:33,"쇼핑,편의||오락시설||PC방||PC방-일반",False
111279,111280,3115552,뉴캐슬PCRed,뉴캐슬피씨레드,Newcastle PC Red,Professional and Other Places,Recreation Facility,126.67846975074988,37.437555714629966,대한민국,KOR,KOR,인천광역시,미추홀구,,문학동,,매소홀로514번길,38,353-7,2022-07-19 20:20:05,"쇼핑,편의||오락시설||PC방||PC방-일반",False
111644,111645,27173125,본스PC방,,Bones PC room,Professional and Other Places,Recreation Facility,126.66306969959788,37.470839800839975,대한민국,KOR,KOR,인천광역시,미추홀구,,도화동,,숙골로,96,1006-6,2022-08-16 16:52:33,"쇼핑,편의||오락시설||PC방||PC방-일반",False
112683,112684,20481940,민트PC존,,Mint PC Zone,Professional and Other Places,Recreation Facility,126.69557137600493,37.44778413366629,대한민국,KOR,KOR,인천광역시,남동구,,구월동,,문화서로23번길,12,1359-16,2022-05-01 12:37:48,"쇼핑,편의||오락시설||PC방||PC방-일반",False
112961,112962,27113506,배틀존PC방,,Battle Zone PC Room,Professional and Other Places,Recreation Facility,126.67558519101688,37.43928590457946,대한민국,KOR,KOR,인천광역시,미추홀구,,학익동,,매소홀로,482,665-3,2022-08-12 13:15:03,"쇼핑,편의||오락시설||PC방||PC방-일반",False
113018,113019,27126175,맥스피드PC방,,Max Speed PC Room,Professional and Other Places,Recreation Facility,126.73084775799292,37.45485880065777,대한민국,KOR,KOR,인천광역시,남동구,,만수동,,구월로,362,948-5,2022-05-01 12:37:48,"쇼핑,편의||오락시설||PC방||PC방-일반",False
113797,113798,27079093,위너 PC방,,Winner PC room,Professional and Other Places,Recreation Facility,126.65187388614392,37.39531458600983,대한민국,KOR,KOR,인천광역시,연수구,,송도동,,신송로,121,3-4,2022-08-12 13:15:03,"쇼핑,편의||오락시설||PC방||PC방-일반",False
113907,113908,20201127,버블뽑기,,bubble draw,Professional and Other Places,Recreation Facility,126.67301490493794,37.425290036841965,대한민국,KOR,KOR,인천광역시,연수구,,연수동,,비류대로331번길,2-27,475-13,2021-12-23 15:49:18,"쇼핑,편의||오락시설||오락실||오락실-일반",False
114349,114350,5673688,이게PC방 병방점,이게피씨방병방점,This is a PC defense point,Professional and Other Places,Recreation Facility,126.74154189999996,37.54917849999983,대한민국,KOR,KOR,인천광역시,계양구,,병방동,,장제로,927,428,2022-08-24 14:41:06,"쇼핑,편의||오락시설||PC방||PC방-일반",False
115238,115239,27196209,맥스라이더,,max rider,Professional and Other Places,Recreation Facility,126.59674168261483,37.47312367277805,대한민국,KOR,KOR,인천광역시,중구,,북성동1가,,월미문화로,59-4,98-278,2022-08-16 16:52:33,"쇼핑,편의||오락시설||VR체험||VR체험-일반",False
115391,115392,27038330,로그온PC방,,logon pc room,Professional and Other Places,Recreation Facility,126.73531190605097,37.4946665703477,대한민국,KOR,KOR,인천광역시,부평구,,부개동,,충선로,59,131-21,2022-05-01 12:37:48,"쇼핑,편의||오락시설||PC방||PC방-일반",False
116105,116106,3485130,금성게임랜드,,Goldstar Game Land,Professional and Other Places,Recreation Facility,126.65555652582388,37.467070955700166,대한민국,KOR,KOR,인천광역시,미추홀구,,도화동,,석정로150번길,67,80-118,2022-05-01 12:37:48,"쇼핑,편의||오락시설||오락실||오락실-일반",False
116511,116512,27038642,스마일뽑기샵,,Smile Draw Shop,Professional and Other Places,Recreation Facility,126.67613313267094,37.4607363596949,대한민국,KOR,KOR,인천광역시,미추홀구,,도화동,,석바위로,28,375-10,2022-05-01 12:37:48,"쇼핑,편의||오락시설||오락실||오락실-일반",False
117202,117203,5668622,Mr스미스인형뽑기,잰틀맨노리터,Gentleman  Draw No Liter,Professional and Other Places,Recreation Facility,126.63588868200569,37.45306432984401,대한민국,KOR,KOR,인천광역시,미추홀구,,용현동,,낙섬서로,42,621-18,2022-05-01 12:37:48,"쇼핑,편의||오락시설||오락실||오락실-일반",False
118676,118677,27157175,탑스타PC방,,Top Star PC Room,Professional and Other Places,Recreation Facility,126.64462424636488,37.423313002715446,대한민국,KOR,KOR,인천광역시,연수구,,옥련동,,독배로,29,194-2,2022-08-16 16:52:33,"쇼핑,편의||오락시설||PC방||PC방-일반",False
119391,119392,27195200,제닉스아레나PC방 인천논현점,,Xenix Arena PC Room Incheon Nonhyeon Branch,Professional and Other Places,Recreation Facility,126.72436342175791,37.39895271238967,대한민국,KOR,KOR,인천광역시,남동구,,논현동,,앵고개로847번길,72,743-2,2022-08-16 16:52:33,"쇼핑,편의||오락시설||PC방||프랜차이즈||제닉스아레나",False
120052,120053,27501302,미스터스피스인형뽑기 만수점,,Mr. Spice doll lottery score,Professional and Other Places,Recreation Facility,126.74022713722698,37.44366213615679,대한민국,KOR,KOR,인천광역시,남동구,,만수동,,장승남로,71,1031,2022-09-06 15:18:26,"쇼핑,편의||오락시설||오락실||오락실-일반",False
120124,120125,26874338,뽑기샵,,lottery shop,Professional and Other Places,Recreation Facility,126.71593571711294,37.43163784498178,대한민국,KOR,KOR,인천광역시,남동구,,남촌동,,남촌동로25번길,11,333-5,2022-05-01 12:37:48,"쇼핑,편의||오락시설||오락실||오락실-일반",False
120140,120141,27195629,아이비스PC,아이비스피씨방 인천계양구청점,Ibis PC,Professional and Other Places,Recreation Facility,126.73806747378596,37.538146638613306,대한민국,KOR,KOR,인천광역시,계양구,,용종동,,계산새로,89,211-5,2022-05-01 12:37:48,"쇼핑,편의||오락시설||PC방||PC방-일반",False
120747,120748,20203183,짱뽑기방 가좌점,,Jjanggakgibang Gajwa Branch,Professional and Other Places,Recreation Facility,126.673435274654,37.4956731870149,대한민국,KOR,KOR,인천광역시,서구,,가좌동,,가정로126번길,16,144-5,2022-05-01 12:37:48,"쇼핑,편의||오락시설||오락실||오락실-일반",False
120828,120829,26876597,뽑기샵,,lottery shop,Professional and Other Places,Recreation Facility,126.725307914362,37.517684223553616,대한민국,KOR,KOR,인천광역시,부평구,,갈산동,,평천로,315,160-30,2022-05-01 12:37:48,"쇼핑,편의||오락시설||오락실||오락실-일반",False
122069,122070,5689167,스타오락실,,Star Game Room,Professional and Other Places,Recreation Facility,126.4581280999998,37.59317879999983,대한민국,KOR,KOR,인천광역시,강화군,,화도면,동막리,해안남로,1484,13-3,2022-05-01 12:37:48,"쇼핑,편의||오락시설||오락실||오락실-일반",False
122737,122738,27155121,진PC방 송도점,,Jin PC Bang Songdo Branch,Professional and Other Places,Recreation Facility,126.6349147204088,37.38808562884304,대한민국,KOR,KOR,인천광역시,연수구,,송도동,,컨벤시아대로230번길,42,98-2,2022-08-16 16:52:33,"쇼핑,편의||오락시설||PC방||PC방-일반",False
123825,123826,27059979,헌터PC방 인천검단본점,,Hunter PC Bang Incheon Geomdan Head Office,Professional and Other Places,Recreation Facility,126.65548860925388,37.602051286283206,대한민국,KOR,KOR,인천광역시,서구,,왕길동,,검단로459번길,10,640-1,2022-08-12 13:15:03,"쇼핑,편의||오락시설||PC방||PC방-일반",False
124204,124205,4456214,긱스타PC카페,긱스타피씨카페,Geek Star PC Cafe,Professional and Other Places,Recreation Facility,126.73535845232996,37.533734430433285,대한민국,KOR,KOR,인천광역시,계양구,,작전동,,도두리로,14,907-2,2022-05-01 12:37:48,"쇼핑,편의||오락시설||PC방||PC방-일반",False
126102,126103,27182442,철구PC 인천부평점,,Cheolgu PC Incheon Bupyeong,Professional and Other Places,Recreation Facility,126.72619574762491,37.493373615442685,대한민국,KOR,KOR,인천광역시,부평구,,부평동,,시장로30번길,5,152-28,2022-08-12 13:15:03,"쇼핑,편의||오락시설||PC방||프랜차이즈||철구PC",False
126226,126227,27214828,스타PC방,,Star PC Room,Professional and Other Places,Recreation Facility,126.67287481270688,37.51236394406169,대한민국,KOR,KOR,인천광역시,서구,,석남동,,가정로,308,456-6,2022-08-16 16:52:33,"쇼핑,편의||오락시설||PC방||PC방-일반",False
126263,126264,27053487,라이또PC방 인천석남점,,Light PC Bang Incheon Seoknam Branch,Professional and Other Places,Recreation Facility,126.67206220847488,37.50583103598319,대한민국,KOR,KOR,인천광역시,서구,,석남동,,가정로,235,538-21,2022-08-12 13:15:03,"쇼핑,편의||오락시설||PC방||프랜차이즈||라이또PC방",False
126286,126287,27071064,씨피유 게임랜드,,cpyu game land,Professional and Other Places,Recreation Facility,126.68146159999993,37.4631057999998,대한민국,KOR,KOR,인천광역시,미추홀구,,주안동,,미추홀대로734번길,17,138-4,2022-05-09 18:01:21,"쇼핑,편의||오락시설||오락실||오락실-일반",False
127164,127165,27053463,ITs PC cafe,,ITs PC cafe,Professional and Other Places,Recreation Facility,126.66506789999995,37.38802919999977,대한민국,KOR,KOR,인천광역시,연수구,,송도동,,송도과학로27번길,55,149,2022-05-01 12:37:48,"쇼핑,편의||오락시설||PC방||PC방-일반",False
127196,127197,5714533,진PC방도화점,진피씨방도화점,Jin PC Bangdohwa Store,Professional and Other Places,Recreation Facility,126.66259437455037,37.46811738200167,대한민국,KOR,KOR,인천광역시,미추홀구,,도화동,,석정로,244,95-3,2022-05-01 12:37:48,"쇼핑,편의||오락시설||PC방||PC방-일반",False
127265,127266,27190088,엑스지 피시 카페,,Exg Fish Cafe,Professional and Other Places,Recreation Facility,126.74029299999997,37.44360929999977,대한민국,KOR,KOR,인천광역시,남동구,,만수동,,장승남로,71,1031,2022-05-01 12:37:48,"쇼핑,편의||오락시설||PC방||PC방-일반",False
127338,127339,27227386,에이원PC방 부평동,,A-One PC Room Bupyeong-dong,Professional and Other Places,Recreation Facility,126.72345951637988,37.493004927962566,대한민국,KOR,KOR,인천광역시,부평구,,부평동,,부평대로20번길,4,199-41,2022-08-16 16:52:33,"쇼핑,편의||오락시설||PC방||PC방-일반",False
127439,127440,3117593,Ten.G PC방,넷폴리스피씨방,Ten.G PC room,Professional and Other Places,Recreation Facility,126.65130942452988,37.394545040736034,대한민국,KOR,KOR,인천광역시,연수구,,송도동,,신송로125번길,13,3-6,2022-08-12 13:15:03,"쇼핑,편의||오락시설||PC방||PC방-일반",False
128010,128011,27224836,PC앤TIME,,PC and TIME,Professional and Other Places,Recreation Facility,126.72434234227892,37.532855769286506,대한민국,KOR,KOR,인천광역시,계양구,,작전동,,작전시장로,17,856-132,2022-08-16 16:52:33,"쇼핑,편의||오락시설||PC방||PC방-일반",False
129181,129182,27078763,헌터PC방 인천주안점,,Hunter PC Bang Incheon Juan Branch,Professional and Other Places,Recreation Facility,126.6825240437019,37.463439203618165,대한민국,KOR,KOR,인천광역시,미추홀구,,주안동,,주안로,116,132,2022-05-01 12:37:48,"쇼핑,편의||오락시설||PC방||PC방-일반",False
131485,131486,27172830,리벨PC카페,,Rebel PC Cafe,Professional and Other Places,Recreation Facility,126.6718453907689,37.46795713148416,대한민국,KOR,KOR,인천광역시,미추홀구,,도화동,,석정로,327,119-43,2022-08-12 13:15:03,"쇼핑,편의||오락시설||PC방||PC방-일반",False
132641,132642,27184345,오레오PC방,,Oreo PC Room,Professional and Other Places,Recreation Facility,126.72177582032091,37.50467673207847,대한민국,KOR,KOR,인천광역시,부평구,,부평동,,길주남로,4,431-2,2022-08-12 13:15:03,"쇼핑,편의||오락시설||PC방||PC방-일반",False
132899,132900,5707570,지팩토리넘버원피시카페,지팩토리피씨,G Factory Number One Fish Cafe,Professional and Other Places,Recreation Facility,126.70517880765888,37.49166633122079,대한민국,KOR,KOR,인천광역시,부평구,,산곡동,,마장로,148,369-246,2022-08-16 16:52:33,"쇼핑,편의||오락시설||PC방||PC방-일반",False
132920,132921,5659427,엔스타PC방,엔스타피씨방,N-Star PC Room,Professional and Other Places,Recreation Facility,126.69789279017888,37.50711205741549,대한민국,KOR,KOR,인천광역시,부평구,,산곡동,,길주로326번길,46,82-123,2021-12-23 15:49:18,"쇼핑,편의||오락시설||PC방||PC방-일반",False
133767,133768,20468829,생생오락실,,live entertainment room,Professional and Other Places,Recreation Facility,126.4203662506748,37.42681241564257,대한민국,KOR,KOR,인천광역시,중구,,덕교동,,마시란로,47,128-31,2022-05-01 12:37:48,"쇼핑,편의||오락시설||오락실||오락실-일반",False
134252,134253,3130322,엔탑PC 인천가정동점,엔탑피씨인천가정동점,Ntop PC Incheon Gajeong-dong,Professional and Other Places,Recreation Facility,126.67355678708962,37.5176776654076,대한민국,KOR,KOR,인천광역시,서구,,가정동,,원창로,215,505-4,2022-05-01 12:37:48,"쇼핑,편의||오락시설||PC방||PC방-일반",False
135093,135094,27038523,뽑기매니아,,lottery mania,Professional and Other Places,Recreation Facility,126.72203477232397,37.45145643335589,대한민국,KOR,KOR,인천광역시,남동구,,구월동,,인주대로763번길,49,1275-26,2022-05-01 12:37:48,"쇼핑,편의||오락시설||오락실||오락실-일반",False
135664,135665,26958289,헤라PC방,헤라피씨방 부평점,Hera PC Room,Professional and Other Places,Recreation Facility,126.72577323918291,37.49288201672789,대한민국,KOR,KOR,인천광역시,부평구,,부평동,,경원대로1403번길,33,153-3,2022-08-16 16:52:33,"쇼핑,편의||오락시설||PC방||PC방-일반",False
135717,135718,20203055,뽑기왕,,king of draw,Professional and Other Places,Recreation Facility,126.72404927931196,37.45041559937109,대한민국,KOR,KOR,인천광역시,남동구,,구월동,,호구포로764번길,89,1301-39,2021-12-23 15:49:18,"쇼핑,편의||오락시설||오락실||오락실-일반",False
138234,138235,3125764,쏘울플레이스PC까페,쏘울플레이스피씨까페,Soul Place PC Cafe,Professional and Other Places,Recreation Facility,126.70277099999994,37.50405999999981,대한민국,KOR,KOR,인천광역시,부평구,,산곡동,,마장로,287,182,2021-12-23 15:49:18,"쇼핑,편의||오락시설||PC방||PC방-일반",False
138296,138297,26877576,북항오락실,,North Port Recreation Room,Professional and Other Places,Recreation Facility,126.64516738249596,37.50705175924891,대한민국,KOR,KOR,인천광역시,서구,,원창동,,북항로,30,381-75,2022-05-01 12:37:48,"쇼핑,편의||오락시설||오락실||오락실-일반",False
139241,139242,20203148,인형천국,,doll heaven,Professional and Other Places,Recreation Facility,126.72436418789395,37.4545338185674,대한민국,KOR,KOR,인천광역시,남동구,,만수동,,복개동로,80,912-3,2022-08-24 14:41:06,"쇼핑,편의||오락시설||오락실||오락실-일반",False
139628,139629,27133610,아이센스리그PC 인천심곡점,,Ice Sense League PC Incheon Simgok,Professional and Other Places,Recreation Facility,126.67504879999996,37.54233459999983,대한민국,KOR,KOR,인천광역시,서구,,심곡동,,심곡로49번길,1,253-4,2022-08-16 16:52:33,"쇼핑,편의||오락시설||PC방||프랜차이즈||아이센스리그PC",False
140734,140735,20201915,굿테이스트피씨카페,,good taste PC Cafe,Professional and Other Places,Recreation Facility,126.60060767853192,37.453948344032575,대한민국,KOR,KOR,인천광역시,중구,,항동7가,,연안부두로53번길,2,58-79,2021-12-23 15:49:18,"쇼핑,편의||오락시설||PC방||PC방-일반",False
141575,141576,27211484,헤라 PC방,헤라 피씨방,Hera PC Room,Professional and Other Places,Recreation Facility,126.66884474199291,37.44013615480426,대한민국,KOR,KOR,인천광역시,미추홀구,,학익동,,매소홀로,421,659-7,2022-05-01 12:37:48,"쇼핑,편의||오락시설||PC방||PC방-일반",False
142253,142254,27049485,추억의 만화세상,,cartoon world of memories,Professional and Other Places,Recreation Facility,126.72515509999992,37.4882549999998,대한민국,KOR,KOR,인천광역시,부평구,,부평동,,육동로,31-1,694-3,2022-05-01 12:37:48,"쇼핑,편의||오락시설||만화방||만화방-일반",False
142545,142546,20482897,스미스리그인형뽑기,,Smith League doll draw,Professional and Other Places,Recreation Facility,126.69890499331288,37.44582026093407,대한민국,KOR,KOR,인천광역시,남동구,,구월동,,문화로,75,1372-15,2022-05-01 12:37:48,"쇼핑,편의||오락시설||오락실||오락실-일반",False
143107,143108,6143735,싸이PC방,,Chante PC Room Incheon Dongchun Main Branch,Professional and Other Places,Recreation Facility,126.66588959950288,37.40793870085975,대한민국,KOR,KOR,인천광역시,연수구,,동춘동,,봉재산로44번길,3,1141,2022-06-29 11:25:35,"쇼핑,편의||오락시설||PC방||PC방-일반",False
144718,144719,6207392,퍼스트PC방,퍼스트피씨방,First PC room,Professional and Other Places,Recreation Facility,126.72109307391992,37.45291890278776,대한민국,KOR,KOR,인천광역시,남동구,,구월동,,구월로276번길,61,1268-4,2019-11-14 23:30:01,"쇼핑,편의||오락시설||PC방||PC방-일반",False
145042,145043,4358620,큐브PC,큐브피씨,Cube PC,Professional and Other Places,Recreation Facility,126.74845198877696,37.43878877816168,대한민국,KOR,KOR,인천광역시,남동구,,서창동,,장아산로,134-13,548-3,2019-11-14 23:25:13,"쇼핑,편의||오락시설||PC방||PC방-일반",False
145440,145441,20202355,센스PC방,센스피씨방,Sense PC Room,Professional and Other Places,Recreation Facility,126.6308502034379,37.52530331559902,대한민국,KOR,KOR,인천광역시,서구,,청라동,,푸른로7번길,9,105-57,2021-12-23 15:49:18,"쇼핑,편의||오락시설||PC방||PC방-일반",False
146501,146502,27173048,오셀롯PC 영종하늘신도시점,,Ocelot PC Yeongjong Sky New Town,Professional and Other Places,Recreation Facility,126.5646473940138,37.48849783440196,대한민국,KOR,KOR,인천광역시,중구,,중산동,,하늘별빛로65번길,7-9,1886-3,2022-08-16 16:52:33,"쇼핑,편의||오락시설||PC방||PC방-일반",False
