,OID_,id,name,name_alias,name_eng,category,subcategory,lon,lat,country,country_code,language_code,sd,sgg,sgg_sub,emd,ri,street,number_st,number_jb,update_date,dwnm,result
386,387,27223727,함께하는교회,,church together,Professional and Other Places,Church,126.63751710702584,37.59914936821462,대한민국,KOR,KOR,인천광역시,서구,,오류동,,봉화로,65,1712-5,2022-05-01 12:37:48,"종교,문화||종교||개신교||교회",False
491,492,4324090,기드온교회,,Gideon Church,Professional and Other Places,Church,126.6577362958059,37.454604814340975,대한민국,KOR,KOR,인천광역시,미추홀구,,용현동,,인주대로174번길,31,139-15,2019-12-09 0:00:00,"종교,문화||종교||개신교||교회",False
555,556,1274869,볼음교회,,Voleum Church,Professional and Other Places,Church,126.19801249999946,37.670601299999866,대한민국,KOR,KOR,인천광역시,강화군,,서도면,볼음도리,볼음도길,174-2,285-3,2017-03-07 12:00:00,"종교,문화||종교||개신교||교회",False
912,913,3125049,행복한교회,,happy church,Professional and Other Places,Church,126.65284799999993,37.39585599999977,대한민국,KOR,KOR,인천광역시,연수구,,송도동,,신송로,122,2-6,2021-12-23 15:49:18,"종교,문화||종교||개신교||교회",False
940,941,27215972,세계로교회,,world church,Professional and Other Places,Church,126.67578470436588,37.41809596408925,대한민국,KOR,KOR,인천광역시,연수구,,청학동,,청명로,27-1,495-2,2022-05-01 12:37:48,"종교,문화||종교||개신교||교회",False
1129,1130,914559,택리교회,,Taekni Church,Professional and Other Places,Church,126.50903739999985,37.599998199999845,대한민국,KOR,KOR,인천광역시,강화군,,길상면,선두리,해안남로474번길,22,1058-12,2017-03-07 12:00:00,"종교,문화||종교||개신교||교회",False
1361,1362,27182166,좋은나무교회,,good tree church,Professional and Other Places,Church,126.72926240468588,37.45284866405279,대한민국,KOR,KOR,인천광역시,남동구,,만수동,,구월남로355번길,25,940-18,2022-05-01 12:37:48,"종교,문화||종교||개신교||교회",False
2396,2397,1850850,화동교회,,Hwadong Church,Professional and Other Places,Church,124.68243489774044,37.93467086651391,대한민국,KOR,KOR,인천광역시,옹진군,,백령면,남포리,화동로49번길,13-14,810-2,2019-08-02 23:01:13,"종교,문화||종교||개신교||교회",False
3159,3160,4713555,간석중앙침례교회,,Ganseok Central Baptist Church,Professional and Other Places,Church,126.71605130925089,37.46344327444999,대한민국,KOR,KOR,인천광역시,남동구,,간석동,,백범로310번길,2,910-7,2022-05-01 12:37:48,"종교,문화||종교||개신교||교회",False
3239,3240,5712000,인천제일교회,대한예수교장로회인천제일교회,Incheon Jeil Church,Professional and Other Places,Church,126.73885079999992,37.45452809999978,대한민국,KOR,KOR,인천광역시,남동구,,만수동,,인수북로,9-11,54,2021-12-23 15:49:18,"종교,문화||종교||개신교||교회",False
3626,3627,27135567,주님의사랑교회,,Lord's Love Church,Professional and Other Places,Church,126.65893659711588,37.53340332807091,대한민국,KOR,KOR,인천광역시,서구,,청라동,,청라에메랄드로102번길,8-22,167-10,2022-05-01 12:37:48,"종교,문화||종교||개신교||교회",False
3998,3999,4339475,부평참된교회,,Bupyeong True Church,Professional and Other Places,Church,126.72225665309892,37.5353002051336,대한민국,KOR,KOR,인천광역시,계양구,,작전동,,계양대로129번길,1,852-32,2019-11-14 23:24:43,"종교,문화||종교||개신교||교회",False
4061,4062,678941,인천은혜교회,기독교한국침례회인천은혜교회,Incheon Grace Church,Professional and Other Places,Church,126.69818576508888,37.44906643666387,대한민국,KOR,KOR,인천광역시,남동구,,구월동,,문화서로46번길,34,1349-1,2021-12-23 15:49:18,"종교,문화||종교||개신교||교회",False
4122,4123,3136337,갈보리장로교회,대한예수교장로회갈보리교회,Calvary Presbyterian Church,Professional and Other Places,Church,126.65649079999996,37.42350309999977,대한민국,KOR,KOR,인천광역시,연수구,,옥련동,,청룡로30번길,13,348-92,2022-05-02 21:16:34,"종교,문화||종교||개신교||교회",False
4214,4215,118542,동산교회,,Dongsan Church,Professional and Other Places,Church,126.48319999999984,37.73033499999989,대한민국,KOR,KOR,인천광역시,강화군,,선원면,창리,충렬사로73번길,47-9,525,2018-09-18 15:00:00,"종교,문화||종교||개신교||교회",False
4299,4300,582170,한국장로교회,대한예수교장로회한국장로교회,Korean Presbyterian Church,Professional and Other Places,Church,126.73754026555093,37.50413421360828,대한민국,KOR,KOR,인천광역시,부평구,,부개동,,길주남로,139,496-10,2022-05-01 12:37:48,"종교,문화||종교||개신교||교회",False
4936,4937,27086092,예수안에하나교회,,Hana Church in Jesus,Professional and Other Places,Church,126.6554886381139,37.53968663356932,대한민국,KOR,KOR,인천광역시,서구,,청라동,,청라에메랄드로163번길,9,122-2,2022-05-01 12:37:48,"종교,문화||종교||개신교||교회",False
4942,4943,20028122,인천아름다운교회,아름다운교회,Incheon beautiful church,Professional and Other Places,Church,126.73678150216796,37.49267947549928,대한민국,KOR,KOR,인천광역시,부평구,,부개동,,동수천로,82,125-8,2021-12-23 15:49:18,"종교,문화||종교||개신교||교회",False
4976,4977,5702431,석남감리교회,기독교대한감리회석남교회,Seoknam Methodist Church,Professional and Other Places,Church,126.67400919226488,37.506123025655874,대한민국,KOR,KOR,인천광역시,서구,,석남동,,길주로,108-1,544-35,2022-05-01 12:37:48,"종교,문화||종교||개신교||교회",False
5366,5367,4328531,인천임마누엘교회,임마누엘교회,Incheon Immanuel Church,Professional and Other Places,Church,126.73942410000188,37.53352849999778,대한민국,KOR,KOR,인천광역시,계양구,,작전동,,도두리로,46,912-3,2020-05-27 0:00:00,"종교,문화||종교||개신교||교회",False
5981,5982,120692,화덕감리교회,화덕교회,Hwadeok Methodist Church,Professional and Other Places,Church,126.45885890005464,37.62454430010889,대한민국,KOR,KOR,인천광역시,강화군,,화도면,덕포리,덕포길56번길,45,435-3,2022-05-01 12:37:48,"종교,문화||종교||개신교||교회",False
6470,6471,374823,새영교회,대한예수교장로회새영교회,Saeyoung Church,Professional and Other Places,Church,126.6715450176099,37.541956770409215,대한민국,KOR,KOR,인천광역시,서구,,심곡동,,심곡로8번길,3-33,339-23,2022-05-01 12:37:48,"종교,문화||종교||개신교||교회",False
6623,6624,1252421,행복한교회,,happy church,Professional and Other Places,Church,126.66353449128088,37.44020279067758,대한민국,KOR,KOR,인천광역시,미추홀구,,학익동,,매소홀로,374,689-6,2019-11-14 0:00:00,"종교,문화||종교||개신교||교회",False
6754,6755,2155931,십정중앙순복음교회,기독교대한하나님의성회십정중앙순복음교회,Sipjeong Central Full Gospel Church,Professional and Other Places,Church,126.69838065358188,37.47374911808617,대한민국,KOR,KOR,인천광역시,부평구,,십정동,,배곶북로,5-5,297-6,2019-12-09 10:50:24,"종교,문화||종교||개신교||교회",False
7115,7116,4690079,징검다리교회,,stepping stone church,Professional and Other Places,Church,126.68631246157094,37.61517626756546,대한민국,KOR,KOR,인천광역시,서구,,불로동,,검단로,783-1,778-4,2022-05-01 12:37:48,"종교,문화||종교||개신교||교회",False
7174,7175,1871140,석남침례교회,기독교한국침례회석남교회,Seoknam Baptist Church,Professional and Other Places,Church,126.6775248664659,37.50016739794999,대한민국,KOR,KOR,인천광역시,서구,,석남동,,길주로142번길,65,565-23,2021-12-23 15:49:18,"종교,문화||종교||개신교||교회",False
7586,7587,27286885,만수꽃동산교회,,Mansu Flower Garden Church,Professional and Other Places,Church,126.73779513001996,37.44519989456268,대한민국,KOR,KOR,인천광역시,남동구,,만수동,,장승로,46,1024-1,2022-06-07 17:23:36,"종교,문화||종교||개신교||교회",False
7878,7879,3120733,그리스도의 보혈교회,, Church of the Blood of Christ,Professional and Other Places,Church,126.65520699999996,37.427991999999776,대한민국,KOR,KOR,인천광역시,연수구,,옥련동,,비류대로,184,284-3,2021-12-23 15:49:18,"종교,문화||종교||개신교||교회",False
7971,7972,6223490,다민족비전교회,,multiethnic Vision Church,Professional and Other Places,Church,126.6973850467469,37.44770548260608,대한민국,KOR,KOR,인천광역시,남동구,,구월동,,문화서로28번길,21,1363-8,2021-12-23 15:49:18,"종교,문화||종교||개신교||교회",False
7982,7983,27078279,프라미스교회,,Promise Church,Professional and Other Places,Church,126.6763003749359,37.58467368333582,대한민국,KOR,KOR,인천광역시,서구,,당하동,,서곶로,750-1,1066-1,2022-05-01 12:37:48,"종교,문화||종교||개신교||교회",False
8504,8505,27195412,어진내교회,,Einnae Church,Professional and Other Places,Church,126.72481333265692,37.40222570609856,대한민국,KOR,KOR,인천광역시,남동구,,논현동,,청능대로595번길,17,617-1,2022-08-08 10:29:42,"종교,문화||종교||개신교||교회",False
8700,8701,4331009,새힘장로교회,대한예수교장로회새힘교회,Saehim Presbyterian Church,Professional and Other Places,Church,126.66464383909292,37.407916308203454,대한민국,KOR,KOR,인천광역시,연수구,,동춘동,,봉재산로44번길,25,1139,2020-01-14 23:21:05,"종교,문화||종교||개신교||교회",False
8723,8724,3125581,여의도순복음영종도교회,영종도교회,Yoido Full Gospel Yeongjongdo Church,Professional and Other Places,Church,126.53840865136372,37.48635482901516,대한민국,KOR,KOR,인천광역시,중구,,운남동,,운중로48번길,84,170-106,2020-01-14 23:36:49,"종교,문화||종교||개신교||교회",False
8823,8824,3553250,새일꾼교회,,New Worker Church,Professional and Other Places,Church,126.6740133315519,37.555940439865616,대한민국,KOR,KOR,인천광역시,서구,,검암동,,승학로382번길,6,671-9,2020-01-14 23:43:25,"종교,문화||종교||개신교||교회",False
9374,9375,1271206,부평소망교회,대한예수교장로회부평소망교회,Bupyeong Hope Church,Professional and Other Places,Church,126.70442392689888,37.500729614054514,대한민국,KOR,KOR,인천광역시,부평구,,산곡동,,부흥로111번길,58,254-4,2019-11-14 23:28:28,"종교,문화||종교||개신교||교회",False
9458,9459,3139936,주님의교회,,Lord's Church,Professional and Other Places,Church,126.66923589120891,37.5094599070854,대한민국,KOR,KOR,인천광역시,서구,,석남동,,칠천왕로33번길,22,523-18,2020-01-14 0:00:00,"종교,문화||종교||개신교||교회",False
10342,10343,960156,강화교산교회,교산교회,Ganghwa Gyosan Church,Professional and Other Places,Church,126.39758599999976,37.80242519999992,대한민국,KOR,KOR,인천광역시,강화군,,양사면,교산리,서사길,296,504-2,2022-05-01 12:37:48,"종교,문화||종교||개신교||교회",False
10531,10532,389746,경성교회,,Kyungsung Church,Professional and Other Places,Church,126.72297856921892,37.43037324538248,대한민국,KOR,KOR,인천광역시,남동구,,수산동,,덕골로,117,529-1,2019-11-14 23:19:19,"종교,문화||종교||개신교||교회",False
10586,10587,171147,옥동장로교회,대한예수교장로회옥동교회,Okdong Presbyterian Church,Professional and Other Places,Church,126.64848825173588,37.43386136291296,대한민국,KOR,KOR,인천광역시,연수구,,옥련동,,독배로172번길,43,63-17,2021-12-23 15:49:18,"종교,문화||종교||개신교||교회",False
10650,10651,5720675,인천은혜교회,대한예수교장로회인천은혜교회,Incheon Grace Church,Professional and Other Places,Church,126.74401280300496,37.484619420610585,대한민국,KOR,KOR,인천광역시,부평구,,일신동,,일신로8번길,29,108-18,2019-11-14 23:05:38,"종교,문화||종교||개신교||교회",False
10925,10926,5708715,인천제일교회,대한예수교장로회인천제일교회,Incheon Jeil Church,Professional and Other Places,Church,126.66901182454288,37.475843183124965,대한민국,KOR,KOR,인천광역시,미추홀구,,도화동,,송림로,324,53-73,2022-05-01 12:37:48,"종교,문화||종교||개신교||교회",False
11044,11045,27234853,송도커뮤니티교회,,Songdo Community Church,Professional and Other Places,Church,126.64484639999988,37.39290049999975,대한민국,KOR,KOR,인천광역시,연수구,,송도동,,컨벤시아대로130번길,14,22-19,2022-05-01 12:37:48,"종교,문화||종교||개신교||교회",False
11190,11191,586638,화도감리교회,기독교대한감리회화도교회,Hwado Methodist Church,Professional and Other Places,Church,126.63075409999992,37.48087719999982,대한민국,KOR,KOR,인천광역시,동구,,화수동,,화도안로,12,281-36,2020-01-14 23:42:17,"종교,문화||종교||개신교||교회",False
11336,11337,2599936,인천영광교회,영광교회,Incheon Youngkwang Church,Professional and Other Places,Church,126.6779341083329,37.50447948020671,대한민국,KOR,KOR,인천광역시,서구,,석남동,,서달로67번길,3,554-5,2021-12-23 15:49:18,"종교,문화||종교||개신교||교회",False
11441,11442,2157038,신성교회,,Holy Church,Professional and Other Places,Church,126.69173772213188,37.50725806796719,대한민국,KOR,KOR,인천광역시,부평구,,산곡동,,원적로269번길,55-20,산139-5,2019-12-09 10:50:24,"종교,문화||종교||개신교||교회",False
11668,11669,2148785,강화예수중심교회,예수중심교회,Ganghwa Jesus Centered Church,Professional and Other Places,Church,126.48901839999984,37.72973239999979,대한민국,KOR,KOR,인천광역시,강화군,,선원면,창리,중앙로,154,396-5,2022-05-01 12:37:48,"종교,문화||종교||개신교||교회",False
12435,12436,142321,은석교회,대한예수교장로회은석교회,Eunseok Church,Professional and Other Places,Church,126.69301488592592,37.46119498755007,대한민국,KOR,KOR,인천광역시,미추홀구,,주안동,,경원대로864번길,68,913-2,2019-11-14 23:19:12,"종교,문화||종교||개신교||교회",False
12607,12608,4356865,선일교회,대한예수교장로회선일교회,Sunil Church,Professional and Other Places,Church,126.70612709999996,37.51083059999981,대한민국,KOR,KOR,인천광역시,부평구,,청천동,,세월천로25번길,44,190-75,2022-06-13 10:44:13,"종교,문화||종교||개신교||교회",False
12612,12613,4680510,인천성원교회,,Incheon Sungwon Church,Professional and Other Places,Church,126.64348485126372,37.4546222216128,대한민국,KOR,KOR,인천광역시,미추홀구,,용현동,,낙섬동로,104,649,2020-03-26 14:24:27,"종교,문화||종교||개신교||교회",False
13072,13073,236948,검단중앙교회,대한예수교장로회검단중앙교회,Geomdan Central Church,Professional and Other Places,Church,126.67456679999992,37.596561200000245,대한민국,KOR,KOR,인천광역시,서구,,마전동,,완정로10번길,30,1012-1,2022-08-19 9:48:28,"종교,문화||종교||개신교||교회",False
13074,13075,597720,양도중앙교회,양도교회,Yangyang Central Church,Professional and Other Places,Church,126.4230936999998,37.663328599999865,대한민국,KOR,KOR,인천광역시,강화군,,양도면,하일리,강화남로,722-21,167,2017-03-07 12:00:00,"종교,문화||종교||개신교||교회",False
13102,13103,5712150,하점순복음교회,기독교대한하나님의성회순복음교회,Hajeom Full Gospel Church,Professional and Other Places,Church,126.39592599999976,37.78086399999992,대한민국,KOR,KOR,인천광역시,강화군,,하점면,이강리,강화서로,1011-11,22-2,2021-12-23 15:49:18,"종교,문화||종교||개신교||교회",False
13501,13502,660462,을왕교회,,Eulwang Church,Professional and Other Places,Church,126.39456561352353,37.45354824719077,대한민국,KOR,KOR,인천광역시,중구,,을왕동,,늘목로39번길,11,505-1,2020-01-14 23:39:50,"종교,문화||종교||개신교||교회",False
13576,13577,27208373,땅끝교회,,earth end church,Professional and Other Places,Church,126.69748227740888,37.50452814938091,대한민국,KOR,KOR,인천광역시,부평구,,산곡동,,원적로,282,180-388,2022-05-01 12:37:48,"종교,문화||종교||개신교||교회",False
13929,13930,3134539,생명수교회,,Water of Life Church,Professional and Other Places,Church,126.73925712082796,37.49845888248928,대한민국,KOR,KOR,인천광역시,부평구,,부개동,,부개로,9,500-6,2019-11-14 23:28:28,"종교,문화||종교||개신교||교회",False
13953,13954,1270057,인천교회,인천교회공촌동집회장소,Incheon Church,Professional and Other Places,Church,126.68641250007487,37.55038330093942,대한민국,KOR,KOR,인천광역시,서구,,공촌동,,,,315-2,2022-08-04 10:04:43,"종교,문화||종교||개신교||교회",False
14229,14230,27053233,주님교회,,Lord Church,Professional and Other Places,Church,126.65572845737591,37.46706849509168,대한민국,KOR,KOR,인천광역시,미추홀구,,도화동,,석정로92번길,171,80-119,2022-05-01 12:37:48,"종교,문화||종교||개신교||교회",False
14319,14320,1270848,세광장로교회,대한예수교장로회세광교회,Sekwang Presbyterian Church,Professional and Other Places,Church,126.70435180561688,37.5268342858238,대한민국,KOR,KOR,인천광역시,계양구,,효성동,,마장로543번길,4,511-5,2019-11-14 23:19:12,"종교,문화||종교||개신교||교회",False
14652,14653,1269147,부활생명교회,대한예수교장로회부활생명교회,Resurrection Life Church,Professional and Other Places,Church,126.67945809999988,37.41241109999976,대한민국,KOR,KOR,인천광역시,연수구,,연수동,,샘말로30번길,17,627-7,2022-05-01 12:37:48,"종교,문화||종교||개신교||교회",False
14851,14852,27036982,반석교회,,rock church,Professional and Other Places,Church,126.68852309481396,37.457460881097994,대한민국,KOR,KOR,인천광역시,미추홀구,,주안동,,경인로438번길,8,300-16,2022-05-01 12:37:48,"종교,문화||종교||개신교||교회",False
15134,15135,677870,대한예수교 오순절성회 인천만수교회,,Korea Jesuit Church  Pentecost Crusade  Incheon Bay Church,Professional and Other Places,Church,126.73850354854093,37.465961186747776,대한민국,KOR,KOR,인천광역시,남동구,,만수동,,만부로3번길,8,1-118,2019-11-14 23:27:28,"종교,문화||종교||개신교||교회",False
15271,15272,27183361,로고스교회,,logos church,Professional and Other Places,Church,126.63947699999984,37.39534429999974,대한민국,KOR,KOR,인천광역시,연수구,,송도동,,센트럴로,194,23-4,2022-05-01 12:37:48,"종교,문화||종교||개신교||교회",False
15433,15434,5710718,한동순복음교회,기독교대한하나님의성회한동교회,Handong Full Gospel Church,Professional and Other Places,Church,126.70542308349388,37.5132599868034,대한민국,KOR,KOR,인천광역시,부평구,,청천동,,세월천로,34,180-4,2019-11-14 23:29:27,"종교,문화||종교||개신교||교회",False
15579,15580,27190324,한마음성결교회,,One Heart Holiness Church,Professional and Other Places,Church,126.68075708707688,37.56654155918742,대한민국,KOR,KOR,인천광역시,서구,,검암동,,승학로,551,506-1,2022-05-01 12:37:48,"종교,문화||종교||개신교||교회",False
15593,15594,608494,교동교회,,Gyodong Church,Professional and Other Places,Church,126.31445539999967,37.77726299999991,대한민국,KOR,KOR,인천광역시,강화군,,교동면,상용리,교동남로,432,628-2,2022-08-08 10:29:42,"종교,문화||종교||개신교||교회",False
16174,16175,5723928,청라21세기교회,대한예수교장로회청라21세기교회,Cheongna 21st century church,Professional and Other Places,Church,126.64312122014888,37.5273657941956,대한민국,KOR,KOR,인천광역시,서구,,청라동,,청라커낼로,199,178-7,2021-12-23 15:49:18,"종교,문화||종교||개신교||교회",False
16884,16885,27163170,대한예수교장로회엘림교회,,Korean Presbyterian Church Elim Church,Professional and Other Places,Church,126.69860839999988,37.46291529999978,대한민국,KOR,KOR,인천광역시,남동구,,간석동,,주안로,258,530-1,2022-07-13 13:54:25,"종교,문화||종교||개신교||교회",False
17056,17057,1261637,창대감리교회,기독교대한감리회창대교회,Changdae Methodist Church,Professional and Other Places,Church,126.65382249173793,37.61440990889634,대한민국,KOR,KOR,인천광역시,서구,,마전동,,가현로,6-26,1144-1,2022-06-07 17:23:36,"종교,문화||종교||개신교||교회",False
17292,17293,4317418,더사랑청라교회,,The Sarang Cheongna Church,Professional and Other Places,Church,126.66035421517492,37.53039196122021,대한민국,KOR,KOR,인천광역시,서구,,청라동,,담지로8번길,6,171-19,2022-05-01 12:37:48,"종교,문화||종교||개신교||교회",False
17480,17481,6204272,주님영광교회,,Lord Glory Church,Professional and Other Places,Church,126.70374178811592,37.464834444025975,대한민국,KOR,KOR,인천광역시,남동구,,간석동,,경인로,593-1,270-4,2019-11-14 23:30:27,"종교,문화||종교||개신교||교회",False
17501,17502,3021653,드림교회,기독교대한감리회드림교회,Dream Church,Professional and Other Places,Church,126.72277100662092,37.392720213456535,대한민국,KOR,KOR,인천광역시,남동구,,논현동,,앵고개로,787,738-6,2022-08-12 13:15:03,"종교,문화||종교||개신교||교회",False
18147,18148,5715146,행복한교회,대한예수교장로회행복한교회,happy church,Professional and Other Places,Church,126.68372992970691,37.49447142807398,대한민국,KOR,KOR,인천광역시,서구,,가좌동,,원적로100번길,12-1,30-111,2020-01-14 0:00:00,"종교,문화||종교||개신교||교회",False
18348,18349,27213621,세향교회,,Sehyang Church,Professional and Other Places,Church,126.67741600004793,37.50331834396239,대한민국,KOR,KOR,인천광역시,서구,,석남동,,길주로142번길,32,555-16,2022-05-01 12:37:48,"종교,문화||종교||개신교||교회",False
18993,18994,27189937,주님의숲교회,,Lord's Forest Church,Professional and Other Places,Church,126.68065527219387,37.46800091379908,대한민국,KOR,KOR,인천광역시,미추홀구,,주안동,,길파로28번길,18,15-21,2022-05-01 12:37:48,"종교,문화||종교||개신교||교회",False
19128,19129,3133535,소망교회,예수교대한성결교회소망교회,Hope Church,Professional and Other Places,Church,126.66210641961888,37.60459133832372,대한민국,KOR,KOR,인천광역시,서구,,마전동,,검단로529번길,8,927-5,2022-05-01 12:37:48,"종교,문화||종교||개신교||교회",False
19502,19503,1264293,부흥교회,,Revival Church,Professional and Other Places,Church,126.73214900861792,37.45296915788467,대한민국,KOR,KOR,인천광역시,남동구,,만수동,,하촌로51번길,14-7,973-2,2019-11-14 23:06:52,"종교,문화||종교||개신교||교회",False
19650,19651,1253962,소망교회,,Hope Church,Professional and Other Places,Church,126.333052579707,37.530145987668334,대한민국,KOR,KOR,인천광역시,옹진군,,북도면,장봉리,장봉로541번길,104-27,산144,2020-01-10 11:20:36,"종교,문화||종교||개신교||교회",False
19680,19681,2149903,안디바교회,,Antiba Church,Professional and Other Places,Church,126.47449079999984,37.7485276999999,대한민국,KOR,KOR,인천광역시,강화군,,강화읍,국화리,강화대로511번길,7-1,163-14,2017-03-07 12:00:00,"종교,문화||종교||개신교||교회",False
19758,19759,714814,대한예수교장로회인천제일교회,대한예수교장로회인천제일교회,Presbyterian Church of Korea Incheon Jeil Church,Professional and Other Places,Church,126.62390818057082,37.47397658437268,대한민국,KOR,KOR,인천광역시,중구,,송학동2가,,신포로39번길,54,13-6,2021-12-23 15:49:18,"종교,문화||종교||개신교||교회",False
19949,19950,586501,왕길교회,,Wanggil Church,Professional and Other Places,Church,126.65350405183688,37.58624607197623,대한민국,KOR,KOR,인천광역시,서구,,왕길동,,사월로37번안길,23,75-16,2020-01-14 23:37:47,"종교,문화||종교||개신교||교회",False
19972,19973,5694665,아름교회,대한예수교장로회아름교회,Arum Church,Professional and Other Places,Church,126.69810881192988,37.45329788326958,대한민국,KOR,KOR,인천광역시,남동구,,구월동,,문화서로90번길,23,1096-19,2019-11-14 23:24:43,"종교,문화||종교||개신교||교회",False
19995,19996,27184659,산돌중앙교회,,Sandoll Central Church,Professional and Other Places,Church,126.67030779999986,37.50309349999976,대한민국,KOR,KOR,인천광역시,서구,,석남동,,거북로,78,586,2022-05-01 12:37:48,"종교,문화||종교||개신교||교회",False
20143,20144,27236877,예수사랑교회,,Jesus Love Church,Professional and Other Places,Church,126.72447709999987,37.5411267999998,대한민국,KOR,KOR,인천광역시,계양구,,계산동,,계산시장길,30,954-6,2022-05-01 12:37:48,"종교,문화||종교||개신교||교회",False
20869,20870,2597039,기쁨의교회,대한예수교장로회기쁨의교회,Church of Joy,Professional and Other Places,Church,126.71917522677488,37.52563089417621,대한민국,KOR,KOR,인천광역시,계양구,,효성동,,아나지로,245,200-5,2021-12-23 15:49:18,"종교,문화||종교||개신교||교회",False
21052,21053,899171,인성교회,,Inseong Church,Professional and Other Places,Church,126.65361054270888,37.45452816021236,대한민국,KOR,KOR,인천광역시,미추홀구,,용현동,,비룡길56번길,14-14,450-254,2021-12-23 15:49:18,"종교,문화||종교||개신교||교회",False
21070,21071,23016,충신교회,,Chungshin Church,Professional and Other Places,Church,126.68291894385789,37.46700631076308,대한민국,KOR,KOR,인천광역시,미추홀구,,주안동,,석정로423번길,6,18-21,2022-05-01 12:37:48,"종교,문화||종교||개신교||교회",False
21120,21121,2156483,인천교회,,Incheon Church,Professional and Other Places,Church,126.66593774736388,37.51571472499609,대한민국,KOR,KOR,인천광역시,서구,,신현동,,새오개로54번안길,5-11,157-1,2021-12-23 15:49:18,"종교,문화||종교||개신교||교회",False
21887,21888,5695359,늘사랑교회,기독교대한성결교회늘사랑교회,Always Love Church,Professional and Other Places,Church,126.74479355935192,37.53728385620191,대한민국,KOR,KOR,인천광역시,계양구,,서운동,,살라리로1번길,2,179,2022-08-12 13:15:03,"종교,문화||종교||개신교||교회",False
22111,22112,1039069,신광교회,,Shinkwang Church,Professional and Other Places,Church,126.39910009999976,37.634808299999854,대한민국,KOR,KOR,인천광역시,강화군,,화도면,내리,안골길131번길,29-10,1423,2018-09-18 15:00:00,"종교,문화||종교||개신교||교회",False
22564,22565,27085852,부평세림병원교회,,Bupyeong Serim Hospital Church,Professional and Other Places,Church,126.7199857999999,37.5068719999998,대한민국,KOR,KOR,인천광역시,부평구,,청천동,,부평대로,175,302-31,2022-05-01 12:37:48,"종교,문화||종교||개신교||교회",False
23182,23183,4335416,하늘영광교회,기독교한국침례회하늘영광교회,Sky Glory Church,Professional and Other Places,Church,126.68572049982092,37.49222739956558,대한민국,KOR,KOR,인천광역시,서구,,가좌동,,장고개로,319,30-102,2022-05-01 12:37:48,"종교,문화||종교||개신교||교회",False
23323,23324,6230557,글로벌하모니교회,하모니교회,global Harmony Church,Professional and Other Places,Church,126.6561599515909,37.425916646267055,대한민국,KOR,KOR,인천광역시,연수구,,옥련동,,한나루로,183,336-9,2022-08-18 12:00:50,"종교,문화||종교||개신교||교회",False
23550,23551,27049510,라이프스프링국제교회,,Lifespring International Church,Professional and Other Places,Church,126.6349147204088,37.38808562884304,대한민국,KOR,KOR,인천광역시,연수구,,송도동,,컨벤시아대로230번길,42,98-2,2022-05-01 12:37:48,"종교,문화||종교||개신교||교회",False
24429,24430,1273943,필운교회,,Philwoon Church,Professional and Other Places,Church,126.37589399999975,37.76315709999989,대한민국,KOR,KOR,인천광역시,강화군,,하점면,창후리,창후로,70,261-1,2017-03-07 12:00:00,"종교,문화||종교||개신교||교회",False
24596,24597,468669,신정감리교회,기독교대한감리회신정교회,New Methodist Church,Professional and Other Places,Church,126.50273789930507,37.72491735273204,대한민국,KOR,KOR,인천광역시,강화군,,선원면,신정리,선원사지로110번길,12,485,2019-03-25 18:19:40,"종교,문화||종교||개신교||교회",False
25087,25088,3358386,부흥장로교회,대한예수교장로회부흥교회,Revival Presbyterian Church,Professional and Other Places,Church,126.72776719356192,37.5341423594217,대한민국,KOR,KOR,인천광역시,계양구,,작전동,,주부토로,447,859-4,2019-11-14 23:24:43,"종교,문화||종교||개신교||교회",False
25323,25324,6259535,행복한교회,,happy church,Professional and Other Places,Church,126.73292298832592,37.51732102573931,대한민국,KOR,KOR,인천광역시,부평구,,삼산동,,평천로,384,426-2,2019-11-14 23:29:38,"종교,문화||종교||개신교||교회",False
25432,25433,4352431,푸른소망감리교회,기독교대한감리회푸른소망교회,blue hope Methodist Church,Professional and Other Places,Church,126.66832969999994,37.59737629999985,대한민국,KOR,KOR,인천광역시,서구,,마전동,,완정로64번길,10,1000-2,2022-05-01 12:37:48,"종교,문화||종교||개신교||교회",False
25588,25589,3686954,온누리소망장로교회,대한예수교장로회온누리소망교회,Onnuri Hope Presbyterian Church,Professional and Other Places,Church,126.64344706240387,37.528757053021394,대한민국,KOR,KOR,인천광역시,서구,,청라동,,청라커낼로,229-15,181-2,2021-12-23 15:49:18,"종교,문화||종교||개신교||교회",False
25634,25635,1252453,옥죽포교회,,Okjukpo Church,Professional and Other Places,Church,124.70789999985855,37.84326540000708,대한민국,KOR,KOR,인천광역시,옹진군,,대청면,대청리,대청북로,96,산16-23,2022-05-01 12:37:48,"종교,문화||종교||개신교||교회",False
25714,25715,27047997,길튼교회,,Gilton Church,Professional and Other Places,Church,126.70592819485276,37.452860592703786,대한민국,KOR,KOR,인천광역시,남동구,,구월동,,구월남로,148,1142-20,2022-05-01 12:37:48,"종교,문화||종교||개신교||교회",False
25799,25800,3931525,주는사랑교회,대한예수교장로회주는사랑교회,Giving Love Church,Professional and Other Places,Church,126.71882074039988,37.448010904491674,대한민국,KOR,KOR,인천광역시,남동구,,구월동,,호구포로,736,1289-4,2019-11-14 23:24:09,"종교,문화||종교||개신교||교회",False
25954,25955,1263774,마을안교회,,village church,Professional and Other Places,Church,126.71313749999992,37.44185959999978,대한민국,KOR,KOR,인천광역시,남동구,,구월동,,선수촌로,27,1524,2017-06-21 9:30:30,"종교,문화||종교||개신교||교회",False
26421,26422,5678988,청라주사랑교회,대한예수교장로회주사랑교회,Cheongna Jusarang Church,Professional and Other Places,Church,126.64199949332188,37.5294850884159,대한민국,KOR,KOR,인천광역시,서구,,청라동,,청라루비로42번길,5-17,174-8,2022-07-05 16:31:26,"종교,문화||종교||개신교||교회",False
26616,26617,4341186,새날교회,,Saenal Church,Professional and Other Places,Church,126.65204158306156,37.63132867543087,대한민국,KOR,KOR,인천광역시,서구,,대곡동,,대곡로,405,51-1,2022-05-01 12:37:48,"종교,문화||종교||개신교||교회",False
26777,26778,2600023,쉴만한물가전원교회,쉴만한물가교회,Resting Water Garden Church,Professional and Other Places,Church,126.51976969999984,37.58847429999983,대한민국,KOR,KOR,인천광역시,강화군,,길상면,동검리,동검길65번길,78,107-5,2021-12-23 15:49:18,"종교,문화||종교||개신교||교회",False
26914,26915,5711836,인천렘넌트교회,대한예수교장로회인천렘넌트교회,Incheon Remnant church,Professional and Other Places,Church,126.6763723526179,37.54811093569761,대한민국,KOR,KOR,인천광역시,서구,,연희동,,대평로8번길,10,687-16,2020-01-14 23:39:03,"종교,문화||종교||개신교||교회",False
27339,27340,3130803,부평신일교회,,Bupyeong Shinil Church,Professional and Other Places,Church,126.73900993876356,37.51005035981814,대한민국,KOR,KOR,인천광역시,부평구,,삼산동,,굴포로,158,454-4,2020-06-10 0:00:00,"종교,문화||종교||개신교||교회",False
27420,27421,5168288,영흥제일교회,,Yeongheung First Church,Professional and Other Places,Church,126.49170730693169,37.263855339078575,대한민국,KOR,KOR,인천광역시,옹진군,,영흥면,내리,영흥서로,39-9,173-20,2020-01-14 23:35:37,"종교,문화||종교||개신교||교회",False
27453,27454,3130956,성민교회,대한예수교장로회성민교회,Sungmin Church,Professional and Other Places,Church,126.67081746625388,37.512106393865686,대한민국,KOR,KOR,인천광역시,서구,,석남동,,신석로77번길,24,452-35,2022-06-07 17:23:36,"종교,문화||종교||개신교||교회",False
27532,27533,902866,숭도교회,,Sungdo Church,Professional and Other Places,Church,126.47709349999984,37.78376569999992,대한민국,KOR,KOR,인천광역시,강화군,,송해면,숭뢰리,상도숭뢰길,152,219-1,2022-05-01 12:37:48,"종교,문화||종교||개신교||교회",False
28653,28654,3144048,향기론교회,,Fragrance Theory Church,Professional and Other Places,Church,126.72666836346993,37.53949073514221,대한민국,KOR,KOR,인천광역시,계양구,,계산동,,주부토로501번길,16,963-17,2019-11-14 0:00:00,"종교,문화||종교||개신교||교회",False
28940,28941,482921,강남교회,,Gangnam Church,Professional and Other Places,Church,126.4543139999998,37.611174299999846,대한민국,KOR,KOR,인천광역시,강화군,,화도면,사기리,해안남로1170번길,20,361,2017-03-07 12:00:00,"종교,문화||종교||개신교||교회",False
29275,29276,27184196,주따르는교회,,church that follows,Professional and Other Places,Church,126.72209009999992,37.40151539999977,대한민국,KOR,KOR,인천광역시,남동구,,논현동,,논고개로123번길,35,632-1,2022-05-24 13:48:55,"종교,문화||종교||개신교||교회",False
29812,29813,20770198,엘할람교회,,El Hallam Church,Professional and Other Places,Church,126.72565611143192,37.45886367003386,대한민국,KOR,KOR,인천광역시,남동구,,만수동,,구월말로,110,896-13,2022-08-18 12:00:50,"종교,문화||종교||개신교||교회",False
30402,30403,27121535,담트고길닦는교회,,A church that cleans the way,Professional and Other Places,Church,126.73816101360632,37.48647622685437,대한민국,KOR,KOR,인천광역시,부평구,,부개동,,경인로,1066,265-3,2022-06-13 10:44:13,"종교,문화||종교||개신교||교회",False
30453,30454,1117008,백마장침례교회,백마장교회,Baengmajang Baptist Church,Professional and Other Places,Church,126.70566477127392,37.510804517539995,대한민국,KOR,KOR,인천광역시,부평구,,청천동,,마장로364번길,29-8,190-74,2019-11-14 23:29:13,"종교,문화||종교||개신교||교회",False
31226,31227,5697228,양원교회,대한예수교장로회양원교회,Yangwon Church,Professional and Other Places,Church,126.6904275991439,37.443567000342966,대한민국,KOR,KOR,인천광역시,미추홀구,,관교동,,경원대로,685,510,2022-05-01 12:37:48,"종교,문화||종교||개신교||교회",False
31428,31429,1039897,두운성결교회,기독교대한성결교회두운교회,Dowoon Holiness Church,Professional and Other Places,Church,126.48755709999968,37.68243719999962,대한민국,KOR,KOR,인천광역시,강화군,,불은면,두운리,불은남로544번길,10,555-2,2021-12-23 15:49:18,"종교,문화||종교||개신교||교회",False
31890,31891,661020,서창중앙교회,,Seochang Central Church,Professional and Other Places,Church,126.75217048702596,37.43752916878877,대한민국,KOR,KOR,인천광역시,남동구,,서창동,,운연로,10,228-3,2019-11-14 23:19:55,"종교,문화||종교||개신교||교회",False
32176,32177,1269875,필그림선교교회,,Pilgrim  Mission Church,Professional and Other Places,Church,126.73452597117796,37.516196827756495,대한민국,KOR,KOR,인천광역시,부평구,,삼산동,,충선로311번길,11-18,430-5,2022-05-01 12:37:48,"종교,문화||종교||개신교||교회",False
32279,32280,1261285,참예수교회,,True Jesus Church,Professional and Other Places,Church,126.73774480736692,37.45118102731539,대한민국,KOR,KOR,인천광역시,남동구,,만수동,,백범로73번길,15,423-10,2021-12-23 15:49:18,"종교,문화||종교||개신교||교회",False
32410,32411,27209283,하늘빛교회,,sky light church,Professional and Other Places,Church,126.71849242286592,37.45062750047957,대한민국,KOR,KOR,인천광역시,남동구,,구월동,,호구포로,765,1235,2022-05-01 12:37:48,"종교,문화||종교||개신교||교회",False
32651,32652,4456011,선대교회,대한예수교장로회선대교회,Pre-Church,Professional and Other Places,Church,126.71344629999996,37.525213999999806,대한민국,KOR,KOR,인천광역시,계양구,,효성동,,아나지로,194,301-1,2022-05-01 12:37:48,"종교,문화||종교||개신교||교회",False
33371,33372,1064557,강화임마누엘농아인교회,임마누엘농아인교회,Ganghwa Immanuel Deaf Church,Professional and Other Places,Church,126.48548539999985,37.7375515999999,대한민국,KOR,KOR,인천광역시,강화군,,강화읍,남산리,충렬사로22번길,7,327,2021-12-23 15:49:18,"종교,문화||종교||개신교||교회",False
34110,34111,4343776,안산영광교회,,Ansan Youngkwang Church,Professional and Other Places,Church,126.48024129999985,37.74882339999991,대한민국,KOR,KOR,인천광역시,강화군,,강화읍,관청리,송악길,9,903-1,2017-03-07 12:00:00,"종교,문화||종교||개신교||교회",False
34111,34112,126806,북성교회,,Bukseong Church,Professional and Other Places,Church,126.4198533999998,37.816210799999936,대한민국,KOR,KOR,인천광역시,강화군,,양사면,북성리,전망대로1071번길,4-1,393,2014-08-19 0:00:00,"종교,문화||종교||개신교||교회",False
34474,34475,27235456,가나교회,,Ghana Church,Professional and Other Places,Church,126.67728902420812,37.406410914596286,대한민국,KOR,KOR,인천광역시,연수구,,동춘동,,원인재로,88,925-7,2022-05-01 12:37:48,"종교,문화||종교||개신교||교회",False
34925,34926,3117616,송도주예수교회,기독교대한감리회송도주예수교회,Songdoju jesus church,Professional and Other Places,Church,126.64108839999996,37.39410409999977,대한민국,KOR,KOR,인천광역시,연수구,,송도동,,센트럴로,194,23-4,2022-05-01 12:37:48,"종교,문화||종교||개신교||교회",False
35482,35483,2152317,이작교회,,Isak Church,Professional and Other Places,Church,126.25481762470812,37.177056947475066,대한민국,KOR,KOR,인천광역시,옹진군,,자월면,이작리,대이작로,84-9,528,2020-01-14 23:35:37,"종교,문화||종교||개신교||교회",False
35640,35641,2607287,인천가톨릭시각장애인선교회,가톨릭시각장애인선교회,Incheon Catholic Mission for the Blind,Professional and Other Places,Church,126.63860593398684,37.46264343212408,대한민국,KOR,KOR,인천광역시,중구,,신흥동3가,,제물량로24번길,19-18,30-14,2021-12-23 15:49:18,"종교,문화||종교||개신교||교회",False
35698,35699,27180486,용현동교회,,Yonghyeon-dong Church,Professional and Other Places,Church,126.64387884338485,37.45668961638727,대한민국,KOR,KOR,인천광역시,미추홀구,,용현동,,용마루로,64,518-4,2022-07-13 13:54:25,"종교,문화||종교||개신교||교회",False
35924,35925,3145424,깊은샘교회,대한예수교장로회복된교회,Deep Saem Church,Professional and Other Places,Church,126.7293999998599,37.53530000093791,대한민국,KOR,KOR,인천광역시,계양구,,작전동,,주부토로460번길,11,41-1,2021-12-23 15:49:18,"종교,문화||종교||개신교||교회",False
36428,36429,3139215,새바람교회,,Saebam Church,Professional and Other Places,Church,126.72522842724194,37.429706778244665,대한민국,KOR,KOR,인천광역시,남동구,,수산동,,덕골로,142,548,2022-08-08 10:29:42,"종교,문화||종교||개신교||교회",False
36488,36489,27115733,송림제자교회,,Songlim Disciples Church,Professional and Other Places,Church,126.65096949899588,37.482677248682776,대한민국,KOR,KOR,인천광역시,동구,,송림동,,송미로,50,8-547,2022-05-01 12:37:48,"종교,문화||종교||개신교||교회",False
36526,36527,5713017,주영광교회,대한예수교장로회주영광교회,Jooyoungkwang Church,Professional and Other Places,Church,126.64941504748985,37.453011987480274,대한민국,KOR,KOR,인천광역시,미추홀구,,용현동,,독배로376번길,17-6,208-1,2022-07-19 20:20:05,"종교,문화||종교||개신교||교회",False
36839,36840,3133286,영문교회,대한예수교장로회영문교회,English Church,Professional and Other Places,Church,126.72558526311592,37.50199576089789,대한민국,KOR,KOR,인천광역시,부평구,,부평동,,주부토로,80,375-52,2021-12-23 15:49:18,"종교,문화||종교||개신교||교회",False
37297,37298,883038,인천제일장로교회,대한예수교장로회인천제일교회,Incheon First Presbyterian Church,Professional and Other Places,Church,126.75312376539992,37.557033800054725,대한민국,KOR,KOR,인천광역시,계양구,,동양동,,동양로,74-33,387-6,2019-11-14 23:28:20,"종교,문화||종교||개신교||교회",False
37343,37344,27160983,드림교회,예수교대한성결교회드림교회,Dream Church,Professional and Other Places,Church,126.70099689999996,37.4732671999998,대한민국,KOR,KOR,인천광역시,부평구,,십정동,,열우물로50번길,15,397-15,2022-05-01 12:37:48,"종교,문화||종교||개신교||교회",False
37934,37935,27212743,풍성한감리교회,,Abundant Methodist Church,Professional and Other Places,Church,126.68144509990192,37.415237401254245,대한민국,KOR,KOR,인천광역시,연수구,,연수동,,샘말로,102,617,2022-05-01 12:37:48,"종교,문화||종교||개신교||교회",False
37935,37936,3135833,평화교회,,Peace Church,Professional and Other Places,Church,126.7288201714939,37.45067865774087,대한민국,KOR,KOR,인천광역시,남동구,,만수동,,복개동로34번길,42,934-10,2019-12-09 0:00:00,"종교,문화||종교||개신교||교회",False
39046,39047,2149963,신흥교회,,Shinheung Church,Professional and Other Places,Church,126.48762819999985,37.71074499999989,대한민국,KOR,KOR,인천광역시,강화군,,선원면,금월리,연동로322번길,27,268-1,2017-03-07 12:00:00,"종교,문화||종교||개신교||교회",False
39160,39161,120680,삼성교회,,Samsung Church,Professional and Other Places,Church,126.45402499999985,37.71166799999968,대한민국,KOR,KOR,인천광역시,강화군,,불은면,삼성리,중앙로,549,368-2,2021-12-23 15:49:18,"종교,문화||종교||개신교||교회",False
39239,39240,5704462,반석교회,대한예수교장로회연희동반석교회,rock church,Professional and Other Places,Church,126.67734927755087,37.54980470481599,대한민국,KOR,KOR,인천광역시,서구,,연희동,,서곶로,362,710-3,2021-12-23 15:49:18,"종교,문화||종교||개신교||교회",False
39415,39416,27115782,베데스다교회,,Bethesda Church,Professional and Other Places,Church,126.6463561999998,37.37917939999973,대한민국,KOR,KOR,인천광역시,연수구,,송도동,,인천타워대로54번길,13,9-18,2022-08-26 9:52:19,"종교,문화||종교||개신교||교회",False
39476,39477,5663716,하늘기쁨교회,,Heavenly Joy Church,Professional and Other Places,Church,126.56642651807378,37.49687908256088,대한민국,KOR,KOR,인천광역시,중구,,중산동,,월촌길,52,1904-7,2020-06-15 0:00:00,"종교,문화||종교||개신교||교회",False
39700,39701,2154259,참사랑제일교회,,True Sarang First Church,Professional and Other Places,Church,126.65384999999992,37.441041699999786,대한민국,KOR,KOR,인천광역시,미추홀구,,학익동,,노적산로40번길,16-18,573-3,2021-12-23 15:49:18,"종교,문화||종교||개신교||교회",False
41081,41082,4345191,주영광교회,,Jooyoungkwang Church,Professional and Other Places,Church,126.66602409999992,37.51024349999981,대한민국,KOR,KOR,인천광역시,서구,,석남동,,신석로,35,209,2017-03-07 0:00:00,"종교,문화||종교||개신교||교회",False
41165,41166,988373,해병대강화교회,강화교회,Marine Corps  Ganghwa Church,Professional and Other Places,Church,126.4672982271756,37.748478461537744,대한민국,KOR,KOR,인천광역시,강화군,,강화읍,국화리,국화길,60-1,141-13,2022-05-01 12:37:48,"종교,문화||종교||개신교||교회",False
41665,41666,165,온수감리교회,기독교대한감리회온수교회,Onsu Methodist Church,Professional and Other Places,Church,126.4892438999997,37.6384788999996,대한민국,KOR,KOR,인천광역시,강화군,,길상면,온수리,온수길,51-13,521-18,2018-12-04 17:21:37,"종교,문화||종교||개신교||교회",False
41714,41715,27285232,하현교회,대한예수교장로회하현교회,Hahyeon Church,Professional and Other Places,Church,126.66476258090792,37.5296899267176,대한민국,KOR,KOR,인천광역시,서구,,가정동,,청중로,480,607-1,2022-06-13 10:44:13,"종교,문화||종교||개신교||교회",False
41740,41741,27234192,소명교회,,Somyung Church,Professional and Other Places,Church,126.6728457220549,37.41545453284775,대한민국,KOR,KOR,인천광역시,연수구,,동춘동,,동곡재로,16,1113-2,2022-05-01 12:37:48,"종교,문화||종교||개신교||교회",False
42016,42017,56457,양갑교회,,Yanggap Church,Professional and Other Places,Church,126.25333869999956,37.77465059999991,대한민국,KOR,KOR,인천광역시,강화군,,교동면,양갑리,교동서로,244,341,2018-09-18 15:00:00,"종교,문화||종교||개신교||교회",False
42662,42663,1252824,장촌교회,장촌성당,Jangchon Church,Professional and Other Places,Church,124.67388749996692,37.9294595999992,대한민국,KOR,KOR,인천광역시,옹진군,,백령면,남포리,백령남로,721,1166-3,2017-06-21 9:30:30,"종교,문화||종교||개신교||교회",False
42824,42825,945033,산화감리교회,기독교대한감리회산화교회,Oxide Methodist Church,Professional and Other Places,Church,126.38366379999847,37.74258439999949,대한민국,KOR,KOR,인천광역시,강화군,,하점면,망월리,강화서로533번길,24-12,364,2021-12-23 15:49:18,"종교,문화||종교||개신교||교회",False
42927,42928,1271658,청운교회,대한예수교장로회청운교회,Cheongwoon Church,Professional and Other Places,Church,126.72206229190792,37.53897019461311,대한민국,KOR,KOR,인천광역시,계양구,,계산동,,계양대로163번길,4,973-17,2019-11-14 23:29:41,"종교,문화||종교||개신교||교회",False
42950,42951,5686840,서광교회,,Seogwang Church,Professional and Other Places,Church,126.73613429678996,37.49943028184549,대한민국,KOR,KOR,인천광역시,부평구,,부개동,,충선로,114,65-7,2021-12-23 15:49:18,"종교,문화||종교||개신교||교회",False
43218,43219,27258056,예수이룸교회,,Jesuit Church,Professional and Other Places,Church,126.74320099999998,37.55357939999983,대한민국,KOR,KOR,인천광역시,계양구,,방축동,,장제로977번길,11,2,2022-05-01 12:37:48,"종교,문화||종교||개신교||교회",False
43356,43357,2156108,은혜와진리교회부평성전,,Grace and Truth Church Bupyeong Sanctuary,Professional and Other Places,Church,126.71945461684288,37.523293821234205,대한민국,KOR,KOR,인천광역시,부평구,,청천동,,부평북로,237,438,2019-12-09 10:50:24,"종교,문화||종교||개신교||교회",False
43494,43495,27401972,귤현교회,,Gyulhyeon Church,Professional and Other Places,Church,126.74813489173992,37.56691848574823,대한민국,KOR,KOR,인천광역시,계양구,,귤현동,,양지로,145,501,2022-08-02 16:47:12,"종교,문화||종교||개신교||교회",False
43561,43562,2152822,예수생명교회,예수생명교회,Jesus Life Church,Professional and Other Places,Church,126.72942791179064,37.53098871417183,대한민국,KOR,KOR,인천광역시,계양구,,작전동,,봉오대로721번길,4-8,224-1,2022-05-01 12:37:48,"종교,문화||종교||개신교||교회",False
43588,43589,27062435,백송교회,,Baeksong Church,Professional and Other Places,Church,126.75251898181244,37.43288130775432,대한민국,KOR,KOR,인천광역시,남동구,,서창동,,장아산로205번길,16,575-2,2022-05-01 12:37:48,"종교,문화||종교||개신교||교회",False
43682,43683,3115509,푸른동산교회,대한예수교장로회푸른동산교회,Blue Garden Church,Professional and Other Places,Church,126.68137930674187,37.45104099424007,대한민국,KOR,KOR,인천광역시,미추홀구,,주안동,,인주대로,404,1468-24,2022-08-18 12:00:50,"종교,문화||종교||개신교||교회",False
43702,43703,2615879,동인천순복음교회,기독교대한하나님의성회동인천교회,Dongincheon Full Gospel Church,Professional and Other Places,Church,126.63056342711285,37.47289010248687,대한민국,KOR,KOR,인천광역시,중구,,용동,,우현로62번길,23-25,219,2022-05-01 12:37:48,"종교,문화||종교||개신교||교회",False
43822,43823,1252785,기쁨의교회,대한예수교장로회기쁨의교회,Church of Joy,Professional and Other Places,Church,126.6575057699939,37.46025666458897,대한민국,KOR,KOR,인천광역시,미추홀구,,숭의동,,수봉로70번길,22,19-91,2022-05-01 12:37:48,"종교,문화||종교||개신교||교회",False
43901,43902,6211047,다윗교회,기독교대한감리회다윗교회,David's Church,Professional and Other Places,Church,126.51526387223576,37.51205949515175,대한민국,KOR,KOR,인천광역시,중구,,운북동,,백운로,432-3,438-1,2021-12-23 15:49:18,"종교,문화||종교||개신교||교회",False
44366,44367,27235862,영창교회,,Youngchang Church,Professional and Other Places,Church,126.73049356755013,37.44877379999805,대한민국,KOR,KOR,인천광역시,남동구,,만수동,,인주대로,837-1,982-7,2022-05-01 12:37:48,"종교,문화||종교||개신교||교회",False
44373,44374,27048050,주님의교회,대한예수교장로회주님의교회,Lord's Church,Professional and Other Places,Church,126.63847902092785,37.45247191988416,대한민국,KOR,KOR,인천광역시,미추홀구,,용현동,,토금중로47번길,1,611-40,2022-05-01 12:37:48,"종교,문화||종교||개신교||교회",False
44500,44501,2149979,벽전교회,,Byeokjeon Church,Professional and Other Places,Church,126.68468889999995,37.559249999999835,대한민국,KOR,KOR,인천광역시,서구,,공촌동,,서곶로450번길,68,산20-6,2018-10-25 11:00:00,"종교,문화||종교||개신교||교회",False
44626,44627,918308,옥토감리교회,기독교대한감리회옥토교회,Okto Methodist Church,Professional and Other Places,Church,126.67583887916592,37.510350886363,대한민국,KOR,KOR,인천광역시,서구,,석남동,,가남로,319,484-1,2022-08-18 12:00:50,"종교,문화||종교||개신교||교회",False
45074,45075,27183364,물댄동산교회,,Muldandongsan Church,Professional and Other Places,Church,126.65123719999988,37.39911409999975,대한민국,KOR,KOR,인천광역시,연수구,,송도동,,컨벤시아대로42번길,12,15-11,2022-05-01 12:37:48,"종교,문화||종교||개신교||교회",False
45169,45170,2598404,장미원교회,,Rose Garden Church,Professional and Other Places,Church,126.73808629999992,37.456552499999766,대한민국,KOR,KOR,인천광역시,남동구,,만수동,,인수로32번길,13-18,402-5,2022-05-01 12:37:48,"종교,문화||종교||개신교||교회",False
45335,45336,27135968,하늘꿈교회,,Sky Dream Church,Professional and Other Places,Church,126.71939729999993,37.49223809999978,대한민국,KOR,KOR,인천광역시,부평구,,부평동,,부평문화로,18,341-177,2022-05-01 12:37:48,"종교,문화||종교||개신교||교회",False
45396,45397,27453837,평안교회,,Pyeongan Church,Professional and Other Places,Church,126.65994869497794,37.612088666813435,대한민국,KOR,KOR,인천광역시,서구,,마전동,,가현로,62,1152-5,2022-08-12 13:15:03,"종교,문화||종교||개신교||교회",False
45780,45781,1269665,청농교회,,Cheongnong Church,Professional and Other Places,Church,126.6890588005739,37.51816498122759,대한민국,KOR,KOR,인천광역시,부평구,,청천동,,청농로,46,70-10,2019-12-09 10:50:24,"종교,문화||종교||개신교||교회",False
46022,46023,1871292,행복으로가는교회,대한예수교장로회행복으로가는교회,Church that goes to happiness,Professional and Other Places,Church,126.70064192474388,37.45952903189816,대한민국,KOR,KOR,인천광역시,남동구,,간석동,,문화로,227,497-3,2019-11-14 23:05:38,"종교,문화||종교||개신교||교회",False
46378,46379,27455532,미추홀교회,,Michuhol Church,Professional and Other Places,Church,126.67344220194732,37.4515082763628,대한민국,KOR,KOR,인천광역시,미추홀구,,주안동,,인주대로,332,1422,2022-08-16 16:52:33,"종교,문화||종교||개신교||교회",False
46908,46909,2149174,샘튼교회,,sampton church,Professional and Other Places,Church,126.67329929809289,37.494608188517375,대한민국,KOR,KOR,인천광역시,서구,,가좌동,,가정로112번길,13,144-17,2021-12-23 15:49:18,"종교,문화||종교||개신교||교회",False
47106,47107,335582,선재장로교회,대한예수교장로회선재교회,Seonjae Presbyterian Church,Professional and Other Places,Church,126.53578750008472,37.23581789970006,대한민국,KOR,KOR,인천광역시,옹진군,,영흥면,선재리,선재로34번안길,65,41-1,2022-05-01 12:37:48,"종교,문화||종교||개신교||교회",False
47583,47584,4337687,주의빛교회,주의빛교회,light church,Professional and Other Places,Church,126.72538265837694,37.543669247037336,대한민국,KOR,KOR,인천광역시,계양구,,계산동,,경명대로,1065,929-6,2019-11-14 23:28:28,"종교,문화||종교||개신교||교회",False
47671,47672,2150280,시온성교회,,Zion Holy Church,Professional and Other Places,Church,126.7050773457979,37.49398699694229,대한민국,KOR,KOR,인천광역시,부평구,,산곡동,,화랑남로5번길,32-11,312-26,2019-12-09 10:50:24,"종교,문화||종교||개신교||교회",False
47700,47701,3130421,검단비전교회,대한예수교장로회검단비전교회,Geomdan Vision Church,Professional and Other Places,Church,126.6558824824259,37.60534239586492,대한민국,KOR,KOR,인천광역시,서구,,마전동,,완정로188번2길,12,899-2,2022-05-01 12:37:48,"종교,문화||종교||개신교||교회",False
47902,47903,924512,벌말교회,,Beolmal Church,Professional and Other Places,Church,126.77855176769394,37.57933919698013,대한민국,KOR,KOR,인천광역시,계양구,,상야동,,벌말로,569,141-3,2022-05-01 12:37:48,"종교,문화||종교||개신교||교회",False
47928,47929,511671,영은교회,,Youngeun Church,Professional and Other Places,Church,126.47832409999984,37.68748939999986,대한민국,KOR,KOR,인천광역시,강화군,,불은면,두운리,강화동로590번길,8,198,2022-05-01 12:37:48,"종교,문화||종교||개신교||교회",False
48513,48514,142050,등대장로교회,대한예수교장로회등대교회,Lighthouse Presbyterian Church,Professional and Other Places,Church,126.74440618398496,37.5486369201313,대한민국,KOR,KOR,인천광역시,계양구,,병방동,,장제로946번길,23,84-2,2022-05-01 12:37:48,"종교,문화||종교||개신교||교회",False
48941,48942,3440728,주안교회,대한예수교장로회주안교회,Juan Church,Professional and Other Places,Church,126.69453170279589,37.45971629923358,대한민국,KOR,KOR,인천광역시,미추홀구,,주안동,,경인로,494,1593-40,2019-11-14 23:19:30,"종교,문화||종교||개신교||교회",False
49195,49196,3128843,온마음교회,대한예수교장로회생명샘교회,Onmaeum Church,Professional and Other Places,Church,126.67138199999997,37.418237999999775,대한민국,KOR,KOR,인천광역시,연수구,,청학동,,함박뫼로,8,475-7,2018-08-16 9:30:30,"종교,문화||종교||개신교||교회",False
49318,49319,838342,광명교회,대한예수교장로회광명교회,Gwangmyeong Church,Professional and Other Places,Church,126.67678610062192,37.50859521906627,대한민국,KOR,KOR,인천광역시,서구,,석남동,,가석로,268-1,490-4,2022-05-01 12:37:48,"종교,문화||종교||개신교||교회",False
49432,49433,183614,참좋은교회,,very good church,Professional and Other Places,Church,126.63293843007084,37.48262319189706,대한민국,KOR,KOR,인천광역시,동구,,화수동,,화도안로,64,275-12,2022-05-01 12:37:48,"종교,문화||종교||개신교||교회",False
50143,50144,27246446,예수제자교회,,Jesus Disciples Church,Professional and Other Places,Church,126.64214179999988,37.42505559999976,대한민국,KOR,KOR,인천광역시,연수구,,옥련동,,능허대로79번길,30,626,2022-05-01 12:37:48,"종교,문화||종교||개신교||교회",False
50237,50238,636377,연평교회,,Yeonpyeong Church,Professional and Other Places,Church,125.69973959999705,37.66198569999982,대한민국,KOR,KOR,인천광역시,옹진군,,연평면,연평리,연평로137번길,47-8,485,2018-09-18 15:00:00,"종교,문화||종교||개신교||교회",False
50600,50601,2611203,성락교회,,Sungnak Church,Professional and Other Places,Church,126.73430806767291,37.44604051145976,대한민국,KOR,KOR,인천광역시,남동구,,만수동,,장승로,14,1078-10,2019-11-14 23:28:27,"종교,문화||종교||개신교||교회",False
51008,51009,967727,인천금곡교회,금곡교회,Incheon Geumgok Church,Professional and Other Places,Church,126.64381294318888,37.47461997085267,대한민국,KOR,KOR,인천광역시,동구,,송림동,,송림로82번길,24,57-34,2020-01-14 23:42:12,"종교,문화||종교||개신교||교회",False
51013,51014,3132416,천성교회,,Cheonseong Church,Professional and Other Places,Church,126.53447195713976,37.509488563574955,대한민국,KOR,KOR,인천광역시,중구,,운북동,,논골2길,49-4,15-128,2021-12-23 15:49:18,"종교,문화||종교||개신교||교회",False
51978,51979,450607,복된교회,,Blessed Church,Professional and Other Places,Church,126.75077120166796,37.43418488996328,대한민국,KOR,KOR,인천광역시,남동구,,서창동,,독곡로,65,567-5,2019-11-14 23:19:12,"종교,문화||종교||개신교||교회",False
52056,52057,27208000,기쁨의교회,,Church of Joy,Professional and Other Places,Church,126.72501577162392,37.53189861658532,대한민국,KOR,KOR,인천광역시,계양구,,작전동,,작전시장로22번길,8,862-9,2022-05-01 12:37:48,"종교,문화||종교||개신교||교회",False
52272,52273,21998,하늘기쁨교회,대한예수교장로회하늘기쁨교회,Heavenly Joy Church,Professional and Other Places,Church,126.69491729999996,37.424199999999765,대한민국,KOR,KOR,인천광역시,연수구,,선학동,,비류대로541번길,20,365,2018-11-27 19:32:05,"종교,문화||종교||개신교||교회",False
52380,52381,2157358,삼산교회,,Samsan Church,Professional and Other Places,Church,126.31226029999968,37.70466919999989,대한민국,KOR,KOR,인천광역시,강화군,,삼산면,석모리,삼산서로,65-39,산186-4,2017-03-07 12:00:00,"종교,문화||종교||개신교||교회",False
52415,52416,3895252,늘빛교회,,Neulbit Church,Professional and Other Places,Church,126.43164749999978,37.63239409999985,대한민국,KOR,KOR,인천광역시,강화군,,화도면,문산리,마니산로,581-11,551,2017-03-07 12:00:00,"종교,문화||종교||개신교||교회",False
52428,52429,3126633,시온교회,,Zion Church,Professional and Other Places,Church,126.6713546397419,37.493978383768656,대한민국,KOR,KOR,인천광역시,서구,,가좌동,,가정로,103,146-33,2020-01-14 23:40:55,"종교,문화||종교||개신교||교회",False
52549,52550,6230467,주님의교회,대한예수교장로회주님의교회,Lord's Church,Professional and Other Places,Church,126.50442867919472,37.74098177537453,대한민국,KOR,KOR,인천광역시,강화군,,강화읍,갑곳리,강화대로,234-10,478,2020-04-10 23:00:09,"종교,문화||종교||개신교||교회",False
52821,52822,4360174,복있는교회,대한예수교장로회복있는교회,Blessed Church,Professional and Other Places,Church,126.6603438185609,37.53107826155589,대한민국,KOR,KOR,인천광역시,서구,,청라동,,담지로8번길,7-13,169-6,2020-01-14 23:22:24,"종교,문화||종교||개신교||교회",False
53206,53207,2152207,울도교회,,Uldo Church,Professional and Other Places,Church,125.9966358118746,37.02572685181378,대한민국,KOR,KOR,인천광역시,옹진군,,덕적면,울도리,울도로182번길,8-1,산42-1,2022-05-01 12:37:48,"종교,문화||종교||개신교||교회",False
53471,53472,20761221,중앙교회,,Central Church,Professional and Other Places,Church,126.72464741028192,37.48734466508707,대한민국,KOR,KOR,인천광역시,부평구,,부평동,,경인로,946,658,2022-05-18 1:20:07,"종교,문화||종교||개신교||교회",False
53619,53620,27173414,사랑과행복교회,,Love and Happiness Church,Professional and Other Places,Church,126.71330289999992,37.463347999999776,대한민국,KOR,KOR,인천광역시,남동구,,간석동,,남동대로916번길,92,129-31,2022-05-01 12:37:48,"종교,문화||종교||개신교||교회",False
53841,53842,27183915,세계로교회,대한예수교장로회세계로교회,world church,Professional and Other Places,Church,126.68444208586789,37.4965441252106,대한민국,KOR,KOR,인천광역시,서구,,가좌동,,원적로,120,75-1,2022-05-01 12:37:48,"종교,문화||종교||개신교||교회",False
54183,54184,1256502,실로암교회,,Siloam Church,Professional and Other Places,Church,124.68782431869096,37.81123715950315,대한민국,KOR,KOR,인천광역시,옹진군,,대청면,대청리,대청남로,482,1326,2020-06-15 0:00:00,"종교,문화||종교||개신교||교회",False
54193,54194,706751,감리회남산교회,,Methodist Church Namsan Church,Professional and Other Places,Church,126.47912339999968,37.73354099999962,대한민국,KOR,KOR,인천광역시,강화군,,강화읍,남산리,화성길,35,436-8,2021-12-23 15:49:18,"종교,문화||종교||개신교||교회",False
54645,54646,726183,건평교회,,Geonpyeong Church,Professional and Other Places,Church,126.40245289999976,37.68103539999987,대한민국,KOR,KOR,인천광역시,강화군,,양도면,건평리,건평로173번길,33,341-2,2018-09-18 15:00:00,"종교,문화||종교||개신교||교회",False
55171,55172,2603484,재활원교회,,Rehabilitation Church,Professional and Other Places,Church,126.37120974750341,37.534535437878894,대한민국,KOR,KOR,인천광역시,옹진군,,북도면,장봉리,장봉로26번길,218,105-1,2020-01-14 23:36:46,"종교,문화||종교||개신교||교회",False
55266,55267,5362761,청천감리교회,,Cheongcheon Methodist Church,Professional and Other Places,Church,126.70617831485691,37.517747022018526,대한민국,KOR,KOR,인천광역시,부평구,,청천동,,평천로142번길,49,5-15,2021-12-23 15:49:18,"종교,문화||종교||개신교||교회",False
55391,55392,5700841,주님교회,대한예수교장로회주님교회,Lord Church,Professional and Other Places,Church,126.69781541229388,37.45607800007636,대한민국,KOR,KOR,인천광역시,남동구,,간석동,,구월로8번길,122,508-139,2022-05-01 12:37:48,"종교,문화||종교||개신교||교회",False
55479,55480,5706557,인천예향교회,대한예수교장로회인천예향교회,Incheon Yehyang Church,Professional and Other Places,Church,126.73487882882495,37.5224427568885,대한민국,KOR,KOR,인천광역시,부평구,,삼산동,,부평북로,374,382-22,2022-05-01 12:37:48,"종교,문화||종교||개신교||교회",False
56366,56367,3128846,사랑샘교회,대한예수교장로회사랑샘교회,Sarangsaem Church,Professional and Other Places,Church,126.6688676717859,37.42164543569715,대한민국,KOR,KOR,인천광역시,연수구,,청학동,,용담로,11,451,2021-12-23 15:49:18,"종교,문화||종교||개신교||교회",False
56427,56428,1751682,세계로향하는교회,,Religion Siseol Yongji,Professional and Other Places,Church,126.5030922983777,37.48204435545264,대한민국,KOR,KOR,인천광역시,중구,,운남동,,하늘누리로,33,1598-5,2022-08-02 16:47:12,"종교,문화||종교||개신교||교회",False
56450,56451,3135156,인천주님의교회,주님의교회,Incheon Church of the Lord,Professional and Other Places,Church,126.72466052475868,37.50178492128458,대한민국,KOR,KOR,인천광역시,부평구,,부평동,,부흥북로23번길,7,433-42,2022-05-01 12:37:48,"종교,문화||종교||개신교||교회",False
56638,56639,3583988,충헌순복음교회,기독교대한하나님의성회충헌교회,Chungheon Full Gospel Church,Professional and Other Places,Church,126.73351229999996,37.409703699999774,대한민국,KOR,KOR,인천광역시,남동구,,논현동,,은봉로,401,598-9,2022-05-01 12:37:48,"종교,문화||종교||개신교||교회",False
57145,57146,4348267,사랑교회,기독교대한감리회사랑교회,Sarang Church,Professional and Other Places,Church,126.7059311360439,37.46952570250446,대한민국,KOR,KOR,인천광역시,부평구,,십정동,,경인로667번길,36,484-22,2019-11-14 0:00:00,"종교,문화||종교||개신교||교회",False
57812,57813,3131964,선한교회,대한예수교장로회선한교회,good church,Professional and Other Places,Church,126.7033742074349,37.5094099297465,대한민국,KOR,KOR,인천광역시,부평구,,산곡동,,마장로,351,10-10,2019-11-14 0:00:00,"종교,문화||종교||개신교||교회",False
58107,58108,1017339,온누리교회,,Onnuri Church,Professional and Other Places,Church,126.66709206859689,37.41751314014296,대한민국,KOR,KOR,인천광역시,연수구,,청학동,,청능말로14번길,21,459,2021-12-23 15:49:18,"종교,문화||종교||개신교||교회",False
58230,58231,230087,소망순복음교회,기독교대한하나님의성회소망순복음교회,hope Full Gospel Church,Professional and Other Places,Church,126.50548919999984,37.7456224999999,대한민국,KOR,KOR,인천광역시,강화군,,강화읍,용정리,갑룡길,123,524-1,2018-09-18 15:00:00,"종교,문화||종교||개신교||교회",False
58365,58366,27105395,복음안에새교회,,New Church in the Gospel,Professional and Other Places,Church,126.67551799999994,37.507693999999816,대한민국,KOR,KOR,인천광역시,서구,,석남동,,가남로291번길,6,496-18,2022-05-01 12:37:48,"종교,문화||종교||개신교||교회",False
58531,58532,27096767,순복음기쁨의교회,,Full Gospel Joy Church,Professional and Other Places,Church,126.72228159999992,37.538079699999805,대한민국,KOR,KOR,인천광역시,계양구,,계산동,,계양대로,159,969-17,2022-05-01 12:37:48,"종교,문화||종교||개신교||교회",False
58640,58641,4362000,예수안교회, ,jesusan church,Professional and Other Places,Church,126.75246500035392,37.41966040016317,대한민국,KOR,KOR,인천광역시,남동구,,서창동,,서창남로,2-1,717,2018-12-03 20:39:11,"종교,문화||종교||개신교||교회",False
59154,59155,4351833,만나선교회,,Manna Mission Church,Professional and Other Places,Church,126.73408703902793,37.54459363335771,대한민국,KOR,KOR,인천광역시,계양구,,임학동,,임학서로6번길,6-1,63-3,2022-08-16 16:52:33,"종교,문화||종교||개신교||교회",False
59699,59700,272350,덕포성결교회,덕포교회,Deokpo Holiness Church,Professional and Other Places,Church,126.45091769999983,37.62689879999984,대한민국,KOR,KOR,인천광역시,강화군,,화도면,덕포리,신촌길27번길,13-15,585,2018-09-18 15:00:00,"종교,문화||종교||개신교||교회",False
59867,59868,373844,이레장로교회,대한예수교장로회이레교회,Ire Presbyterian Church,Professional and Other Places,Church,126.68133029999996,37.42171219999978,대한민국,KOR,KOR,인천광역시,연수구,,연수동,,함박뫼로,128,541,2018-09-18 15:00:00,"종교,문화||종교||개신교||교회",False
59966,59967,829271,강화초대감리교회,기독교대한감리회강화초대교회,Ganghwa Early Methodist Church,Professional and Other Places,Church,126.4840615999997,37.65379209999959,대한민국,KOR,KOR,인천광역시,강화군,,길상면,길직리,장촌길,128,783,2021-12-23 15:49:18,"종교,문화||종교||개신교||교회",False
59978,59979,4679118,주안사랑교회,,Juan Sarang Church,Professional and Other Places,Church,126.67293388336589,37.447323319530256,대한민국,KOR,KOR,인천광역시,미추홀구,,주안동,,신기길16번길,63-6,850-43,2019-11-14 23:22:22,"종교,문화||종교||개신교||교회",False
60112,60113,3262720,청라은혜교회,대한예수교장로회청라은혜교회,Cheongna Grace Church,Professional and Other Places,Church,126.65352068520392,37.52953719198831,대한민국,KOR,KOR,인천광역시,서구,,청라동,,청라라임로,24,186-2,2022-05-01 12:37:48,"종교,문화||종교||개신교||교회",False
60301,60302,2153518,아차도교회,,Achado Church,Professional and Other Places,Church,126.2264477999995,37.66049849999985,대한민국,KOR,KOR,인천광역시,강화군,,서도면,아차도리,아차도길,100,44,2022-05-01 12:37:48,"종교,문화||종교||개신교||교회",False
60396,60397,2156180,새아침교회,,new morning church,Professional and Other Places,Church,126.74582139470392,37.51992974537341,대한민국,KOR,KOR,인천광역시,부평구,,삼산동,,,,118-56,2022-05-01 12:37:48,"종교,문화||종교||개신교||교회",False
60407,60408,761984,은혜와진리교회,,Grace and Truth Church,Professional and Other Places,Church,126.70783949473596,37.445995028196485,대한민국,KOR,KOR,인천광역시,남동구,,구월동,,남동대로712번길,9,1184,2022-05-01 12:37:48,"종교,문화||종교||개신교||교회",False
61412,61413,112879,성락서인천교회,성락교회,Seongnak Seo Incheon church,Professional and Other Places,Church,126.6643928949979,37.5140641148261,대한민국,KOR,KOR,인천광역시,서구,,석남동,,율도로,23,199-181,2020-01-14 23:38:47,"종교,문화||종교||개신교||교회",False
61502,61503,2153608,한사람교회,,one person church,Professional and Other Places,Church,124.72182759937444,37.97293419950265,대한민국,KOR,KOR,인천광역시,옹진군,,백령면,진촌리,,,808,2022-08-04 10:04:43,"종교,문화||종교||개신교||교회",False
61861,61862,4340041,빛의교회,,church of light,Professional and Other Places,Church,126.71646319946788,37.40075920018536,대한민국,KOR,KOR,인천광역시,남동구,,논현동,,,,641-2,2022-08-04 10:04:43,"종교,문화||종교||개신교||교회",False
61998,61999,741949,인천교회,,Incheon Church,Professional and Other Places,Church,126.65626490879788,37.41308643850765,대한민국,KOR,KOR,인천광역시,연수구,,동춘동,,앵고개로,97,814-2,2021-12-23 15:49:18,"종교,문화||종교||개신교||교회",False
62897,62898,630881,무지개장로교회,무지개교회,rainbow Presbyterian Church,Professional and Other Places,Church,126.67651017175288,37.43876085573277,대한민국,KOR,KOR,인천광역시,미추홀구,,학익동,,매소홀로488번길,13,667-1,2019-11-14 23:11:36,"종교,문화||종교||개신교||교회",False
62999,63000,1870295,하늘의빛된교회,하늘빛된교회,Heaven's Lighted Church,Professional and Other Places,Church,126.41211879999977,37.76069749999991,대한민국,KOR,KOR,인천광역시,강화군,,하점면,삼거리,고려산로,298-19,540-3,2021-12-23 15:49:18,"종교,문화||종교||개신교||교회",False
63445,63446,27193180,행복한우리교회,기독교대한성결교회행복한우리교회,happy church,Professional and Other Places,Church,126.7269967000039,37.487608599998886,대한민국,KOR,KOR,인천광역시,부평구,,부평동,,경인로,965,606-17,2022-05-01 12:37:48,"종교,문화||종교||개신교||교회",False
63666,63667,27401048,영광장로교회,대한예수교장로회 영광교회,Yeonggwang Presbyterian Church,Professional and Other Places,Church,126.73208209999984,37.40340989999976,대한민국,KOR,KOR,인천광역시,남동구,,논현동,,앵고개로941번길,39-36,658-1,2022-09-06 15:18:26,"종교,문화||종교||개신교||교회",False
65117,65118,965366,사랑의장로교회,대한예수교장로회사랑의교회,Presbyterian Church of Love,Professional and Other Places,Church,126.75529286101995,37.44996547225519,대한민국,KOR,KOR,인천광역시,남동구,,장수동,,장자로46번길,15-12,790-18,2019-11-14 23:28:06,"종교,문화||종교||개신교||교회",False
65175,65176,177411,인천순복음 행복한교회,,Incheon Full Gospel happy church,Professional and Other Places,Church,126.73706098815993,37.5185992407294,대한민국,KOR,KOR,인천광역시,부평구,,삼산동,,후정동로,11-13,198,2019-11-14 23:28:46,"종교,문화||종교||개신교||교회",False
65343,65344,1267721,영복교회,,Youngbok Church,Professional and Other Places,Church,126.6578014371309,37.62970593346532,대한민국,KOR,KOR,인천광역시,서구,,대곡동,,대곡로368번길,22-5,153-1,2020-01-14 23:42:28,"종교,문화||종교||개신교||교회",False
65577,65578,5024657,동산성결교회,기독교대한성결교회동산교회,Dongsan Holiness Church,Professional and Other Places,Church,126.66766869961091,37.47101990066227,대한민국,KOR,KOR,인천광역시,미추홀구,,도화동,,장고개로36번길,7,119-3,2022-05-01 12:37:48,"종교,문화||종교||개신교||교회",False
66141,66142,3127879,풍성한교회,기독교대한하나님의성회풍성한순복음교회,rich church,Professional and Other Places,Church,126.67328246159587,37.493506886387685,대한민국,KOR,KOR,인천광역시,서구,,가좌동,,건지로284번길,62-1,145-121,2020-01-14 0:00:00,"종교,문화||종교||개신교||교회",False
66293,66294,4335275,예수제자교회,,Jesus Disciples Church,Professional and Other Places,Church,126.66338639999996,37.429906799999785,대한민국,KOR,KOR,인천광역시,연수구,,청학동,,청학로,29,520-23,2017-03-07 12:00:00,"종교,문화||종교||개신교||교회",False
66368,66369,2149780,성산교회,,Seongsan Church,Professional and Other Places,Church,126.48894689999986,37.750879099999885,대한민국,KOR,KOR,인천광역시,강화군,,강화읍,관청리,새말길15번길,16,40-2,2017-03-07 12:00:00,"종교,문화||종교||개신교||교회",False
66726,66727,27182589,아름다운교회,,beautiful church,Professional and Other Places,Church,126.73431457148592,37.50448819131268,대한민국,KOR,KOR,인천광역시,부평구,,부개동,,길주남로113번길,11-3,486-2,2022-05-01 12:37:48,"종교,문화||종교||개신교||교회",False
66743,66744,5654168,성은감리교회,기독교대한감리회성은교회,Seongseong Methodist Church,Professional and Other Places,Church,126.71816743705192,37.452167216325606,대한민국,KOR,KOR,인천광역시,남동구,,구월동,,구월남로,258,1239-6,2022-05-01 12:37:48,"종교,문화||종교||개신교||교회",False
66959,66960,27185145,하늘도시교회,,Sky City Church,Professional and Other Places,Church,126.737277743027,37.4971260792546,대한민국,KOR,KOR,인천광역시,부평구,,부개동,,동수천로,132,502-9,2022-05-01 12:37:48,"종교,문화||종교||개신교||교회",False
67040,67041,1272937,강화월곶교회,월곶교회,Ganghwa Wolgot Church,Professional and Other Places,Church,126.50631299999988,37.77580279999992,대한민국,KOR,KOR,인천광역시,강화군,,강화읍,월곳리,연미정길36번길,64-12,135-2,2018-10-25 11:00:00,"종교,문화||종교||개신교||교회",False
67055,67056,3127213,흰 돌교회,대한예수교장로회흰돌교회,white stone church,Professional and Other Places,Church,126.66903265390188,37.501113023304086,대한민국,KOR,KOR,인천광역시,서구,,석남동,,석남로,67,588-25,2022-08-24 14:41:06,"종교,문화||종교||개신교||교회",False
67961,67962,20200492,우리동네작은교회,,Our neighborhood small church,Professional and Other Places,Church,126.69432160360596,37.456241675523195,대한민국,KOR,KOR,인천광역시,미추홀구,,주안동,,문화로169번길,114,1581-13,2021-12-23 15:49:18,"종교,문화||종교||개신교||교회",False
68131,68132,1029458,금성교회,,Goldstar Church,Professional and Other Places,Church,126.47226769999985,37.78392599999992,대한민국,KOR,KOR,인천광역시,강화군,,송해면,상도리,상도숭뢰길115번길,21,112,2021-12-23 15:49:18,"종교,문화||종교||개신교||교회",False
68171,68172,606674,인화교회,,Inhwa Church,Professional and Other Places,Church,126.36760259999974,37.78919899999992,대한민국,KOR,KOR,인천광역시,강화군,,양사면,인화리,인화로,308,776-7,2018-09-18 15:00:00,"종교,문화||종교||개신교||교회",False
68471,68472,598139,동산교회,,Dongsan Church,Professional and Other Places,Church,126.23803679999952,37.7628454999999,대한민국,KOR,KOR,인천광역시,강화군,,교동면,동산리,교동서로,466,278-5,2018-09-18 15:00:00,"종교,문화||종교||개신교||교회",False
69101,69102,3642812,찬양교회,대한예수교장로회찬양교회,Praise Church,Professional and Other Places,Church,126.67196909647087,37.49777090314268,대한민국,KOR,KOR,인천광역시,서구,,가좌동,,가정로,146-1,114-1,2020-01-14 0:00:00,"종교,문화||종교||개신교||교회",False
69317,69318,1871653,백송교회 제2성전,기독교대한성결교회백송교회,Baeksong Church,Professional and Other Places,Church,126.75305459723792,37.43096828327896,대한민국,KOR,KOR,인천광역시,남동구,,서창동,,장아산로231번길,20,583-2,2022-08-30 9:43:30,"종교,문화||종교||개신교||교회",False
69429,69430,27183227,더교회,,The Church,Professional and Other Places,Church,126.66214444507187,37.38212422997564,대한민국,KOR,KOR,인천광역시,연수구,,송도동,,송도과학로,32,172-1,2022-05-01 12:37:48,"종교,문화||종교||개신교||교회",False
69876,69877,1850350,연지교회,,Yeonji Church,Professional and Other Places,Church,124.64210000033216,37.946976300073935,대한민국,KOR,KOR,인천광역시,옹진군,,백령면,연화리,,,903,2022-05-01 12:37:48,"종교,문화||종교||개신교||교회",False
70021,70022,5678757,초대교회,기독교대한하나님의성회초대순복음교회,early church,Professional and Other Places,Church,126.63234754027488,37.5250105785367,대한민국,KOR,KOR,인천광역시,서구,,청라동,,옥빛로15번길,9,105-108,2022-05-01 12:37:48,"종교,문화||종교||개신교||교회",False
70693,70694,27102189,제이성암교회,대한예수교장로회제이성암교회,J Seongam Church,Professional and Other Places,Church,126.67332024670088,37.5203471086967,대한민국,KOR,KOR,인천광역시,서구,,가정동,,가정로,398,494-1,2022-08-08 10:29:42,"종교,문화||종교||개신교||교회",False
71284,71285,731281,옥림교회,,Okrim Church,Professional and Other Places,Church,126.49907419999984,37.756499199999915,대한민국,KOR,KOR,인천광역시,강화군,,강화읍,옥림리,동문로,165-2,524-2,2021-12-23 15:49:18,"종교,문화||종교||개신교||교회",False
71330,71331,6215813,새노래사랑교회,,New Song Love Church,Professional and Other Places,Church,126.66948358371792,37.46944922662919,대한민국,KOR,KOR,인천광역시,미추홀구,,도화동,,장고개로36번길,53,119-22,2022-09-06 15:18:26,"종교,문화||종교||개신교||교회",False
71490,71491,1265936,인천서구교회,,Incheon Seo-gu Church,Professional and Other Places,Church,126.67114479601588,37.54122221587961,대한민국,KOR,KOR,인천광역시,서구,,심곡동,,승학로197번길,20-6,342-10,2021-12-23 15:49:18,"종교,문화||종교||개신교||교회",False
71646,71647,5039200,광림서교회,,Gwanglim Seo Church,Professional and Other Places,Church,126.62743353858886,37.5230719310433,대한민국,KOR,KOR,인천광역시,서구,,청라동,,청라사파이어로,96,105-152,2022-07-19 20:20:05,"종교,문화||종교||개신교||교회",False
72120,72121,212861,부성교회,대한예수교장로회부성교회,Father Church,Professional and Other Places,Church,126.74662896553556,37.52007690916108,대한민국,KOR,KOR,인천광역시,부평구,,삼산동,,영성동로,35,392-3,2022-05-01 12:37:48,"종교,문화||종교||개신교||교회",False
72408,72409,5684544,갈보리교회,,Calvary Church,Professional and Other Places,Church,126.66508591322588,37.52863009890581,대한민국,KOR,KOR,인천광역시,서구,,가정동,,청중로478번길,18,605-7,2020-01-14 23:23:42,"종교,문화||종교||개신교||교회",False
72564,72565,3139178,주안에교회,대한예수교장로회주안에교회,Church in Juan,Professional and Other Places,Church,126.7109599137449,37.46113251988138,대한민국,KOR,KOR,인천광역시,남동구,,간석동,,석촌로6번길,31,154-5,2019-11-14 23:05:38,"종교,문화||종교||개신교||교회",False
73290,73291,4448806,예수한사랑교회,,Jesus Hansarang Church,Professional and Other Places,Church,126.65568797293489,37.42566464969997,대한민국,KOR,KOR,인천광역시,연수구,,옥련동,,옥련로,147,340-2,2020-01-14 23:23:42,"종교,문화||종교||개신교||교회",False
73297,73298,1252056,중화동교회,,Junghwa-dong Church,Professional and Other Places,Church,124.65134809996545,37.92813259999917,대한민국,KOR,KOR,인천광역시,옹진군,,백령면,연화리,중화길,230-7,355-1,2018-09-18 15:00:00,"종교,문화||종교||개신교||교회",False
73437,73438,1266074,열매교회,,Fruit Church,Professional and Other Places,Church,126.70875269626188,37.479670024567575,대한민국,KOR,KOR,인천광역시,부평구,,십정동,,마장로25번길,37,573-16,2019-11-14 23:19:12,"종교,문화||종교||개신교||교회",False
74018,74019,725138,신현순복음교회,기독교대한하나님의성회신현순복음교회,Shinhyeonsun Gospel Church,Professional and Other Places,Church,126.50870919999988,37.65382329999987,대한민국,KOR,KOR,인천광역시,강화군,,불은면,신현리,덕진로,189-1,600,2018-09-18 15:00:00,"종교,문화||종교||개신교||교회",False
74662,74663,6301405,예손교회,,Yeson Church,Professional and Other Places,Church,126.73452456983892,37.44675299816527,대한민국,KOR,KOR,인천광역시,남동구,,만수동,,인주대로888번길,42-8,1076-14,2021-12-23 15:49:18,"종교,문화||종교||개신교||교회",False
74963,74964,27148639,우리사랑교회,,Our Love Church,Professional and Other Places,Church,126.75726225909592,37.55906077924533,대한민국,KOR,KOR,인천광역시,계양구,,동양동,,동양로,111,640,2022-05-01 12:37:48,"종교,문화||종교||개신교||교회",False
75154,75155,4327401,마을안교회,대한예수교장로회마을안교회,village church,Professional and Other Places,Church,126.71385968433796,37.442684615152395,대한민국,KOR,KOR,인천광역시,남동구,,구월동,,인하로,604,1525,2022-05-01 12:37:48,"종교,문화||종교||개신교||교회",False
75248,75249,27097398,로뎀나무교회,,Rodem Tree Church,Professional and Other Places,Church,126.6731815999999,37.458701799999766,대한민국,KOR,KOR,인천광역시,미추홀구,,도화동,,제일로,26,458-12,2022-05-01 12:37:48,"종교,문화||종교||개신교||교회",False
75637,75638,448743,새빛성결교회,기독교대한성결교회새빛교회,Saebit Holiness Church,Professional and Other Places,Church,126.72607678615591,37.5082511883978,대한민국,KOR,KOR,인천광역시,부평구,,갈산동,,주부토로,146,391,2019-11-14 23:28:28,"종교,문화||종교||개신교||교회",False
77319,77320,1063282,단비장로교회,대한예수교장로회단비교회,Danbi Presbyterian Church,Professional and Other Places,Church,126.71524997736392,37.534063489836186,대한민국,KOR,KOR,인천광역시,계양구,,효성동,,길마로,85,21-48,2022-05-01 12:37:48,"종교,문화||종교||개신교||교회",False
77351,77352,1870215,도우리교회,,Douri Church,Professional and Other Places,Church,126.7395155999997,37.519337999999685,대한민국,KOR,KOR,인천광역시,부평구,,삼산동,,대보로24번길,5,77-3,2022-08-08 10:29:42,"종교,문화||종교||개신교||교회",False
77362,77363,27390130,묵상교회,,Meditation Church,Professional and Other Places,Church,126.42215399999776,37.606842999948846,대한민국,KOR,KOR,인천광역시,강화군,,화도면,흥왕리,해안남로,1870-4,438,2022-07-19 20:20:05,"종교,문화||종교||개신교||교회",False
77654,77655,27245656,하늘샘교회,,sky spring church,Professional and Other Places,Church,126.70736159999989,37.462953999999776,대한민국,KOR,KOR,인천광역시,남동구,,간석동,,석산로141번길,55,308-12,2022-05-01 12:37:48,"종교,문화||종교||개신교||교회",False
78029,78030,551001,진축교회,,Jinchuk Church,Professional and Other Places,Church,126.33165870640435,37.545204076974166,대한민국,KOR,KOR,인천광역시,옹진군,,북도면,장봉리,장봉로701번길,30,880,2020-01-14 23:36:46,"종교,문화||종교||개신교||교회",False
78200,78201,27156123,반석교회,,rock church,Professional and Other Places,Church,126.69379608405787,37.44274221199908,대한민국,KOR,KOR,인천광역시,미추홀구,,관교동,,경원대로658번길,21-4,491-7,2022-05-01 12:37:48,"종교,문화||종교||개신교||교회",False
78926,78927,27362445,은혜로성결교회,,Holiness Church by Grace,Professional and Other Places,Church,126.65427974525988,37.47728551466148,대한민국,KOR,KOR,인천광역시,미추홀구,,도화동,,송림로,181-2,24-64,2022-06-29 11:25:35,"종교,문화||종교||개신교||교회",False
79099,79100,334576,비전교회,비젼교회,Vision Church,Professional and Other Places,Church,126.73416884253592,37.48486567229599,대한민국,KOR,KOR,인천광역시,부평구,,부개동,,동수로,140,250-5,2022-05-01 12:37:48,"종교,문화||종교||개신교||교회",False
79214,79215,6507965,꿈을이룬교회,,Church of Dreams,Professional and Other Places,Church,124.64324619895828,37.951655099616026,대한민국,KOR,KOR,인천광역시,옹진군,,백령면,연화리,,,529,2022-08-04 10:04:43,"종교,문화||종교||개신교||교회",False
79456,79457,4336906,넘치는교회,기독교대한감리회넘치는교회,overflowing church,Professional and Other Places,Church,126.67860226572535,37.4118185712046,대한민국,KOR,KOR,인천광역시,연수구,,연수동,,샘말로8번길,13-3,629-6,2022-05-01 12:37:48,"종교,문화||종교||개신교||교회",False
80563,80564,1253575,진촌교회,,Jinchon Church,Professional and Other Places,Church,124.71545000000468,37.97380129951577,대한민국,KOR,KOR,인천광역시,옹진군,,백령면,진촌리,백령로316번길,25-12,1068-6,2022-05-01 12:37:48,"종교,문화||종교||개신교||교회",False
80612,80613,4887677,인천세계로교회,기독교대한감리회인천세계로교회,Incheon World Road Church,Professional and Other Places,Church,126.63069629999993,37.47379879999979,대한민국,KOR,KOR,인천광역시,중구,,인현동,,우현로72번길,3-15,73-2,2022-06-07 17:23:36,"종교,문화||종교||개신교||교회",False
80689,80690,27088417,송도좋은교회,,Songdo Good Church,Professional and Other Places,Church,126.6536905519449,37.378038035715136,대한민국,KOR,KOR,인천광역시,연수구,,송도동,,송도문화로28번길,28,190-2,2022-05-01 12:37:48,"종교,문화||종교||개신교||교회",False
80951,80952,2156489,인천하나교회,하나교회,Incheon Hana Church,Professional and Other Places,Church,126.67283963001807,37.5219346940083,대한민국,KOR,KOR,인천광역시,서구,,신현동,,가정로,415-19,259-19,2022-05-01 12:37:48,"종교,문화||종교||개신교||교회",False
81082,81083,2152022,기독교대한감리회신광교회,,Christian Methodist Church Shinkwang,Professional and Other Places,Church,126.4344703061706,37.52491020883272,대한민국,KOR,KOR,인천광역시,옹진군,,북도면,신도리,신도로184번길,34-3,927-3,2020-01-14 23:36:46,"종교,문화||종교||개신교||교회",False
81621,81622,4324018,예닮교회,대한예수교장로회예닮교회,Yesam Church,Professional and Other Places,Church,126.72191647992393,37.459971632783294,대한민국,KOR,KOR,인천광역시,남동구,,만수동,,백범로247번길,11,904-19,2021-12-23 15:49:18,"종교,문화||종교||개신교||교회",False
81829,81830,4338384,인천교회,,Incheon Church,Professional and Other Places,Church,126.70913409999996,37.50597649999981,대한민국,KOR,KOR,인천광역시,부평구,,산곡동,,안남로,260,124-1,2017-03-07 12:00:00,"종교,문화||종교||개신교||교회",False
81927,81928,360606,그레이스힐링장로교회,대한예수교장로회그레이스힐링교회,Grace Healing Presbyterian Church,Professional and Other Places,Church,126.73604372540896,37.5280508752677,대한민국,KOR,KOR,인천광역시,계양구,,작전동,,효서로,357,919-4,2022-05-01 12:37:48,"종교,문화||종교||개신교||교회",False
81945,81946,2154077,은총교회,,Grace Church,Professional and Other Places,Church,126.65357551016189,37.45317950099925,대한민국,KOR,KOR,인천광역시,미추홀구,,용현동,,경인북길,115-34,424-3,2021-12-23 15:49:18,"종교,문화||종교||개신교||교회",False
82436,82437,2152441,황산교회,,Hwangsan Church,Professional and Other Places,Church,126.5414909999999,37.61986099999984,대한민국,KOR,KOR,인천광역시,강화군,,길상면,초지리,해안남로65번길,91,1333-1,2021-12-23 15:49:18,"종교,문화||종교||개신교||교회",False
82496,82497,98059,큰기쁨교회,큰기쁨교회,Great Joy Church,Professional and Other Places,Church,126.68750498807287,37.46567889956447,대한민국,KOR,KOR,인천광역시,미추홀구,,주안동,,석정로,468-1,20-2,2022-05-01 12:37:48,"종교,문화||종교||개신교||교회",False
82738,82739,27207315,주향교회,,Juhyang Church,Professional and Other Places,Church,126.67695730387288,37.5565991376148,대한민국,KOR,KOR,인천광역시,서구,,검암동,,도요지로,240,666-2,2022-05-01 12:37:48,"종교,문화||종교||개신교||교회",False
83701,83702,1257019,예수영광교회,,Jesus Glory Church,Professional and Other Places,Church,126.68767499999994,37.41429039999978,대한민국,KOR,KOR,인천광역시,연수구,,연수동,,원인재로,212,582-2,2018-09-18 0:00:00,"종교,문화||종교||개신교||교회",False
84084,84085,2156461,화성교회,,Hwaseong Church,Professional and Other Places,Church,126.66514745133288,37.5164426908994,대한민국,KOR,KOR,인천광역시,서구,,신현동,,새오개로,71-3,173-48,2021-12-23 15:49:18,"종교,문화||종교||개신교||교회",False
84217,84218,3964388,기쁜소식부천교회,대한예수장로회기쁜소식부천교회,good news Bucheon Church,Professional and Other Places,Church,126.75877184957297,37.51656482972292,대한민국,KOR,KOR,인천광역시,부평구,,삼산동,,송내대로373번길,28,325-28,2022-05-01 12:37:48,"종교,문화||종교||개신교||교회",False
84339,84340,202782,계암감리교회,기독교대한감리회계암교회,Gyeam Methodist Church,Professional and Other Places,Church,126.74306275149392,37.55637691538932,대한민국,KOR,KOR,인천광역시,계양구,,박촌동,,박촌로,58,70-10,2019-11-14 23:24:34,"종교,문화||종교||개신교||교회",False
85392,85393,3764082,검단소망교회,,Geomdan Hope Church,Professional and Other Places,Church,126.70102499513588,37.59788526619042,대한민국,KOR,KOR,인천광역시,서구,,원당동,,고산로40번1길,16,838-9,2021-12-23 15:49:18,"종교,문화||종교||개신교||교회",False
85411,85412,27115365,인천포도원교회,,Incheon Vineyard Church,Professional and Other Places,Church,126.68397515272989,37.46708159476897,대한민국,KOR,KOR,인천광역시,미추홀구,,주안동,,석정로433번길,11,18-138,2022-05-01 12:37:48,"종교,문화||종교||개신교||교회",False
85586,85587,3554398,솔빛제일교회,대한예수교장로회솔빛제일교회,Solbit First Church,Professional and Other Places,Church,126.63805202682484,37.48104941256028,대한민국,KOR,KOR,인천광역시,동구,,송현동,,송현로59번길,6,168,2021-12-23 15:49:18,"종교,문화||종교||개신교||교회",False
85640,85641,2152208,구원교회,,Salvation Church,Professional and Other Places,Church,126.10398886000839,37.171651732971256,대한민국,KOR,KOR,인천광역시,옹진군,,덕적면,문갑리,문갑1길,70-4,263,2020-01-14 23:36:46,"종교,문화||종교||개신교||교회",False
85658,85659,1257242,내동교회,,Naedong Church,Professional and Other Places,Church,124.69888160888743,37.83452535223592,대한민국,KOR,KOR,인천광역시,옹진군,,대청면,대청리,대청북로85번길,246,604,2019-08-02 23:01:13,"종교,문화||종교||개신교||교회",False
86012,86013,6209487,빛과소금교회,,Light and Salt Church,Professional and Other Places,Church,126.51296780376273,37.52402869205194,대한민국,KOR,KOR,인천광역시,중구,,운북동,,자연대로,632-25,360-21,2020-01-14 23:36:41,"종교,문화||종교||개신교||교회",False
86067,86068,3137847,주님품교회,,Lord's Church,Professional and Other Places,Church,126.72441087264592,37.45111018284995,대한민국,KOR,KOR,인천광역시,남동구,,구월동,,구월말로,23,1301-7,2021-12-23 15:49:18,"종교,문화||종교||개신교||교회",False
86450,86451,3130711,주안중앙교회,,Juan Central Church,Professional and Other Places,Church,126.67630700666388,37.41489240559535,대한민국,KOR,KOR,인천광역시,연수구,,청학동,,먼우금로,197,503-1,2020-01-14 23:38:08,"종교,문화||종교||개신교||교회",False
86532,86533,2149766,강화서문교회,,Ganghwa Seomun Church,Professional and Other Places,Church,126.47745139999984,37.74951289999991,대한민국,KOR,KOR,인천광역시,강화군,,강화읍,국화리,강화대로498번길,17,182-2,2014-10-21 0:00:00,"종교,문화||종교||개신교||교회",False
86562,86563,27084932,인천안디옥교회,대한예수교장로회인천안디옥교회,Incheon Antioch Church,Professional and Other Places,Church,126.67470429999995,37.49583369999981,대한민국,KOR,KOR,인천광역시,서구,,가좌동,,가정로126번길,25-1,142-46,2022-05-01 12:37:48,"종교,문화||종교||개신교||교회",False
86575,86576,698279,신명중앙장로교회,대한예수교장로회신명중앙교회,Shinmyeong Central Presbyterian Church,Professional and Other Places,Church,126.72202429999992,37.461194999999776,대한민국,KOR,KOR,인천광역시,남동구,,만수동,,백범로248번길,10,849,2021-12-23 15:49:18,"종교,문화||종교||개신교||교회",False
86906,86907,3457974,새생명교회,기독교대한성결교회새생명교회,New Life Church,Professional and Other Places,Church,126.72938601692692,37.5284450082545,대한민국,KOR,KOR,인천광역시,계양구,,작전동,,주부토로,381,871-76,2019-11-14 23:25:17,"종교,문화||종교||개신교||교회",False
87005,87006,27044885,성진교회,,Sungjin Church,Professional and Other Places,Church,126.55749699999988,37.50310959999981,대한민국,KOR,KOR,인천광역시,중구,,중산동,,중산로,39-25,1250,2022-05-01 12:37:48,"종교,문화||종교||개신교||교회",False
87439,87440,4343479,원웨이교회,대한예수장로회원웨이교회,One Way Church,Professional and Other Places,Church,126.73897856143094,37.525896574592885,대한민국,KOR,KOR,인천광역시,계양구,,작전동,,아나지로,421,680-11,2022-08-16 16:52:33,"종교,문화||종교||개신교||교회",False
87758,87759,1257195,성민교회,,Sungmin Church,Professional and Other Places,Church,126.6558360743129,37.43840450305076,대한민국,KOR,KOR,인천광역시,미추홀구,,학익동,,한나루로357번길,105-24,708-4,2021-12-23 15:49:18,"종교,문화||종교||개신교||교회",False
87847,87848,540988,송도성결교회,송도교회,Songdo Holiness Church,Professional and Other Places,Church,126.65550362198888,37.42469176427496,대한민국,KOR,KOR,인천광역시,연수구,,옥련동,,한나루로,171,352-24,2022-05-01 12:37:48,"종교,문화||종교||개신교||교회",False
88124,88125,27494949,인천새일순복음교회,,Incheon Saeil Full Gospel Church,Professional and Other Places,Church,126.67170579943593,37.49354617204359,대한민국,KOR,KOR,인천광역시,서구,,가좌동,,가정로,100,145-91,2022-08-24 14:41:06,"종교,문화||종교||개신교||교회",False
88140,88141,27184652,빛과진리교회,대한예수교장로회빛과진리교회,light and truth church,Professional and Other Places,Church,126.66918117295889,37.50437270861169,대한민국,KOR,KOR,인천광역시,서구,,석남동,,염곡로220번길,7-1,530-9,2022-05-01 12:37:48,"종교,문화||종교||개신교||교회",False
88365,88366,6226588,단비교회,,Danbi Church,Professional and Other Places,Church,126.67063623292692,37.542416342555725,대한민국,KOR,KOR,인천광역시,서구,,심곡동,,심곡로,9,336-1,2019-08-13 3:25:14,"종교,문화||종교||개신교||교회",False
88654,88655,2152355,조광교회,,Jogwang Church,Professional and Other Places,Church,126.49455309999983,37.69127259999987,대한민국,KOR,KOR,인천광역시,강화군,,불은면,고능리,고능로262번길,12-1,983-1,2017-03-07 12:00:00,"종교,문화||종교||개신교||교회",False
88779,88780,3130787,일터교회,,Workplace Church,Professional and Other Places,Church,126.73405207111196,37.49765609358729,대한민국,KOR,KOR,인천광역시,부평구,,부개동,,부흥로,380,70-6,2021-12-23 15:49:18,"종교,문화||종교||개신교||교회",False
88930,88931,28426,미루교회,,Miru Church,Professional and Other Places,Church,126.4084929999998,37.600917499999845,대한민국,KOR,KOR,인천광역시,강화군,,화도면,여차리,해안남로,2042-1,52-1,2017-12-12 11:11:11,"종교,문화||종교||개신교||교회",False
89027,89028,5700294,온세상교회,대한예수교장로회온세상교회,World Church,Professional and Other Places,Church,126.7058505168309,37.44713409719296,대한민국,KOR,KOR,인천광역시,남동구,,구월동,,남동대로725번길,23,1157,2021-12-23 15:49:18,"종교,문화||종교||개신교||교회",False
89256,89257,4344121,맑은샘교회,,Sunny Saem Church,Professional and Other Places,Church,126.65010086308286,37.46074874558927,대한민국,KOR,KOR,인천광역시,미추홀구,,숭의동,,장천로,51,205-51,2021-12-23 15:49:18,"종교,문화||종교||개신교||교회",False
89318,89319,5426292,하늘길왕산교회,,Heavenly Gilwangsan Church,Professional and Other Places,Church,126.50949156154292,37.475344442651625,대한민국,KOR,KOR,인천광역시,중구,,운남동,,흰바위로,320,1604-4,2022-05-01 12:37:48,"종교,문화||종교||개신교||교회",False
89917,89918,1273549,행복한교회,,happy church,Professional and Other Places,Church,126.41289539999975,37.72399519999989,대한민국,KOR,KOR,인천광역시,강화군,,내가면,고천리,고비고개로,711,1763-6,2021-12-23 15:49:18,"종교,문화||종교||개신교||교회",False
90008,90009,27124369,생명나무교회,,Tree of Life Church,Professional and Other Places,Church,126.75671211608096,37.55959201856121,대한민국,KOR,KOR,인천광역시,계양구,,동양동,,당미1길,7-2,579-3,2022-05-01 12:37:48,"종교,문화||종교||개신교||교회",False
90383,90384,840193,아름다운교회,,beautiful church,Professional and Other Places,Church,126.6613112400729,37.45497616035916,대한민국,KOR,KOR,인천광역시,미추홀구,,용현동,,경인북길,239-12,122-6,2021-12-23 15:49:18,"종교,문화||종교||개신교||교회",False
91042,91043,27206664,풍부한교회,,rich church,Professional and Other Places,Church,126.72808723102888,37.5405711019734,대한민국,KOR,KOR,인천광역시,계양구,,계산동,,주부토로,519,948-4,2022-05-01 12:37:48,"종교,문화||종교||개신교||교회",False
92163,92164,4345181,열린전원교회,,Open Country Church,Professional and Other Places,Church,126.70545992726488,37.49786493261909,대한민국,KOR,KOR,인천광역시,부평구,,산곡동,,마장로220번길,49-8,234-27,2019-12-09 0:00:00,"종교,문화||종교||개신교||교회",False
92370,92371,478270,복된교회,,Blessed Church,Professional and Other Places,Church,126.52227029999987,37.62677099999984,대한민국,KOR,KOR,인천광역시,강화군,,길상면,초지리,신촌로53번길,64,804-3,2017-03-07 12:00:00,"종교,문화||종교||개신교||교회",False
92469,92470,2156670,대한예수교장로회햇빛교회,,Presbyterian Church of Korea Sunlight Church,Professional and Other Places,Church,126.66475858445588,37.512720737313195,대한민국,KOR,KOR,인천광역시,서구,,석남동,,율도로16번길,11-19,195-45,2020-01-14 23:41:08,"종교,문화||종교||개신교||교회",False
92542,92543,571297,초대방주교회,,Early Ark Church,Professional and Other Places,Church,126.73037627334593,37.43288049090367,대한민국,KOR,KOR,인천광역시,남동구,,수산동,,구수골로,16,370-3,2019-12-09 10:51:37,"종교,문화||종교||개신교||교회",False
92628,92629,5044136,하늘숲장로교회,대한예수교장로회하늘숲교회,sky forest Presbyterian Church,Professional and Other Places,Church,126.74764898476394,37.42577850076447,대한민국,KOR,KOR,인천광역시,남동구,,서창동,,서창남순환로215번길,36,688,2019-11-14 23:06:52,"종교,문화||종교||개신교||교회",False
92994,92995,1265595,사랑교회,,Sarang Church,Professional and Other Places,Church,126.6779777893979,37.50116208402219,대한민국,KOR,KOR,인천광역시,서구,,석남동,,서달로,29-1,560-16,2021-12-23 15:49:18,"종교,문화||종교||개신교||교회",False
92997,92998,1079615,덕적중앙감리교회,기독교대한감리회덕적중앙교회,Deokjeok Central Methodist Church,Professional and Other Places,Church,126.14296894344363,37.22898621674753,대한민국,KOR,KOR,인천광역시,옹진군,,덕적면,진리,덕적북로,154,206-1,2022-05-01 12:37:48,"종교,문화||종교||개신교||교회",False
93123,93124,5698056,예닮교회,대한예수교장로회예닮교회,Yesam Church,Professional and Other Places,Church,126.73929918424297,37.52233185760439,대한민국,KOR,KOR,인천광역시,부평구,,삼산동,,부평북로,412,53-4,2019-11-14 23:24:34,"종교,문화||종교||개신교||교회",False
93353,93354,27048475,온세계교회 청년함대,,Worldwide Church Youth Fleet,Professional and Other Places,Church,126.73859320011894,37.4970168946744,대한민국,KOR,KOR,인천광역시,부평구,,부개동,,부흥로,422-10,502-12,2022-08-19 9:48:28,"종교,문화||종교||개신교||교회",False
93610,93611,2153617,평화교회,,Peace Church,Professional and Other Places,Church,124.69330831217592,37.97811389862255,대한민국,KOR,KOR,인천광역시,옹진군,,백령면,진촌리,백령로380번길,385-3,1797-2,2020-06-15 0:00:00,"종교,문화||종교||개신교||교회",False
93726,93727,2152575,임마누엘교회,,Immanuel Church,Professional and Other Places,Church,126.4213446999998,37.662854799999856,대한민국,KOR,KOR,인천광역시,강화군,,양도면,하일리,강화남로,718-21,184-1,2017-03-07 12:00:00,"종교,문화||종교||개신교||교회",False
94663,94664,679399,온수중앙감리교회,기독교대한감리회온수중앙교회,Onsu Central Methodist Church,Professional and Other Places,Church,126.49376249999968,37.6385736999996,대한민국,KOR,KOR,인천광역시,강화군,,길상면,온수리,길상로,306,602-1,2018-12-04 17:21:36,"종교,문화||종교||개신교||교회",False
94939,94940,594997,빛된성결교회,기독교대한성결교회빛된교회,Lighted Holiness Church,Professional and Other Places,Church,126.7044009834159,37.5122047373566,대한민국,KOR,KOR,인천광역시,부평구,,청천동,,,,190-43,2021-12-23 15:49:18,"종교,문화||종교||개신교||교회",False
95543,95544,905261,재활원교회,,Rehabilitation Church,Professional and Other Places,Church,126.75471056428296,37.475150383601104,대한민국,KOR,KOR,인천광역시,부평구,,구산동,,무네미로,422-1,47-15,2021-12-23 15:49:18,"종교,문화||종교||개신교||교회",False
95761,95762,1260220,십정교회,대한예수교장로회십정교회,ten orthodox church,Professional and Other Places,Church,126.69697343867988,37.4738229604796,대한민국,KOR,KOR,인천광역시,부평구,,십정동,,배곶북로,16-8,299-3,2019-11-14 23:24:12,"종교,문화||종교||개신교||교회",False
95826,95827,27130810,아름답고 힘있는교회,대한예수교장로회아름답고 힘있는교회,beautiful and powerful church,Professional and Other Places,Church,126.73751463071994,37.54710583317421,대한민국,KOR,KOR,인천광역시,계양구,,임학동,,임학동로,60,5-1,2022-05-01 12:37:48,"종교,문화||종교||개신교||교회",False
95967,95968,337677,기쁨의교회,,Church of Joy,Professional and Other Places,Church,126.6852767359029,37.48764163840828,대한민국,KOR,KOR,인천광역시,서구,,가좌동,,여우재로111번길,15,351-12,2021-12-23 15:49:18,"종교,문화||종교||개신교||교회",False
96254,96255,575435,소망이풍성한교회,소풍교회,Church full of hope,Professional and Other Places,Church,126.67470943024388,37.43771242544637,대한민국,KOR,KOR,인천광역시,미추홀구,,학익동,,소성로256번길,10-25,669-10,2019-11-14 23:28:20,"종교,문화||종교||개신교||교회",False
96631,96632,3130537,평강교회,순복음평강교회,Pyeonggang Church,Professional and Other Places,Church,126.39379284967352,37.45471664591027,대한민국,KOR,KOR,인천광역시,중구,,을왕동,,늘목로59번길,7,491,2021-12-23 15:49:18,"종교,문화||종교||개신교||교회",False
96760,96761,4337935,필그림교회,기독교대한감리회필그림교회,Pilgrim Church,Professional and Other Places,Church,126.67328804628292,37.41819821326384,대한민국,KOR,KOR,인천광역시,연수구,,청학동,,용담로62번길,14,471-1,2022-08-08 10:29:42,"종교,문화||종교||개신교||교회",False
96894,96895,686292,석모감리교회,기독교대한감리회석모교회,Seokmo Methodist Church,Professional and Other Places,Church,126.31968520041532,37.70253570034252,대한민국,KOR,KOR,인천광역시,강화군,,삼산면,석모리,삼산북로471번길,26,277-5,2022-05-01 12:37:48,"종교,문화||종교||개신교||교회",False
96951,96952,27091498,동춘교회,,Dongchun Church,Professional and Other Places,Church,126.6814023115869,37.41328472217224,대한민국,KOR,KOR,인천광역시,연수구,,연수동,,용담로,153,633,2022-08-16 16:52:33,"종교,문화||종교||개신교||교회",False
97107,97108,430372,일신교회,,Ilshin Church,Professional and Other Places,Church,126.68812919999986,37.416054399999744,대한민국,KOR,KOR,인천광역시,연수구,,연수동,,원인재로,232,582-2,2020-06-03 0:00:00,"종교,문화||종교||개신교||교회",False
97121,97122,4360994,예그린교회,기독교대한감리회예그린교회,Yegreen Church,Professional and Other Places,Church,126.66979894807989,37.5437185271561,대한민국,KOR,KOR,인천광역시,서구,,심곡동,,승학로235번길,26,335-10,2021-12-23 15:49:18,"종교,문화||종교||개신교||교회",False
97276,97277,27207637,섬김의교회,,Servant Church,Professional and Other Places,Church,126.68327388489888,37.56862176350761,대한민국,KOR,KOR,인천광역시,서구,,검암동,,승학로,593,510-4,2022-05-01 12:37:48,"종교,문화||종교||개신교||교회",False
97361,97362,633137,지산감리교회,기독교대한감리회지산교회,Jisan Methodist Church,Professional and Other Places,Church,126.50335289999985,37.71106589999988,대한민국,KOR,KOR,인천광역시,강화군,,선원면,지산리,와말길,93-1,392-4,2018-09-18 15:00:00,"종교,문화||종교||개신교||교회",False
97771,97772,1871337,예광교회,대한예수교장로회예광교회,Yegwang Church,Professional and Other Places,Church,126.6776544958919,37.54873182226242,대한민국,KOR,KOR,인천광역시,서구,,연희동,,탁옥로73번길,55,711-3,2022-05-01 12:37:48,"종교,문화||종교||개신교||교회",False
98267,98268,2151997,말도등대교회,,Maldo Lighthouse Church,Professional and Other Places,Church,126.1336219999993,37.685746799999855,대한민국,KOR,KOR,인천광역시,강화군,,서도면,말도리,말도길,91,84-7,2014-08-19 0:00:00,"종교,문화||종교||개신교||교회",False
98568,98569,1870564,기쁜소식강화교회,기쁜소식교회,good news Ganghwa Church,Professional and Other Places,Church,126.51479179999984,37.749650599999896,대한민국,KOR,KOR,인천광역시,강화군,,강화읍,용정리,갑룡길208번길,16,254-1,2017-03-07 12:00:00,"종교,문화||종교||개신교||교회",False
98674,98675,2156722,푸른솔교회,,Blue Sol Church,Professional and Other Places,Church,126.68335309987089,37.49446380043368,대한민국,KOR,KOR,인천광역시,서구,,가좌동,,원적로96번길,9-1,30-34,2022-05-01 12:37:48,"종교,문화||종교||개신교||교회",False
98819,98820,3038635,풍성한교회,대한예수교장로회풍성한교회,rich church,Professional and Other Places,Church,126.73687019999895,37.46311659999578,대한민국,KOR,KOR,인천광역시,남동구,,만수동,,만수로,90,5-376,2022-08-08 10:29:42,"종교,문화||종교||개신교||교회",False
98884,98885,27173052,하늘가족교회,,Heavenly Family Church,Professional and Other Places,Church,126.5642609692928,37.48884524192666,대한민국,KOR,KOR,인천광역시,중구,,중산동,,하늘별빛로,59,1886-2,2022-08-08 10:29:42,"종교,문화||종교||개신교||교회",False
98932,98933,146135,에덴성회강화교회,강화교회,Eden Assemblies Ganghwa Church,Professional and Other Places,Church,126.49723629999984,37.74234489999991,대한민국,KOR,KOR,인천광역시,강화군,,강화읍,갑곳리,강화대로312번길,24,346-9,2021-12-23 15:49:18,"종교,문화||종교||개신교||교회",False
98946,98947,1270641,갈월중앙교회,,Galwol Central Church,Professional and Other Places,Church,126.73878668345294,37.52000172935732,대한민국,KOR,KOR,인천광역시,부평구,,삼산동,,후정동로,32,75-3,2019-11-14 23:06:52,"종교,문화||종교||개신교||교회",False
99307,99308,5671086,더기쁨교회,기독교대한성결교회더기쁨교회,The Joy Church,Professional and Other Places,Church,126.72831739350094,37.53905512228931,대한민국,KOR,KOR,인천광역시,계양구,,계산동,,주부토로,504,322-5,2021-12-23 15:49:18,"종교,문화||종교||개신교||교회",False
99514,99515,5667401,우리청라교회,,Our Cheongna Church,Professional and Other Places,Church,126.64775979999996,37.538617799999834,대한민국,KOR,KOR,인천광역시,서구,,청라동,,청라한울로,95,115-1,2018-08-03 9:59:59,"종교,문화||종교||개신교||교회",False
99587,99588,1258942,인천교회,,Incheon Church,Professional and Other Places,Church,126.67034800928988,37.46423299261425,대한민국,KOR,KOR,인천광역시,미추홀구,,도화동,,주안로7번길,4,567-5,2019-12-09 10:50:24,"종교,문화||종교||개신교||교회",False
99665,99666,1854605,한마음교회,대한예수교장로회한마음교회,Hanmaeum Church,Professional and Other Places,Church,126.7226481941599,37.40755175136295,대한민국,KOR,KOR,인천광역시,남동구,,논현동,,논고개로175번길,6-14,589-31,2022-08-16 16:52:33,"종교,문화||종교||개신교||교회",False
100207,100208,27107077,참사랑교회,,True Love Church,Professional and Other Places,Church,126.6731955999999,37.51687769999978,대한민국,KOR,KOR,인천광역시,서구,,가정동,,가정로,360,516-7,2022-05-01 12:37:48,"종교,문화||종교||개신교||교회",False
100464,100465,4352692,푸른초장교회,,Blue Grass Church,Professional and Other Places,Church,126.39863079985052,37.70796269971327,대한민국,KOR,KOR,인천광역시,강화군,,내가면,외포리,중앙로1128번길,66,15-1,2022-05-01 12:37:48,"종교,문화||종교||개신교||교회",False
100475,100476,27055213,광성교회,대한예수교장로회광성교회,Gwangseong Church,Professional and Other Places,Church,126.72631014955894,37.44897208222118,대한민국,KOR,KOR,인천광역시,남동구,,구월동,,인주대로,801,1314-16,2022-05-01 12:37:48,"종교,문화||종교||개신교||교회",False
100610,100611,2149978,은성교회,,Eunseong Church,Professional and Other Places,Church,126.68480309999993,37.55956409999982,대한민국,KOR,KOR,인천광역시,서구,,공촌동,,서곶로450번길,68,산20-6,2017-03-07 12:00:00,"종교,문화||종교||개신교||교회",False
100966,100967,3484053,초원교회,대한예수교장로회초원교회,Chowon Church,Professional and Other Places,Church,126.67688579999992,37.42227889999978,대한민국,KOR,KOR,인천광역시,연수구,,연수동,,함박뫼로84번길,25,541-3,2021-08-18 0:00:00,"종교,문화||종교||개신교||교회",False
101305,101306,1266580,부평교회,,Bupyeong Church,Professional and Other Places,Church,126.72605140322192,37.485656647752,대한민국,KOR,KOR,인천광역시,부평구,,부평동,,경인로962번길,38,654-31,2022-05-01 12:37:48,"종교,문화||종교||개신교||교회",False
101408,101409,4338146,성신영광교회,,Sungshin Glory Church,Professional and Other Places,Church,126.63333915942285,37.473444773035474,대한민국,KOR,KOR,인천광역시,중구,,경동,,참외전로152번길,2,142-2,2020-01-14 0:00:00,"종교,문화||종교||개신교||교회",False
101439,101440,27240137,글로리교회,,Glory Church,Professional and Other Places,Church,126.71883619999991,37.461969599999776,대한민국,KOR,KOR,인천광역시,남동구,,간석동,,백범로,278,912-14,2022-05-01 12:37:48,"종교,문화||종교||개신교||교회",False
101476,101477,1270180,아멘교회,대한예수교장로회아멘교회,Amen Church,Professional and Other Places,Church,126.72453801014991,37.542304734857,대한민국,KOR,KOR,인천광역시,계양구,,계산동,,어사대로,12,944-18,2019-11-14 23:28:29,"종교,문화||종교||개신교||교회",False
101501,101502,835691,월미도교회,,Wolmido Church,Professional and Other Places,Church,126.60042329999985,37.47511589999965,대한민국,KOR,KOR,인천광역시,중구,,북성동1가,,반달로4번길,27,98-47,2022-05-01 12:37:48,"종교,문화||종교||개신교||교회",False
101536,101537,20085122,하나성결교회,예수교대한성결교회하나교회,Hana Holiness Church,Professional and Other Places,Church,126.68234619999994,37.55153069999983,대한민국,KOR,KOR,인천광역시,서구,,공촌동,,심곡로,208,309-10,2021-12-23 15:49:18,"종교,문화||종교||개신교||교회",False
101582,101583,3119309,열린문교회,대한예수교장로회열린문교회,open door church,Professional and Other Places,Church,126.72778398304088,37.53557884288649,대한민국,KOR,KOR,인천광역시,계양구,,작전동,,주부토로,463,857-37,2022-05-01 12:37:48,"종교,문화||종교||개신교||교회",False
101689,101690,5719753,순복음반석교회,기독교대한하나님의성회반석순복음교회,Full Gospel Rock Church,Professional and Other Places,Church,126.73705291218094,37.495394760592994,대한민국,KOR,KOR,인천광역시,부평구,,부개동,,동수천로,112,108-3,2021-12-23 15:49:18,"종교,문화||종교||개신교||교회",False
101912,101913,27390133,북인천교회,,North Incheon Church,Professional and Other Places,Church,126.74802199999898,37.52893969993912,대한민국,KOR,KOR,인천광역시,계양구,,서운동,,,,232,2022-07-19 20:20:05,"종교,문화||종교||개신교||교회",False
102261,102262,4349943,기독교대한감리회 은강교회,은강교회,Korean Methodist Church  Eunkang Church,Professional and Other Places,Church,126.66032535578088,37.5313634448048,대한민국,KOR,KOR,인천광역시,서구,,청라동,,담지로8번길,7-21,169-4,2022-05-01 12:37:48,"종교,문화||종교||개신교||교회",False
102419,102420,3803674,영복교회,기독교대한감리회영복교회,Youngbok Church,Professional and Other Places,Church,126.75305142914594,37.42186768262657,대한민국,KOR,KOR,인천광역시,남동구,,서창동,,서창남로,16-20,723-3,2022-05-01 12:37:48,"종교,문화||종교||개신교||교회",False
102472,102473,5596756,부강교회,부강장로교회,Bugang Church,Professional and Other Places,Church,126.66270994815288,37.47033159432108,대한민국,KOR,KOR,인천광역시,미추홀구,,도화동,,숙골로,93,998-3,2022-08-12 13:15:03,"종교,문화||종교||개신교||교회",False
102636,102637,3127852,새롬교회,대한예수교장로회새롬교회,Saerom Church,Professional and Other Places,Church,126.66984985197588,37.50310844483679,대한민국,KOR,KOR,인천광역시,서구,,석남동,,거북로,74,587-3,2021-12-23 15:49:18,"종교,문화||종교||개신교||교회",False
103672,103673,2418314,축복하는교회,대한예수교장로회축복하는교회,Blessing Church,Professional and Other Places,Church,126.67810799461192,37.50801440588238,대한민국,KOR,KOR,인천광역시,서구,,석남동,,서달로105번길,4,488-11,2020-01-14 0:00:00,"종교,문화||종교||개신교||교회",False
104154,104155,5675217,할렐루야교회,대한예수교장로회은혜할렐루야교회,Hallelujah Church,Professional and Other Places,Church,126.74343152918495,37.55680892243212,대한민국,KOR,KOR,인천광역시,계양구,,박촌동,,장제로1017번길,20,46-4,2019-11-14 0:00:00,"종교,문화||종교||개신교||교회",False
104426,104427,5713432,하늘담은교회,대한예수교장로회하늘담은교회,Heavenly Dameun Church,Professional and Other Places,Church,126.6756369324382,37.59221658416817,대한민국,KOR,KOR,인천광역시,서구,,당하동,,청마로167번길,9,1097-7,2022-05-01 12:37:48,"종교,문화||종교||개신교||교회",False
104969,104970,1023950,숭의그리스도의교회,숭의교회,Sungui Church of Christ,Professional and Other Places,Church,126.6537535292709,37.459459842952455,대한민국,KOR,KOR,인천광역시,미추홀구,,숭의동,,독정안길97번길,26,248-190,2021-12-23 15:49:18,"종교,문화||종교||개신교||교회",False
105198,105199,26874781,로뎀나무교회,,Rodem Tree Church,Professional and Other Places,Church,126.70796205396996,37.531841571585424,대한민국,KOR,KOR,인천광역시,계양구,,효성동,,안남로551번길,23,88,2022-05-01 12:37:48,"종교,문화||종교||개신교||교회",False
105301,105302,27183483,임마누엘 제자교회,,Immanuel Disciples Church,Professional and Other Places,Church,126.65224329745548,37.37657117492099,대한민국,KOR,KOR,인천광역시,연수구,,송도동,,송도문화로28번길,28,190-2,2022-05-01 12:37:48,"종교,문화||종교||개신교||교회",False
105815,105816,2594689,주여복지교회,대한예수교장로회주여복지교회,Juyeo Welfare Church,Professional and Other Places,Church,126.66662429754793,37.51273213258028,대한민국,KOR,KOR,인천광역시,서구,,석남동,,율도로36번길,11-4,179-30,2021-12-23 15:49:18,"종교,문화||종교||개신교||교회",False
105974,105975,662148,장흥감리교회,장흥교회,Jangheung Methodist Church,Professional and Other Places,Church,126.50128879999984,37.620711999999855,대한민국,KOR,KOR,인천광역시,강화군,,길상면,장흥리,장흥로,226-14,86-11,2022-05-23 11:08:19,"종교,문화||종교||개신교||교회",False
105985,105986,27046141,행복한큐티교회,,Happy Cutie Church,Professional and Other Places,Church,126.53368549999988,37.493390499999805,대한민국,KOR,KOR,인천광역시,중구,,운남동,,운남안길,10,1515-4,2022-05-01 12:37:48,"종교,문화||종교||개신교||교회",False
106179,106180,27218813,양문교회,,Yangmoon Church,Professional and Other Places,Church,126.67078309999997,37.44171589999978,대한민국,KOR,KOR,인천광역시,미추홀구,,학익동,,학익소로,67,128-7,2022-05-01 12:37:48,"종교,문화||종교||개신교||교회",False
106620,106621,5703438,살리는교회,기독교대한감리회은성교회,Eunseong Church,Professional and Other Places,Church,126.67568369999996,37.414336399999776,대한민국,KOR,KOR,인천광역시,연수구,,청학동,,청능대로,93,503-4,2022-07-05 16:31:26,"종교,문화||종교||개신교||교회",False
106922,106923,5704271,예전교회,예수교대한성결교회예전교회,old church,Professional and Other Places,Church,126.73333709522095,37.46048387324047,대한민국,KOR,KOR,인천광역시,남동구,,만수동,,만수로,45,72-49,2021-12-23 15:49:18,"종교,문화||종교||개신교||교회",False
107087,107088,3898530,예수소망하나장로교회,대한예수교장로회예수소망하나교회,Jesus Hope Hana Presbyterian Church,Professional and Other Places,Church,126.65083971761484,37.44596683434696,대한민국,KOR,KOR,인천광역시,미추홀구,,학익동,,매소홀로,247,401-34,2022-08-08 10:29:42,"종교,문화||종교||개신교||교회",False
107755,107756,3135076,동춘장로교회제2성전,대한예수교장로회동춘교회제2성전,Dongchun Presbyterian Church 2nd Temple,Professional and Other Places,Church,126.6813368116789,37.413271522537954,대한민국,KOR,KOR,인천광역시,연수구,,연수동,,용담로,153,633,2020-01-14 23:41:58,"종교,문화||종교||개신교||교회",False
107876,107877,318648,장화교회,,Janghwa Church,Professional and Other Places,Church,126.38368419999973,37.61774189999985,대한민국,KOR,KOR,인천광역시,강화군,,화도면,장화리,해안남로,2396,698-1,2018-08-03 9:59:59,"종교,문화||종교||개신교||교회",False
108192,108193,3337486,숭의중앙교회,,Sungui Central Church,Professional and Other Places,Church,126.64998155981186,37.45805904103837,대한민국,KOR,KOR,인천광역시,미추홀구,,숭의동,,독정이로33번길,66,293-15,2019-11-14 0:00:00,"종교,문화||종교||개신교||교회",False
108200,108201,27249957,소망성서침례교회,,Hope Bible Baptist Church,Professional and Other Places,Church,126.7134266999999,37.5245064999998,대한민국,KOR,KOR,인천광역시,계양구,,효성동,,아나지로198번길,10,304-12,2022-05-01 12:37:48,"종교,문화||종교||개신교||교회",False
108233,108234,1284906,신진교회,,Shinjin Church,Professional and Other Places,Church,124.7151999999694,37.82382499999921,대한민국,KOR,KOR,인천광역시,옹진군,,대청면,대청리,대청로19번길,153,산50-4,2017-03-07 12:00:00,"종교,문화||종교||개신교||교회",False
108435,108436,1118439,은성장로교회,은성교회,Eunseong-ro Church,Professional and Other Places,Church,126.66702850396588,37.42778795096937,대한민국,KOR,KOR,인천광역시,연수구,,청학동,,청학로16번길,64,539-7,2020-01-14 23:38:56,"종교,문화||종교||개신교||교회",False
108519,108520,3126625,거성장로교회,대한예수교장로회거성교회,Geoseongno Church,Professional and Other Places,Church,126.6792134888809,37.49678659845911,대한민국,KOR,KOR,인천광역시,서구,,가좌동,,가석로156번길,40,186,2020-01-14 23:41:22,"종교,문화||종교||개신교||교회",False
108689,108690,1253576,사곶교회,,Sagot Church,Professional and Other Places,Church,124.71553849996953,37.954076799999285,대한민국,KOR,KOR,인천광역시,옹진군,,백령면,진촌리,사곶로,180-5,1303-1,2011-12-18 0:00:00,"종교,문화||종교||개신교||교회",False
109132,109133,3259595,예함교회,,Yeham Church,Professional and Other Places,Church,126.71985406059788,37.45229210325299,대한민국,KOR,KOR,인천광역시,남동구,,구월동,,구월남로,271,1271-24,2019-11-14 23:24:16,"종교,문화||종교||개신교||교회",False
109200,109201,3132081,서로사랑하는교회,,Church that loves each other,Professional and Other Places,Church,126.72749894782392,37.51812182986008,대한민국,KOR,KOR,인천광역시,부평구,,갈산동,,평천로,333,73-1,2019-11-14 23:29:26,"종교,문화||종교||개신교||교회",False
109351,109352,27551860,송도좋은교회,,Songdo Good Church,Professional and Other Places,Church,126.63671836872147,37.39762656272535,대한민국,KOR,KOR,인천광역시,연수구,,송도동,,센트럴로,232,23-3,2022-09-06 15:18:26,"종교,문화||종교||개신교||교회",False
109767,109768,2153998,초대교회,,early church,Professional and Other Places,Church,126.66222195644488,37.456107224240775,대한민국,KOR,KOR,인천광역시,미추홀구,,용현동,,수봉로130번길,57-21,56-2,2021-12-23 15:49:18,"종교,문화||종교||개신교||교회",False
111189,111190,4784462,천막비전교회,,Tent Vision Church,Professional and Other Places,Church,126.67044518259289,37.441137441725274,대한민국,KOR,KOR,인천광역시,미추홀구,,학익동,,학익소로,74,128-18,2022-05-01 12:37:48,"종교,문화||종교||개신교||교회",False
111268,111269,1260817,성동교회,,Seongdong Church,Professional and Other Places,Church,126.7180499999999,37.48455959999977,대한민국,KOR,KOR,인천광역시,부평구,,부평동,,경인로,880,756-88,2022-05-01 12:37:48,"종교,문화||종교||개신교||교회",False
111922,111923,691069,인천예수중심교회,예수중심교회,Incheon Jesus Centered Church,Professional and Other Places,Church,126.68447992817892,37.47951445830249,대한민국,KOR,KOR,인천광역시,서구,,가좌동,,백범로,652,472,2020-01-14 23:37:20,"종교,문화||종교||개신교||교회",False
112146,112147,485162,서도교회,,Seodo Church,Professional and Other Places,Church,126.23734889999952,37.651881199999856,대한민국,KOR,KOR,인천광역시,강화군,,서도면,주문도리,대빈창길,22,863-1,2018-09-18 15:00:00,"종교,문화||종교||개신교||교회",False
112346,112347,626632,인천송도교회,,Incheon Songdo Church,Professional and Other Places,Church,126.6550676658539,37.415652815921554,대한민국,KOR,KOR,인천광역시,연수구,,동춘동,,솔밭로,43-8,820-14,2021-12-23 15:49:18,"종교,문화||종교||개신교||교회",False
112759,112760,706922,화목교회,대한예수교장로회화목교회,Hwamok Church,Professional and Other Places,Church,126.6750627904819,37.49585947562108,대한민국,KOR,KOR,인천광역시,서구,,가좌동,,가정로126번길,29-1,142-48,2022-05-01 12:37:48,"종교,문화||종교||개신교||교회",False
112772,112773,203543,인천남교회,대한예수교장로회인천남교회,Incheon Nam Church,Professional and Other Places,Church,126.67787250772191,37.45658831629028,대한민국,KOR,KOR,인천광역시,미추홀구,,주안동,,남주길147번길,62,500-4,2021-12-23 15:49:18,"종교,문화||종교||개신교||교회",False
114248,114249,2151769,인천세일교회,,Incheon Sale Church,Professional and Other Places,Church,126.70425901825588,37.46547520740639,대한민국,KOR,KOR,인천광역시,남동구,,간석동,,예술로360번길,29,253-11,2019-11-14 0:00:00,"종교,문화||종교||개신교||교회",False
114447,114448,3139222,주사랑감리교회,기독교대한감리회주사랑교회,Jusarang Methodist Church,Professional and Other Places,Church,126.73169609049292,37.46119472628518,대한민국,KOR,KOR,인천광역시,남동구,,만수동,,백범로180번길,77-1,1117-4,2022-05-01 12:37:48,"종교,문화||종교||개신교||교회",False
115176,115177,4341622,인천교회,,Incheon Church,Professional and Other Places,Church,126.54187640752876,37.49439310328695,대한민국,KOR,KOR,인천광역시,중구,,운남동,,운중로71번길,20,526-4,2020-01-14 23:23:42,"종교,문화||종교||개신교||교회",False
115329,115330,27101491,은혜와평강교회,대한예수교장로회은혜와평강교회,Grace and Peace Church,Professional and Other Places,Church,126.72617913353092,37.50472235968251,대한민국,KOR,KOR,인천광역시,부평구,,부평동,,신트리로46번길,21,904-19,2022-05-01 12:37:48,"종교,문화||종교||개신교||교회",False
115560,115561,1271190,충만교회,,full church,Professional and Other Places,Church,126.69874513547688,37.5030332656974,대한민국,KOR,KOR,인천광역시,부평구,,산곡동,,마장로269번길,74,180-127,2021-12-23 15:49:18,"종교,문화||종교||개신교||교회",False
116081,116082,4336255,온세상행복한교회,대한예수교장로회온세상행복한교회,Happy World Church,Professional and Other Places,Church,126.68452249217091,37.486931079958495,대한민국,KOR,KOR,인천광역시,서구,,가좌동,,고래울로24번길,6-1,340-6,2021-12-23 15:49:18,"종교,문화||종교||개신교||교회",False
116205,116206,20477857,기쁨샘교회,,Joy Sam Church,Professional and Other Places,Church,126.65126571999087,37.398996820793336,대한민국,KOR,KOR,인천광역시,연수구,,송도동,,컨벤시아대로42번길,12,15-11,2022-05-18 1:20:23,"종교,문화||종교||개신교||교회",False
116316,116317,996954,성화장로교회,대한예수교장로회성화교회,Seonghwa Presbyterian Church,Professional and Other Places,Church,126.66959719999988,37.403929099999765,대한민국,KOR,KOR,인천광역시,연수구,,동춘동,,먼우금로63번길,13,942,2018-11-27 19:32:04,"종교,문화||종교||개신교||교회",False
116384,116385,20763285,인천동부교회,,Incheon Eastern Church,Professional and Other Places,Church,126.66670945043388,37.46786177314527,대한민국,KOR,KOR,인천광역시,미추홀구,,도화동,,석정로,284,221-3,2022-05-18 1:22:38,"종교,문화||종교||개신교||교회",False
117340,117341,412558,연수대은교회,기독교대한감리회연수대은교회,Yeonsudaeeun Church,Professional and Other Places,Church,126.67205440123448,37.41776280718645,대한민국,KOR,KOR,인천광역시,연수구,,청학동,,함박뫼로4번길,15,477-5,2022-05-01 12:37:48,"종교,문화||종교||개신교||교회",False
117451,117452,3259533,구원의기쁨교회,,Joy of Salvation Church,Professional and Other Places,Church,126.73929267900994,37.443592376537765,대한민국,KOR,KOR,인천광역시,남동구,,만수동,,장승남로,63,1030-6,2019-11-14 23:06:51,"종교,문화||종교||개신교||교회",False
117558,117559,2152765,계성교회,기독교대한감리회계성교회,Gyeseong Church,Professional and Other Places,Church,126.73237486198391,37.543602642276014,대한민국,KOR,KOR,인천광역시,계양구,,계산동,,안산로,34,917-1,2019-11-14 23:22:22,"종교,문화||종교||개신교||교회",False
117598,117599,439511,하나로장로교회,대한예수교장로회하나로교회,Hanaro  Presbyterian Church,Professional and Other Places,Church,126.6623185999999,37.42616539999976,대한민국,KOR,KOR,인천광역시,연수구,,청학동,,비류대로244번길,19,559-1,2018-11-27 19:32:03,"종교,문화||종교||개신교||교회",False
117674,117675,1264900,행복한교회,,happy church,Professional and Other Places,Church,126.7082614552669,37.47351948113618,대한민국,KOR,KOR,인천광역시,부평구,,십정동,,동암산로33번길,20,584-2,2019-12-09 10:50:24,"종교,문화||종교||개신교||교회",False
118424,118425,20476227,주님의품교회,,Church of the Lord,Professional and Other Places,Church,126.69444074141096,37.47357806440351,대한민국,KOR,KOR,인천광역시,부평구,,십정동,,백범로540번길,40,353,2022-05-01 12:37:48,"종교,문화||종교||개신교||교회",False
118806,118807,27236712,대영교회,,Daeyoung Church,Professional and Other Places,Church,126.62768167787225,37.53921185745062,대한민국,KOR,KOR,인천광역시,서구,,청라동,,청라한내로161번길,3-9,57-1,2022-05-01 12:37:48,"종교,문화||종교||개신교||교회",False
118808,118809,2606646,기하성송도순복음교회,기독교대한하나님의성회송도순복음교회,Gihaseong Songdo Full Gospel Church,Professional and Other Places,Church,126.65687506835488,37.42627539648985,대한민국,KOR,KOR,인천광역시,연수구,,옥련동,,한나루로,190,336-1,2020-01-14 23:36:49,"종교,문화||종교||개신교||교회",False
119274,119275,3139953,서광꿈의교회,대한예수교장로회서광꿈의교회,Seogwang Dream Church,Professional and Other Places,Church,126.68058574018887,37.550358962898606,대한민국,KOR,KOR,인천광역시,서구,,연희동,,심곡로,193-14,696-12,2020-01-14 23:43:14,"종교,문화||종교||개신교||교회",False
119467,119468,27126380,대한예수교장로회 더사랑교회,대한장로회 더사랑장로교회,Presbyterian Church of Korea The Sarang Church,Professional and Other Places,Church,126.71060176075488,37.45244119096616,대한민국,KOR,KOR,인천광역시,남동구,,구월동,,독점로,29,1200-3,2022-05-01 12:37:48,"종교,문화||종교||개신교||교회",False
119678,119679,20437152,문학감리교회,,Literature Methodist Church,Professional and Other Places,Church,126.6792277303079,37.43608027757487,대한민국,KOR,KOR,인천광역시,미추홀구,,문학동,,,,152-3,2022-08-04 10:04:43,"종교,문화||종교||개신교||교회",False
119703,119704,3751189,광염감리교회,광염교회,Gwangyeom Methodist Church,Professional and Other Places,Church,126.71178503364088,37.44886449234379,대한민국,KOR,KOR,인천광역시,남동구,,구월동,,인주대로676번길,10,276-1,2022-05-01 12:37:48,"종교,문화||종교||개신교||교회",False
119713,119714,20199371,인천교회,,Incheon Church,Professional and Other Places,Church,126.69725830862497,37.45208163301169,대한민국,KOR,KOR,인천광역시,남동구,,구월동,,문화로145번길,45,1107,2021-12-23 15:49:18,"종교,문화||종교||개신교||교회",False
119737,119738,27184022,세나무교회,,three tree church,Professional and Other Places,Church,126.72306589999997,37.401680899999775,대한민국,KOR,KOR,인천광역시,남동구,,논현동,,논고개로123번길,17,632-2,2022-05-01 12:37:48,"종교,문화||종교||개신교||교회",False
120090,120091,2152360,넙성교회,대한성공회넙성교회,Neopseong Church,Professional and Other Places,Church,126.51246119999988,37.66985599999988,대한민국,KOR,KOR,인천광역시,강화군,,불은면,넙성리,불은남로224번길,21-16,23-2,2017-03-07 12:00:00,"종교,문화||종교||개신교||교회",False
120524,120525,5374030,모이는교회,,gathering church,Professional and Other Places,Church,126.67833224112188,37.5147524514996,대한민국,KOR,KOR,인천광역시,서구,,가정동,,서달로179번길,6,564-2,2020-01-14 0:00:00,"종교,문화||종교||개신교||교회",False
120655,120656,182312,흥왕교회,,Heungwang Church,Professional and Other Places,Church,126.4244364999998,37.60530819999983,대한민국,KOR,KOR,인천광역시,강화군,,화도면,흥왕리,해안남로1844번길,8-1,360-4,2018-09-18 15:00:00,"종교,문화||종교||개신교||교회",False
120976,120977,1253032,논현열린문교회,열린문교회,Nonhyeon open door church,Professional and Other Places,Church,126.72474903267695,37.40222320596717,대한민국,KOR,KOR,인천광역시,남동구,,논현동,,청능대로595번길,17,617-1,2019-11-14 23:11:36,"종교,문화||종교||개신교||교회",False
120982,120983,4339004,별빛교회,대한예수교장로회별빛교회,Starlight Church,Professional and Other Places,Church,126.6323547097988,37.473395563323855,대한민국,KOR,KOR,인천광역시,중구,,용동,,큰우물로20번길,15,58,2020-01-14 23:40:02,"종교,문화||종교||개신교||교회",False
121082,121083,2152680,철산교회기독원,,Cheolsan Church Christian Center,Professional and Other Places,Church,126.4351813003726,37.82274479973143,대한민국,KOR,KOR,인천광역시,강화군,,양사면,철산리,전망대로,785-9,88-1,2022-05-01 12:37:48,"종교,문화||종교||개신교||교회",False
121328,121329,3119195,드림교회,대한예수교장로회드림교회,Dream Church,Professional and Other Places,Church,126.73538259502396,37.445664186391966,대한민국,KOR,KOR,인천광역시,남동구,,만수동,,장승로,24,1079-3,2021-12-23 15:49:18,"종교,문화||종교||개신교||교회",False
121513,121514,5698019,숭의장로교회,대한예수교장로회숭의교회,Sungui Presbyterian Church,Professional and Other Places,Church,126.63868370004388,37.45962300136547,대한민국,KOR,KOR,인천광역시,미추홀구,,용현동,,능해길,11,686-34,2022-05-01 12:37:48,"종교,문화||종교||개신교||교회",False
121728,121729,1251823,향기로운교회,,Fragrant Church,Professional and Other Places,Church,126.67421099999994,37.41586399999978,대한민국,KOR,KOR,인천광역시,연수구,,청학동,,청능대로,71,502-1,2018-08-16 9:30:30,"종교,문화||종교||개신교||교회",False
