,OID_,id,name,name_alias,name_eng,category,subcategory,lon,lat,country,country_code,language_code,sd,sgg,sgg_sub,emd,ri,street,number_st,number_jb,update_date,dwnm,result
11186,11187,1113027,인천지방법원 강화등기소,인천지법 강화등기소,Incheon District Court Ganghwa Registry,Professional and Other Places,Court House,126.49640249999985,37.741666499999695,대한민국,KOR,KOR,인천광역시,강화군,,강화읍,갑곳리,강화대로,300,340-2,2022-05-01 12:37:48,"공공,행정,사회||법원||등기소",False
24339,24340,3997298,인천지방법원 북부지원 (2025년3월예정),,Incheon District Court Northern Branch (scheduled for March 2025),Professional and Other Places,Court House,126.71196329991494,37.58978340027054,대한민국,KOR,KOR,인천광역시,서구,,당하동,,,,191,2022-05-01 12:37:48,"공공,행정,사회||법원||지방법원||지방법원-일반",False
31443,31444,3995406,인천지방법원 등기국,인천지법 등기국,Incheon District Court registrar,Professional and Other Places,Court House,126.68907679999997,37.4617564999998,대한민국,KOR,KOR,인천광역시,미추홀구,,주안동,,경원대로,881,983,2022-05-01 12:37:48,"공공,행정,사회||법원||등기소",False
99962,99963,115363,인천지방법원 강화군법원,인천지법 강화군법원,Incheon District Court Ganghwa County Court,Professional and Other Places,Court House,126.49637509999982,37.7417087999995,대한민국,KOR,KOR,인천광역시,강화군,,강화읍,갑곳리,강화대로,300,340-2,2021-12-23 15:49:18,"공공,행정,사회||법원||지방법원||지방법원-일반",False
118060,118061,3995405,인천가정법원,,Incheon Family Court,Professional and Other Places,Court House,126.68832268288216,37.46157572147517,대한민국,KOR,KOR,인천광역시,미추홀구,,주안동,,경원대로,881,983,2022-05-01 12:37:48,"공공,행정,사회||법원||가정법원",False
118833,118834,513985,인천지방법원,,Incheon District Court,Professional and Other Places,Court House,126.66754259999988,37.443054899999765,대한민국,KOR,KOR,인천광역시,미추홀구,,학익동,,소성로163번길,17,278-2,2022-05-01 12:37:48,"공공,행정,사회||법원||지방법원||지방법원-일반",False
