,OID_,id,name,name_alias,name_eng,category,subcategory,lon,lat,country,country_code,language_code,sd,sgg,sgg_sub,emd,ri,street,number_st,number_jb,update_date,dwnm,result
58,59,4342629,성광부동산,성광공인중개사,Seongkwang Real Estate,Professional and Other Places,Building,126.73718197680796,37.525707247214,대한민국,KOR,KOR,인천광역시,계양구,,작전동,,아나지로,405,666-6,2019-11-14 23:24:09,"빌딩,건물||부동산||중개업||중개업-일반",False
64,65,2610569,한양부동산,한양공인중개사,Hanyang Real Estate,Professional and Other Places,Building,126.72747691096892,37.50457950819009,대한민국,KOR,KOR,인천광역시,부평구,,부평동,,신트리로56번길,34,904-10,2019-11-14 23:19:12,"빌딩,건물||부동산||중개업||중개업-일반",False
81,82,3134146,대림부동산 공인중개사사무소,대림공인중개사,Daelim Real Estate Broker Office,Professional and Other Places,Building,126.69324929999993,37.61909459999985,대한민국,KOR,KOR,인천광역시,서구,,불로동,,검단로,868,806,2021-12-23 15:49:18,"빌딩,건물||부동산||중개업||중개업-일반",False
275,276,3124764,투자114부동산,투자114공인중개사,investment 114 real estate,Professional and Other Places,Building,126.72144178253936,37.452026039975166,대한민국,KOR,KOR,인천광역시,남동구,,구월동,,구월남로,286,1274-12,2022-05-01 12:37:48,"빌딩,건물||부동산||중개업||중개업-일반",False
573,574,27037274,서진부동산,,Seojin Real Estate,Professional and Other Places,Building,126.64421844624894,37.45917827847729,대한민국,KOR,KOR,인천광역시,미추홀구,,숭의동,,인주대로,51,331-12,2022-05-01 12:37:48,"빌딩,건물||부동산||중개업||중개업-일반",False
1339,1340,4338898,에이스 공인중개사사무소,에이스부동산,Ace Real Estate Agency,Professional and Other Places,Building,126.73296415628296,37.450367323597995,대한민국,KOR,KOR,인천광역시,남동구,,만수동,,백범로101번길,84,967-9,2019-11-14 23:26:18,"빌딩,건물||부동산||중개업||중개업-일반",False
1876,1877,27067146,광명부동산공인중개사사무소,광명공인중개사,Gwangmyeong Real Estate Real Estate Agency,Professional and Other Places,Building,126.73807132791895,37.5226958183716,대한민국,KOR,KOR,인천광역시,부평구,,삼산동,,부평북로,399,55,2022-05-01 12:37:48,"빌딩,건물||부동산||중개업||중개업-일반",False
1902,1903,3118570,알파공인중개사,알파공인중개사,Alpha Real Estate Broker,Professional and Other Places,Building,126.74684247626494,37.43824548743276,대한민국,KOR,KOR,인천광역시,남동구,,서창동,,매소홀로,1118,554-5,2019-11-14 23:25:18,"빌딩,건물||부동산||중개업||중개업-일반",False
1922,1923,27285519,우대빵선학공인중개사사무소,,Woodae Bread Sunhak Authorized Brokerage Office,Professional and Other Places,Building,126.70011514871995,37.42144316232678,대한민국,KOR,KOR,인천광역시,연수구,,선학동,,선학로,37,340,2022-06-07 17:23:36,"빌딩,건물||부동산||부동산-일반",False
1968,1969,27399645,영부동산공인중개사사무소,,Young Real Estate Real Estate Broker Office,Professional and Other Places,Building,126.62689329999992,37.536839399999806,대한민국,KOR,KOR,인천광역시,서구,,청라동,,청라한내로,131,84-7,2022-08-02 16:47:12,"빌딩,건물||부동산||중개업||중개업-일반",False
1982,1983,5683712,삼성부동산,삼성공인중개사,Samsung Real Estate,Professional and Other Places,Building,126.68105939999992,37.44762239999977,대한민국,KOR,KOR,인천광역시,미추홀구,,주안동,,인하로,296,1250,2021-12-23 15:49:18,"빌딩,건물||부동산||중개업||중개업-일반",False
2029,2030,5369184,정원공인중개사사무소,,Garden Real Estate Broker Office,Professional and Other Places,Building,126.74189919999992,37.53341219999978,대한민국,KOR,KOR,인천광역시,계양구,,작전동,,도두리로,70,912-5,2022-05-01 12:37:48,"빌딩,건물||부동산||중개업||중개업-일반",False
2088,2089,2605231,장미공인중개사사무소,장미공인중개사,Rose Authorized Brokerage Office,Professional and Other Places,Building,126.65709999999994,37.44559999999979,대한민국,KOR,KOR,인천광역시,미추홀구,,학익동,,소성로,70,413-9,2018-08-11 9:09:09,"빌딩,건물||부동산||중개업||중개업-일반",False
2142,2143,2596554,제일공인중개사사무소,제일부동산,Jeil Authorized Brokerage Office,Professional and Other Places,Building,126.74066249999996,37.49108459999981,대한민국,KOR,KOR,인천광역시,부평구,,부개동,,수변로52번길,6,494,2022-05-01 12:37:48,"빌딩,건물||부동산||중개업||중개업-일반",False
2180,2181,27092504,선수촌양지공인중개사사무소,,Athletes' Village Yangji Authorized Brokerage Office,Professional and Other Places,Building,126.71260869999988,37.44677419999976,대한민국,KOR,KOR,인천광역시,남동구,,구월동,,선수촌공원로,96,1485,2022-07-13 13:54:25,"빌딩,건물||부동산||중개업||중개업-일반",False
2187,2188,3442241,맘모스공인중개사사무소,맘모스부동산,Mammoth Authorized Brokerage Office,Professional and Other Places,Building,126.68557919999996,37.4930696999998,대한민국,KOR,KOR,인천광역시,서구,,가좌동,,장고개로337번길,16,11,2021-12-23 15:49:18,"빌딩,건물||부동산||중개업||중개업-일반",False
2201,2202,4326054,대동공인중개사사무소,대동부동산,Daedong Real Estate Broker Office,Professional and Other Places,Building,126.73686199999992,37.463181599999785,대한민국,KOR,KOR,인천광역시,남동구,,만수동,,만수로,90,5-376,2021-12-23 15:49:18,"빌딩,건물||부동산||중개업||중개업-일반",False
2276,2277,2605094,일이삼 공인중개사사무소,일이삼부동산,Il Samgong Real Estate Broker Office,Professional and Other Places,Building,126.72806257007392,37.45383019651838,대한민국,KOR,KOR,인천광역시,남동구,,만수동,,구월말로58번길,56,943,2021-12-23 15:49:18,"빌딩,건물||부동산||중개업||중개업-일반",False
2277,2278,3146077,예담부동산공인중개사사무소,예담공인중개사부평점,Yedam Real Estate Real Estate Agency,Professional and Other Places,Building,126.72754790899894,37.503195076246094,대한민국,KOR,KOR,인천광역시,부평구,,부평동,,길주남로54번길,27,10-380,2019-11-14 23:28:16,"빌딩,건물||부동산||중개업||중개업-일반",False
2286,2287,5696644,아주공인중개사사무소,아주부동산,Aju Authorized Brokerage Office,Professional and Other Places,Building,126.73672477210896,37.46333931177749,대한민국,KOR,KOR,인천광역시,남동구,,만수동,,만수로,91,5-384,2021-12-23 15:49:18,"빌딩,건물||부동산||중개업||중개업-일반",False
2293,2294,2603862,믿음공인중개사,믿음부동산,trustworthy broker,Professional and Other Places,Building,126.6906085088009,37.618439919703526,대한민국,KOR,KOR,인천광역시,서구,,불로동,,검단로,842,308,2021-12-23 15:49:18,"빌딩,건물||부동산||중개업||중개업-일반",False
2344,2345,2597159,인천공인중개사사무소,인천부동산,Incheon Real Estate Broker Office,Professional and Other Places,Building,126.7130977610069,37.43133315579345,대한민국,KOR,KOR,인천광역시,남동구,,남촌동,,남촌동로,52-1,343-17,2019-11-14 0:00:00,"빌딩,건물||부동산||중개업||중개업-일반",False
2351,2352,20014406,다산 공인중개사사무소,다산 부동산,Dasan Real Estate Agency,Professional and Other Places,Building,126.6818100000019,37.42151400000275,대한민국,KOR,KOR,인천광역시,연수구,,연수동,,먼우금로,282,576,2022-05-01 12:37:48,"빌딩,건물||부동산||중개업||중개업-일반",False
2379,2380,27417623,검단예미지리치공인중개사사무소,,Geomdan Yemiji Rich Real Estate Agency,Professional and Other Places,Building,126.71373336849892,37.60139252454494,대한민국,KOR,KOR,인천광역시,서구,,원당동,,,,281-1,2022-08-30 9:43:30,"빌딩,건물||부동산||중개업||중개업-일반",False
2484,2485,27186881,롯데골드공인중개사사무소,일잘하는부동산,Lotte Gold Real Estate Broker Office,Professional and Other Places,Building,126.6464063999998,37.53157689999976,대한민국,KOR,KOR,인천광역시,서구,,청라동,,청라커낼로,252,159-1,2022-05-01 12:37:48,"빌딩,건물||부동산||중개업||중개업-일반",False
2512,2513,4340345,호반한솔공인중개사사무소,한솔공인중개사,Hoban Hansol Authorized  Brokerage Office,Professional and Other Places,Building,126.63872414529108,37.525784391441256,대한민국,KOR,KOR,인천광역시,서구,,청라동,,청라커낼로,163,173-1,2022-08-12 13:15:03,"빌딩,건물||부동산||중개업||중개업-일반",False
2556,2557,2594664,기업공인중개사사무소,기업부동산,Corporate Real Estate Broker Office,Professional and Other Places,Building,126.68089363385188,37.4860031957634,대한민국,KOR,KOR,인천광역시,서구,,가좌동,,열우물로,281,287-5,2020-01-14 0:00:00,"빌딩,건물||부동산||중개업||중개업-일반",False
2612,2613,3129749,세명부동산,세명공인중개사,Semyung Real Estate,Professional and Other Places,Building,126.67294082756489,37.49813155877067,대한민국,KOR,KOR,인천광역시,서구,,가좌동,,가정로152번길,10,114-3,2021-12-23 15:49:18,"빌딩,건물||부동산||중개업||중개업-일반",False
2665,2666,3334853,베스트부동산,베스트공인중개사사무소,Best Real Estate,Professional and Other Places,Building,126.7289174995849,37.525073499665325,대한민국,KOR,KOR,인천광역시,계양구,,작전동,,아나지로,332,392-12,2022-08-08 10:29:42,"빌딩,건물||부동산||중개업||중개업-일반",False
2685,2686,3121975,부동산나라공인중개사,나라부동산,Real Estate Real Estate Broker,Professional and Other Places,Building,126.68587884954393,37.42549626154848,대한민국,KOR,KOR,인천광역시,연수구,,연수동,,함박로,77,521-9,2022-08-08 10:29:42,"빌딩,건물||부동산||중개업||중개업-일반",False
2775,2776,4337532,벧엘공인중개사사무소,벧엘부동산,Bethel Real Estate Broker Office,Professional and Other Places,Building,126.6723919147414,37.51093847712291,대한민국,KOR,KOR,인천광역시,서구,,석남동,,가정로,291,479-8,2022-08-16 16:52:33,"빌딩,건물||부동산||중개업||중개업-일반",False
2782,2783,27424154,예미지수공인중개사사무소,,Yemi Index Real Estate Broker Office,Professional and Other Places,Building,126.71375449999988,37.601154099999846,대한민국,KOR,KOR,인천광역시,서구,,원당동,,,,281-1,2022-08-30 9:43:30,"빌딩,건물||부동산||중개업||중개업-일반",False
2799,2800,5683579,사랑공인중개사사무소,사랑부동산,Love Real Estate Broker Office,Professional and Other Places,Building,126.55933331991272,37.48585277298334,대한민국,KOR,KOR,인천광역시,중구,,중산동,,하늘달빛로,70,1875-12,2022-05-01 12:37:48,"빌딩,건물||부동산||중개업||중개업-일반",False
2807,2808,2149260,행복공인중개사사무소,행복부동산,Happy Real Estate Broker Office,Professional and Other Places,Building,126.65868651942787,37.60261201974422,대한민국,KOR,KOR,인천광역시,서구,,마전동,,검단로,489,933-1,2022-05-01 12:37:48,"빌딩,건물||부동산||중개업||중개업-일반",False
2832,2833,2603134,리치부동산,리치공인중개사,Rich Real Estate,Professional and Other Places,Building,126.73066156612192,37.5052584533765,대한민국,KOR,KOR,인천광역시,부평구,,부평동,,장제로221번길,5,10-468,2022-05-01 12:37:48,"빌딩,건물||부동산||중개업||중개업-일반",False
2865,2866,6226362,서일공인중개사사무소,서일부동산,Seoil Authorized Brokerage Office,Professional and Other Places,Building,126.64269793916387,37.47101453834827,대한민국,KOR,KOR,인천광역시,동구,,금곡동,,샛골로,93,60-7,2022-05-01 12:37:48,"빌딩,건물||부동산||중개업||중개업-일반",False
2886,2887,20200074,희망공인중개사,희망부동산,Hope Real Estate Broker,Professional and Other Places,Building,126.7179425025419,37.47301451737949,대한민국,KOR,KOR,인천광역시,남동구,,간석동,,만월북로,69,1-164,2022-05-01 12:37:48,"빌딩,건물||부동산||중개업||중개업-일반",False
2927,2928,4358584,동양공인중개사사무소,동양부동산,Oriental Real Estate Broker Office,Professional and Other Places,Building,126.72399953250992,37.53323963405748,대한민국,KOR,KOR,인천광역시,계양구,,작전동,,봉오대로677번길,27,854-10,2019-11-14 0:00:00,"빌딩,건물||부동산||중개업||중개업-일반",False
2963,2964,2615195,나라공인중개사사무소,나라부동산,Nara Real Estate Agency,Professional and Other Places,Building,126.71917989561692,37.5383229322668,대한민국,KOR,KOR,인천광역시,계양구,,계산동,,계산로,61,984-44,2021-12-23 15:49:18,"빌딩,건물||부동산||중개업||중개업-일반",False
3039,3040,5678425,소망부동산,소망공인중개사,Hope Real Estate,Professional and Other Places,Building,126.7153876623209,37.46365257622119,대한민국,KOR,KOR,인천광역시,남동구,,간석동,,백범로,312-75,41-75,2022-05-01 12:37:48,"빌딩,건물||부동산||중개업||중개업-일반",False
3121,3122,6221428,진성공인중개사사무소,진성부동산,Jinsung Real Estate Agency,Professional and Other Places,Building,126.65065408640888,37.465160035489966,대한민국,KOR,KOR,인천광역시,미추홀구,,숭의동,,경인로,70,119-14,2021-12-23 15:49:18,"빌딩,건물||부동산||중개업||중개업-일반",False
3197,3198,2595769,드림공인중개사사무소,드림부동산,Dream Real Estate Agency,Professional and Other Places,Building,126.73067581048367,37.404312892193694,대한민국,KOR,KOR,인천광역시,남동구,,논현동,,소래역로,95,604-1,2022-05-01 12:37:48,"빌딩,건물||부동산||중개업||중개업-일반",False
3208,3209,2600965,푸른공인중개사사무소,푸른부동산,Blue Certified Real Estate Broker Office,Professional and Other Places,Building,126.72824667759592,37.54353642545061,대한민국,KOR,KOR,인천광역시,계양구,,계산동,,경명대로,1091,920-2,2022-05-01 12:37:48,"빌딩,건물||부동산||중개업||중개업-일반",False
3224,3225,3117962,월드공인중개사사무소,월드부동산,World Authorized Broker Office,Professional and Other Places,Building,126.68992299999984,37.46111099999977,대한민국,KOR,KOR,인천광역시,미추홀구,,주안동,,경원대로,882,1614,2021-12-23 15:49:18,"빌딩,건물||부동산||중개업||중개업-일반",False
3237,3238,27245028,한울공인중개사사무소,,Hanul Real Estate Broker Office,Professional and Other Places,Building,126.70380066151893,37.464837612235286,대한민국,KOR,KOR,인천광역시,남동구,,간석동,,경인로,595,269-4,2022-05-01 12:37:48,"빌딩,건물||부동산||중개업||중개업-일반",False
3238,3239,2595783,황금공인중개사사무소,황금부동산,Golden Real Estate Broker Office,Professional and Other Places,Building,126.73616805051996,37.443816010318265,대한민국,KOR,KOR,인천광역시,남동구,,만수동,,장승남로,35,1019,2022-08-08 10:29:42,"빌딩,건물||부동산||중개업||중개업-일반",False
3305,3306,5714936,우리공인중개사사무소,우리부동산,Woori Authorized Brokerage Office,Professional and Other Places,Building,126.6891314867569,37.45467579358408,대한민국,KOR,KOR,인천광역시,미추홀구,,주안동,,경원대로807번길,5,253-9,2021-12-23 15:49:18,"빌딩,건물||부동산||중개업||중개업-일반",False
3344,3345,5722180,행복공인중개사사무소,행복부동산,Happy Real Estate Broker Office,Professional and Other Places,Building,126.7297949056479,37.44992698291348,대한민국,KOR,KOR,인천광역시,남동구,,만수동,,하촌서로,14-1,978-1,2019-11-14 0:00:00,"빌딩,건물||부동산||중개업||중개업-일반",False
3356,3357,2616528,한마음공인중개사사무소,한마음부동산,Hanmaeum Real Estate Broker Office,Professional and Other Places,Building,126.6742816402359,37.449097511251445,대한민국,KOR,KOR,인천광역시,미추홀구,,주안동,,미추홀대로575번길,96,1420-36,2021-12-23 15:49:18,"빌딩,건물||부동산||중개업||중개업-일반",False
3376,3377,5671740,파크자이공인중개사사무소,파크자이부동산,Park Xi's Authorized Brokerage Office,Professional and Other Places,Building,126.62475295336009,37.52178840209625,대한민국,KOR,KOR,인천광역시,서구,,청라동,,보석로18번안길,5,104-98,2022-08-30 9:43:30,"빌딩,건물||부동산||중개업||중개업-일반",False
3406,3407,5696855,탑공인중개사사무소,탑부동산,Top Authorized Brokerage Office,Professional and Other Places,Building,126.72702819340915,37.490087823482554,대한민국,KOR,KOR,인천광역시,부평구,,부평동,,광장로24번길,43,182-64,2022-08-08 10:29:42,"빌딩,건물||부동산||중개업||중개업-일반",False
3600,3601,5674270,한성공인중개사사무소,한성공인중개사,Hansung Real Estate Broker Office,Professional and Other Places,Building,126.74140009988491,37.55037790135881,대한민국,KOR,KOR,인천광역시,계양구,,방축동,,장제로933번길,8,213,2022-05-01 12:37:48,"빌딩,건물||부동산||중개업||중개업-일반",False
3624,3625,3141259,뜨란채공인중개사사무소,뜨란채부동산,Tranchae Real Estate Broker Office,Professional and Other Places,Building,126.73317428486592,37.49152278104408,대한민국,KOR,KOR,인천광역시,부평구,,부평동,,충선로24번길,20-1,481-8,2021-12-23 15:49:18,"빌딩,건물||부동산||중개업||중개업-일반",False
3678,3679,3736716,서경공인중개사사무소,서경부동산,Seogyeong Real Estate Broker Office,Professional and Other Places,Building,126.67962985113088,37.5671205743466,대한민국,KOR,KOR,인천광역시,서구,,검암동,,검암로29번길,6-6,499-5,2021-12-23 15:49:18,"빌딩,건물||부동산||중개업||중개업-일반",False
3703,3704,27160164,대양촌감정평가사사무소,,Daeyangchon Appraiser Office,Professional and Other Places,Building,126.73686489920397,37.53550287728272,대한민국,KOR,KOR,인천광역시,계양구,,계산동,,계양문화로,54,1081-7,2022-05-01 12:37:48,"빌딩,건물||부동산||감정평가업||감정평가업-일반",False
3724,3725,4331596,영종하늘도시수공인중개사사무소,수공인중개사,Yeongjong Sky City Real Estate Broker Office,Professional and Other Places,Building,126.49415126719668,37.490307296625744,대한민국,KOR,KOR,인천광역시,중구,,운서동,,흰바위로92번길,6-2,3109-2,2022-08-08 10:29:42,"빌딩,건물||부동산||중개업||중개업-일반",False
3736,3737,2604496,희망공인중개사사무소,희망부동산,Hope Real Estate Broker Office,Professional and Other Places,Building,126.71471935511188,37.48238909831209,대한민국,KOR,KOR,인천광역시,부평구,,부평동,,경인로834번길,7,768-49,2022-05-01 12:37:48,"빌딩,건물||부동산||중개업||중개업-일반",False
3793,3794,5687637,부동산명가공인중개사사무소,명가부동산,Real Estate Agent Real Estate Agent Office,Professional and Other Places,Building,126.66406767273288,37.46826185614128,대한민국,KOR,KOR,인천광역시,미추홀구,,도화동,,석정로,258,103-27,2022-05-01 12:37:48,"빌딩,건물||부동산||중개업||중개업-일반",False
3806,3807,3670396,신동아공인중개사사무소,,Shin Dong-A Real Estate Broker Office,Professional and Other Places,Building,126.65358709243688,37.477281515804165,대한민국,KOR,KOR,인천광역시,미추홀구,,도화동,,송림로,178,982,2022-05-01 12:37:48,"빌딩,건물||부동산||중개업||중개업-일반",False
3835,3836,3129152,아이원공인중개사사무소,아이원공인중개사,i-one authorized real estate agent office,Professional and Other Places,Building,126.68151999999992,37.56807899999984,대한민국,KOR,KOR,인천광역시,서구,,검암동,,검암로40번길,5-1,502-6,2018-09-18 15:00:00,"빌딩,건물||부동산||중개업||중개업-일반",False
3836,3837,26983016,윤채부동산,,Yoon Chae Real Estate,Professional and Other Places,Building,126.63980967522276,37.53432402978586,대한민국,KOR,KOR,인천광역시,서구,,청라동,,크리스탈로102번길,25,150-1,2022-05-01 12:37:48,"빌딩,건물||부동산||중개업||중개업-일반",False
3871,3872,2609981,으뜸공인중개사사무소,으뜸부동산,Best Real Estate Broker Office,Professional and Other Places,Building,126.73655109999996,37.46579169999976,대한민국,KOR,KOR,인천광역시,남동구,,만수동,,만수로111번길,35,5-2,2021-12-23 15:49:18,"빌딩,건물||부동산||중개업||중개업-일반",False
3929,3930,2604393,21세기공인중개사사무소,21세기부동산,21st Century Real Estate Broker Office,Professional and Other Places,Building,126.71684459999996,37.4849227999998,대한민국,KOR,KOR,인천광역시,부평구,,부평동,,경인로,867,756-67,2022-05-01 12:37:48,"빌딩,건물||부동산||중개업||중개업-일반",False
3987,3988,3132267,유림 공인중개사사무소,유림부동산,Yurim Real Estate Agency,Professional and Other Places,Building,126.6600173847689,37.60598178287554,대한민국,KOR,KOR,인천광역시,서구,,마전동,,완정로178번길,50,919-8,2020-01-14 0:00:00,"빌딩,건물||부동산||중개업||중개업-일반",False
4000,4001,2602530,행복가득공인중개사사무소,행복가득공인중개사,Happy Fully Certified Real Estate Broker Office,Professional and Other Places,Building,126.67394847590488,37.54708666350499,대한민국,KOR,KOR,인천광역시,서구,,심곡동,,승학로,278,238,2020-01-14 23:36:49,"빌딩,건물||부동산||중개업||중개업-일반",False
4017,4018,2612583,강화도공인중개사사무소,강화도공인중개사,Ganghwa Province Real Estate Broker Office,Professional and Other Places,Building,126.50647189999987,37.739884599999904,대한민국,KOR,KOR,인천광역시,강화군,,강화읍,갑곳리,강화대로,210,627-1,2018-09-18 15:00:00,"빌딩,건물||부동산||중개업||중개업-일반",False
4097,4098,3126065,LBA영광공인중개사사무소,영광공인중개사,LBA Youngkwang Real Estate Broker Office,Professional and Other Places,Building,126.66285393794988,37.60384930633951,대한민국,KOR,KOR,인천광역시,서구,,마전동,,검단로,532,988-7,2022-05-01 12:37:48,"빌딩,건물||부동산||중개업||중개업-일반",False
4165,4166,2687787,덕진공인중개사사무소,덕진부동산,Deokjin Real Estate Agency,Professional and Other Places,Building,126.52065979999986,37.650623799999856,대한민국,KOR,KOR,인천광역시,강화군,,불은면,덕성리,해안동로,300-1,295-4,2021-12-23 15:49:18,"빌딩,건물||부동산||중개업||중개업-일반",False
4187,4188,5665372,해동부동산중개사무소,해동공인중개사,Haedong Real Estate brokerage office,Professional and Other Places,Building,126.71462892546089,37.45887413578918,대한민국,KOR,KOR,인천광역시,남동구,,구월동,,용천로,105,70-85,2019-11-14 23:28:26,"빌딩,건물||부동산||중개업||중개업-일반",False
4197,4198,3754110,하나공인중개사사무소,하나부동산,Hana Real Estate Broker Office,Professional and Other Places,Building,126.6714351468009,37.41838339272517,대한민국,KOR,KOR,인천광역시,연수구,,청학동,,함박뫼로,10,475,2022-05-01 12:37:48,"빌딩,건물||부동산||중개업||중개업-일반",False
4203,4204,2615861,동아공인중개사사무소,동아부동산,Dong-A Authorized Brokerage Office,Professional and Other Places,Building,126.73434579149254,37.5046543574364,대한민국,KOR,KOR,인천광역시,부평구,,부개동,,길주남로113번길,12,477-5,2022-05-01 12:37:48,"빌딩,건물||부동산||중개업||중개업-일반",False
4231,4232,2595045,경남아너스빌공인중개사사무소,경남아너스빌부동산,Gyeongnam Honorsville Real Estate Agency,Professional and Other Places,Building,126.7453741157028,37.5371408317832,대한민국,KOR,KOR,인천광역시,계양구,,서운동,,살라리로,7,180,2022-05-01 12:37:48,"빌딩,건물||부동산||중개업||중개업-일반",False
4303,4304,5717267,명성공인중개사,명성부동산,Reputable real estate agent,Professional and Other Places,Building,126.70391133444544,37.445195023605685,대한민국,KOR,KOR,인천광역시,남동구,,구월동,,성말로,30,1173-1,2022-08-02 16:47:12,"빌딩,건물||부동산||중개업||중개업-일반",False
4320,4321,3584434,무지개공인중개사사무소,무지개부동산,Rainbow Authorized Brokerage Office,Professional and Other Places,Building,126.66987689999996,37.401863799999774,대한민국,KOR,KOR,인천광역시,연수구,,동춘동,,원인재로,14,931,2022-05-01 12:37:48,"빌딩,건물||부동산||중개업||중개업-일반",False
4325,4326,4332712,학성부동산,학성공인중개사,Hakseong Real Estate,Professional and Other Places,Building,126.7149302391909,37.396529704155256,대한민국,KOR,KOR,인천광역시,남동구,,고잔동,,논현고잔로,153,161-1,2019-11-14 0:00:00,"빌딩,건물||부동산||중개업||중개업-일반",False
4327,4328,27103332,청라언덕공인중개사사무소,,Cheongna Hill Real Estate Agency,Professional and Other Places,Building,126.65308219999996,37.52876069999982,대한민국,KOR,KOR,인천광역시,서구,,청라동,,청라라임로,17,185-1,2022-05-23 11:08:19,"빌딩,건물||부동산||중개업||중개업-일반",False
4369,4370,3129601,월드공인중개사사무소,월드부동산,World Authorized Broker Office,Professional and Other Places,Building,126.74402799999991,37.52003399999978,대한민국,KOR,KOR,인천광역시,부평구,,삼산동,,영성로,41,389-11,2020-06-24 0:00:00,"빌딩,건물||부동산||중개업||중개업-일반",False
4511,4512,5708066,명품포레시안공인중개사사무소,휴먼시아부동산,Humansia Authorized Broker,Professional and Other Places,Building,126.73191519999995,37.46187999999977,대한민국,KOR,KOR,인천광역시,남동구,,만수동,,만수서로,53,1115-1,2022-07-05 16:31:26,"빌딩,건물||부동산||중개업||중개업-일반",False
4518,4519,2153891,태양공인중개사사무소,태양부동산,Solar Real Estate Broker Office,Professional and Other Places,Building,126.52812875675971,37.509017110960656,대한민국,KOR,KOR,인천광역시,중구,,운북동,,백운로228번길,60,114,2021-12-23 15:49:18,"빌딩,건물||부동산||중개업||중개업-일반",False
4543,4544,3123030,병방부동산,병방공인중개사,byeongbang Real Estate,Professional and Other Places,Building,126.74185429999996,37.546599099999824,대한민국,KOR,KOR,인천광역시,계양구,,병방동,,병방로,14,432-3,2022-05-01 12:37:48,"빌딩,건물||부동산||중개업||중개업-일반",False
4602,4603,27011242,우대빵부동산루원시티공인중개사사무소,,Woodae Bread Real Estate Luwon City Authorized Realtor Office,Professional and Other Places,Building,126.67011819999996,37.52425289999981,대한민국,KOR,KOR,인천광역시,서구,,가정동,,가정로,437,472-9,2022-09-06 15:18:26,"빌딩,건물||부동산||중개업||중개업-일반",False
4624,4625,3131528,돌고래부동산동인중개사사무소,돌고래부동산,Dolphin Real Estate Brokerage Office,Professional and Other Places,Building,126.67332599638792,37.560619843450176,대한민국,KOR,KOR,인천광역시,서구,,검암동,,승학로434번길,1,630-5,2022-05-01 12:37:48,"빌딩,건물||부동산||중개업||중개업-일반",False
4646,4647,2597057,보람공인중개사사무소,보람부동산,Boram Real Estate Broker Office,Professional and Other Places,Building,126.74146179999995,37.53505489999982,대한민국,KOR,KOR,인천광역시,계양구,,계산동,,용종로,14,1085-3,2018-09-18 15:00:00,"빌딩,건물||부동산||중개업||중개업-일반",False
4663,4664,5700739,동양공인중개사사무소,동양부동산,Oriental Real Estate Broker Office,Professional and Other Places,Building,126.53353044501976,37.49395305476775,대한민국,KOR,KOR,인천광역시,중구,,운남동,,운남로,181,1503-8,2021-12-23 15:49:18,"빌딩,건물||부동산||중개업||중개업-일반",False
4671,4672,3803670,세종공인중개사사무소,세종부동산,Sejong Authorized Brokerage Office,Professional and Other Places,Building,126.75212439999996,37.42130259999978,대한민국,KOR,KOR,인천광역시,남동구,,서창동,,서창남로,16-2,719-1,2022-08-08 10:29:42,"빌딩,건물||부동산||중개업||중개업-일반",False
4678,4679,4323578,가람 공인중개사사무소,가람 부동산,Garam Authorized Brokerage Office,Professional and Other Places,Building,126.64168240000186,37.397194300002624,대한민국,KOR,KOR,인천광역시,연수구,,송도동,,컨벤시아대로130번길,58,19-6,2019-09-25 9:45:13,"빌딩,건물||부동산||중개업||중개업-일반",False
4685,4686,4334595,목화부동산공인중개사사무소,목화공인중개사,Mokhwa Real Estate Broker Office,Professional and Other Places,Building,126.71103180859988,37.46595887187068,대한민국,KOR,KOR,인천광역시,남동구,,간석동,,백범로360번길,2,114-6,2022-05-01 12:37:48,"빌딩,건물||부동산||중개업||중개업-일반",False
4688,4689,2594441,논현114공인중개사사무소,논현114부동산,Nonhyeon 114 Real Estate Agency,Professional and Other Places,Building,126.7237398713216,37.40366132048095,대한민국,KOR,KOR,인천광역시,남동구,,논현동,,논현로,158,628-5,2022-08-18 12:00:50,"빌딩,건물||부동산||중개업||중개업-일반",False
4702,4703,27128222,미추홀공인중개사사무소,,Michuhol Authorized Brokerage Office,Professional and Other Places,Building,126.67880273672289,37.45999802588927,대한민국,KOR,KOR,인천광역시,미추홀구,,주안동,,미추홀대로697번길,22,204-2,2022-05-01 12:37:48,"빌딩,건물||부동산||중개업||중개업-일반",False
4731,4732,20008317,문화부동산공인중개사사무소,문화공인중개사,Cultural Real Estate Broker Office,Professional and Other Places,Building,126.72310100128092,37.4942290683432,대한민국,KOR,KOR,인천광역시,부평구,,부평동,,부평대로,32,212-70,2021-12-23 15:49:18,"빌딩,건물||부동산||중개업||중개업-일반",False
4762,4763,4343868,신도시공인중개사사무소,신도시부동산,New Urban Real Estate Broker Office,Professional and Other Places,Building,126.68562765585288,37.550678382746206,대한민국,KOR,KOR,인천광역시,서구,,공촌동,,경명대로694번길,13,307-31,2021-12-23 15:49:18,"빌딩,건물||부동산||중개업||중개업-일반",False
4827,4828,5711679,멘토공인중개사사무소,멘토부동산,Mentor Authorized Broker Office,Professional and Other Places,Building,126.65297639999994,37.53549519999982,대한민국,KOR,KOR,인천광역시,서구,,청라동,,청라라임로,85,160-1,2018-08-03 9:59:59,"빌딩,건물||부동산||중개업||중개업-일반",False
4884,4885,2617469,국민공인중개사사무소,국민공인중개사,National Real Estate Broker Office,Professional and Other Places,Building,126.72475079802092,37.40606760791113,대한민국,KOR,KOR,인천광역시,남동구,,논현동,,은봉로315번길,4,594-20,2022-08-18 12:00:50,"빌딩,건물||부동산||중개업||중개업-일반",False
4896,4897,2594706,행운공인중개사사무소,행운공인중개사,Lucky Real Estate Broker Office,Professional and Other Places,Building,126.67723179297217,37.59434025319668,대한민국,KOR,KOR,인천광역시,서구,,마전동,,원당대로685번길,5,1055-1,2022-08-16 16:52:33,"빌딩,건물||부동산||중개업||중개업-일반",False
4927,4928,3128374,미래부동산공인중개사사무소,미래공인중개사,Mirae Real Estate Real Estate Broker Office,Professional and Other Places,Building,126.6941800753199,37.47093735003719,대한민국,KOR,KOR,인천광역시,부평구,,십정동,,백범로,519,361-13,2019-11-14 23:28:00,"빌딩,건물||부동산||중개업||중개업-일반",False
4965,4966,27330053,밝은미래부동산공인중개사사무소,,Bright Future Real Estate Real Estate Agency,Professional and Other Places,Building,126.7098698999999,37.58511129999982,대한민국,KOR,KOR,인천광역시,서구,,당하동,,이음2로,30,558-2,2022-08-30 9:43:30,"빌딩,건물||부동산||중개업||중개업-일반",False
4969,4970,2597804,석사공인중개사사무소,석사부동산,Master's Real Estate Broker Office,Professional and Other Places,Building,126.7066896897425,37.444944450906426,대한민국,KOR,KOR,인천광역시,남동구,,구월동,,남동대로,701,1167,2022-05-01 12:37:48,"빌딩,건물||부동산||중개업||중개업-일반",False
5000,5001,4321831,현대 공인중개사사무소,현대공인중개사,Hyundai Real Estate Broker Office,Professional and Other Places,Building,126.69583549999994,37.40832089999978,대한민국,KOR,KOR,인천광역시,남동구,,논현동,,남동대로239번길,68,447-1,2022-05-01 12:37:48,"빌딩,건물||부동산||중개업||중개업-일반",False
5014,5015,5666971,현대부동산공인중개사사무소,현대공인중개사,Hyundai Real Estate Real Estate Broker Office,Professional and Other Places,Building,126.50732350075371,37.484766006837134,대한민국,KOR,KOR,인천광역시,중구,,운서동,,운서2로68번길,41,2888-4,2020-01-14 0:00:00,"빌딩,건물||부동산||중개업||중개업-일반",False
5034,5035,3130268,서해산업공인중개사사무소,서해공인중개사,Seohae Industrial Real Estate Broker Office,Professional and Other Places,Building,126.6652625900769,37.49241256839288,대한민국,KOR,KOR,인천광역시,서구,,가좌동,,염곡로,85,173-80,2022-08-08 10:29:42,"빌딩,건물||부동산||중개업||중개업-일반",False
5041,5042,3126497,황금공인중개사사무소,황금부동산,Golden Real Estate Broker Office,Professional and Other Places,Building,126.73963468720396,37.48819401924169,대한민국,KOR,KOR,인천광역시,부평구,,부개동,,수변로,17-1,289-9,2019-11-14 0:00:00,"빌딩,건물||부동산||중개업||중개업-일반",False
5044,5045,4345486,하늘부동산공인중개사사무소,하늘공인중개사,Sky Real Estate Real Estate Broker Office,Professional and Other Places,Building,126.67340920246689,37.4947588383134,대한민국,KOR,KOR,인천광역시,서구,,가좌동,,건지로284번길,50,144-16,2021-12-23 15:49:18,"빌딩,건물||부동산||중개업||중개업-일반",False
5045,5046,2601921,푸르지오공인중개사사무소,푸르지오부동산,PRUGIO Authorized Brokerage Office,Professional and Other Places,Building,126.67697169772036,37.59214803554431,대한민국,KOR,KOR,인천광역시,서구,,당하동,,청마로,166,1099-2,2022-08-08 10:29:42,"빌딩,건물||부동산||중개업||중개업-일반",False
5053,5054,3126071,현대공인중개사사무소,현대공인중개사,Hyundai Real Estate Broker Office,Professional and Other Places,Building,126.66517299999995,37.59990199999984,대한민국,KOR,KOR,인천광역시,서구,,마전동,,완정로92번길,13,652-13,2022-05-01 12:37:48,"빌딩,건물||부동산||중개업||중개업-일반",False
5058,5059,27069378,부평역파크드림단지내공인중개사사무소,,Bupyeong Station Park Dream Complex Real Estate Agent Office,Professional and Other Places,Building,126.72717299999996,37.4852224999998,대한민국,KOR,KOR,인천광역시,부평구,,부평동,,동수로,80,995,2022-05-01 12:37:48,"빌딩,건물||부동산||중개업||중개업-일반",False
5106,5107,2599791,우진 부동산,우진부동산,Woojin Real Estate,Professional and Other Places,Building,126.69570848123088,37.44560448063265,대한민국,KOR,KOR,인천광역시,남동구,,구월동,,문화서로4번길,5-4,1396-8,2021-12-23 15:49:18,"빌딩,건물||부동산||중개업||중개업-일반",False
5262,5263,5676066,해피공인중개사사무소,해피공인중개사,Happy Real Estate Broker Office,Professional and Other Places,Building,126.50871445126705,37.48330304878765,대한민국,KOR,KOR,인천광역시,중구,,운서동,,운서2로68번길,21,2902-6,2022-08-08 10:29:42,"빌딩,건물||부동산||중개업||중개업-일반",False
5383,5384,2593979,부평우미린부동산공인중개사사무소,부평공인중개사,Bupyeong Woomirin Real Estate Real Estate Agency,Professional and Other Places,Building,126.73290669999996,37.501037899999794,대한민국,KOR,KOR,인천광역시,부평구,,부평동,,부흥북로,95,98-101,2021-12-23 15:49:18,"빌딩,건물||부동산||중개업||중개업-일반",False
5418,5419,27123088,삼성공인중개사사무소,,Samsung Real Estate Broker Office,Professional and Other Places,Building,126.73084241264296,37.49168229178788,대한민국,KOR,KOR,인천광역시,부평구,,부평동,,충선로,5,509-9,2022-08-24 14:41:06,"빌딩,건물||부동산||중개업||중개업-일반",False
5516,5517,27495712,미소부동산,,Smile Real Estate,Professional and Other Places,Building,126.72151413341696,37.54558263738484,대한민국,KOR,KOR,인천광역시,계양구,,계산동,,경명대로1029번길,20,931,2022-08-26 9:52:19,"빌딩,건물||부동산||중개업||중개업-일반",False
5519,5520,27426356,본동양부동산,,Bondong Real Estate,Professional and Other Places,Building,126.50294189014086,37.499585136446704,대한민국,KOR,KOR,인천광역시,중구,,운서동,,운서로63번길,29,3051-10,2022-08-08 10:29:42,"빌딩,건물||부동산||중개업||중개업-일반",False
5611,5612,27184041,행운공인중개사사무소,,Lucky Real Estate Broker Office,Professional and Other Places,Building,126.69514359161688,37.40962114039275,대한민국,KOR,KOR,인천광역시,남동구,,논현동,,남동서로236번길,30,448,2022-05-01 12:37:48,"빌딩,건물||부동산||중개업||중개업-일반",False
5623,5624,4329440,홈플러스부동산,홈플러스공인중개사,Homeplus real estate,Professional and Other Places,Building,126.6660933532319,37.45622989385608,대한민국,KOR,KOR,인천광역시,미추홀구,,주안동,,경인북길331번길,4,586-6,2021-12-23 15:49:18,"빌딩,건물||부동산||중개업||중개업-일반",False
5733,5734,5670293,윤부동산공인중개사사무소,윤공인중개사,Yoonbu Realty Real Estate Broker Office,Professional and Other Places,Building,126.48308179999984,37.7349587999999,대한민국,KOR,KOR,인천광역시,강화군,,강화읍,남산리,충렬사로,57,345-1,2022-05-01 12:37:48,"빌딩,건물||부동산||중개업||중개업-일반",False
5735,5736,3130798,대승공인중개사,대승부동산,Daeseung Authorized Broker,Professional and Other Places,Building,126.72308860015092,37.50164620057589,대한민국,KOR,KOR,인천광역시,부평구,,부평동,,부흥북로,9,433-126,2021-12-23 15:49:18,"빌딩,건물||부동산||중개업||중개업-일반",False
5863,5864,4335918,프리쌍뜨공인중개사사무소,프리상뜨부동산,Freessant Real Estate Agency,Professional and Other Places,Building,126.70739939999994,37.4980852999998,대한민국,KOR,KOR,인천광역시,부평구,,산곡동,,마장로220번길,65,233-26,2018-09-18 0:00:00,"빌딩,건물||부동산||중개업||중개업-일반",False
5875,5876,2610579,참조은공인중개사사무소,참조은부동산,Reference Eun Real Real Estate Broker Office,Professional and Other Places,Building,126.68393247828116,37.56591006094364,대한민국,KOR,KOR,인천광역시,서구,,검암동,,검암로10번길,39,512-2,2022-09-06 15:18:26,"빌딩,건물||부동산||중개업||중개업-일반",False
5913,5914,27426541,수자부동산공인중개사사무소,수자공인중개사,Suja Real Estate Broker Office,Professional and Other Places,Building,126.50804636261871,37.482623139372635,대한민국,KOR,KOR,인천광역시,중구,,운서동,,영종대로327번길,12-2,2926-1,2022-08-08 10:29:42,"빌딩,건물||부동산||중개업||중개업-일반",False
5995,5996,4329072,희망부동산공인중개사사무소,희망부동산,Hope Real Estate Broker Office,Professional and Other Places,Building,126.69778992501392,37.44708418290846,대한민국,KOR,KOR,인천광역시,남동구,,구월동,,문화로89번길,23,1371-3,2022-09-06 15:18:26,"빌딩,건물||부동산||중개업||중개업-일반",False
6007,6008,27552541,엘리트공인중개사사무소,,Elite Real Estate Broker Office,Professional and Other Places,Building,126.56009673565887,37.48628066546078,대한민국,KOR,KOR,인천광역시,중구,,중산동,,하늘달빛로,90-27,1876-8,2022-09-06 15:18:26,"빌딩,건물||부동산||중개업||중개업-일반",False
6111,6112,4339767,아르떼 공인중개사사무소,아르떼부동산,Arte Authorized Brokerage Office,Professional and Other Places,Building,126.65374939999992,37.4664707999998,대한민국,KOR,KOR,인천광역시,미추홀구,,숭의동,,경인로,99,78-9,2018-08-11 9:09:09,"빌딩,건물||부동산||중개업||중개업-일반",False
6122,6123,27017876,SK진공인중개사사무소,,SK vacuum brokerage office,Professional and Other Places,Building,126.67165483335287,37.52261936428312,대한민국,KOR,KOR,인천광역시,서구,,가정동,,,,479-13,2022-08-30 9:43:30,"빌딩,건물||부동산||중개업||중개업-일반",False
6230,6231,5670382,좋은땅공인중개사사무소,좋은땅부동산,Good Land Real Estate Broker Office,Professional and Other Places,Building,126.41170272424856,37.44472413906011,대한민국,KOR,KOR,인천광역시,중구,,남북동,,남북로6번길,66,461-2,2020-01-14 23:21:05,"빌딩,건물||부동산||중개업||중개업-일반",False
6258,6259,4343688,대성공인중개사사무소,대성부동산,Daesung Real Estate Agency,Professional and Other Places,Building,126.72782548951592,37.5361626823065,대한민국,KOR,KOR,인천광역시,계양구,,작전동,,주부토로,469,857-49,2019-11-14 23:26:18,"빌딩,건물||부동산||중개업||중개업-일반",False
6315,6316,4340273,화도공인중개사사무소,화도공인중개사사무소,Hwado Authorized  Brokerage Office,Professional and Other Places,Building,126.6330365658618,37.48316115658845,대한민국,KOR,KOR,인천광역시,동구,,화수동,,화수로,46,2-7,2022-05-01 12:37:48,"빌딩,건물||부동산||중개업||중개업-일반",False
6326,6327,6230220,태성공인중개사사무소,태성부동산,Taesung Real Estate Agency,Professional and Other Places,Building,126.70788849484119,37.3952487774507,대한민국,KOR,KOR,인천광역시,남동구,,고잔동,,논현고잔로109번길,106,256-5,2022-05-01 12:37:48,"빌딩,건물||부동산||중개업||중개업-일반",False
6357,6358,3116344,제일공인중개사사무소,제일부동산,Jeil Authorized Brokerage Office,Professional and Other Places,Building,126.70029399999994,37.42160899999977,대한민국,KOR,KOR,인천광역시,연수구,,선학동,,선학로,37,340,2022-05-01 12:37:48,"빌딩,건물||부동산||중개업||중개업-일반",False
6414,6415,5705297,예성공인중개사사무소,예성부동산,Yesung Realtor Office,Professional and Other Places,Building,126.64688359701088,37.46427376711917,대한민국,KOR,KOR,인천광역시,미추홀구,,숭의동,,경인로33번길,6,148-27,2019-11-14 23:29:13,"빌딩,건물||부동산||중개업||중개업-일반",False
6416,6417,27258829,에이티부동산중개법인,,AT Real Estate Brokerage Corporation,Professional and Other Places,Building,126.66518999999997,37.38048599999977,대한민국,KOR,KOR,인천광역시,연수구,,송도동,,송도과학로,70,172-5,2022-08-02 16:47:12,"빌딩,건물||부동산||부동산-일반",False
6448,6449,4337018,길 공인중개사사무소,길부동산,Gilgong Real Estate Broker Office,Professional and Other Places,Building,126.73265209999995,37.53312049999981,대한민국,KOR,KOR,인천광역시,계양구,,작전동,,봉오대로743번길,29,64-1,2018-09-18 15:00:00,"빌딩,건물||부동산||중개업||중개업-일반",False
6501,6502,27417643,키움부동산공인중개사사무소,,Kiwoom Real Estate Real Estate Agency,Professional and Other Places,Building,126.70226730135887,37.47247390132657,대한민국,KOR,KOR,인천광역시,부평구,,십정동,,동암광장로14번길,25-5,402-22,2022-08-02 16:47:12,"빌딩,건물||부동산||중개업||중개업-일반",False
6507,6508,4327831,성실공인중개사사무소,성실부동산,Sincere Real Estate Broker Office,Professional and Other Places,Building,126.6505974601379,37.468490081125765,대한민국,KOR,KOR,인천광역시,미추홀구,,숭의동,,석정로,138,87-11,2021-12-23 15:49:18,"빌딩,건물||부동산||중개업||중개업-일반",False
6552,6553,5664293,한샘공인중개사,한샘부동산,Hanssem Authorized Broker,Professional and Other Places,Building,126.7161336037759,37.39698624443136,대한민국,KOR,KOR,인천광역시,남동구,,고잔동,,논현고잔로,166,138-14,2019-11-14 23:27:29,"빌딩,건물||부동산||중개업||중개업-일반",False
6574,6575,5691642,대우부동산공인중개사사무소,대우공인중개사,Daewoo Real Estate Broker Office,Professional and Other Places,Building,126.74005795859294,37.491555665450576,대한민국,KOR,KOR,인천광역시,부평구,,부개동,,수변로57번길,9,513,2019-11-14 23:29:26,"빌딩,건물||부동산||중개업||중개업-일반",False
6578,6579,3273290,토가부동산,토가공인중개사,TogaReal Estate,Professional and Other Places,Building,126.41754939999979,37.60850489999984,대한민국,KOR,KOR,인천광역시,강화군,,화도면,흥왕리,해안남로,1912,566-1,2022-05-01 12:37:48,"빌딩,건물||부동산||중개업||중개업-일반",False
6586,6587,27261224,중개법인 인더스부동산,,Brokerage Indus Real Estate,Professional and Other Places,Building,126.69521589999997,37.40566249999977,대한민국,KOR,KOR,인천광역시,남동구,,고잔동,,은청로,26-18,634-4,2022-05-09 18:01:21,"빌딩,건물||부동산||중개업||중개업-일반",False
6626,6627,3118853,한국공인중개사사무소,한국부동산,Korea Real Estate Broker Office,Professional and Other Places,Building,126.65017299999997,37.424368999999786,대한민국,KOR,KOR,인천광역시,연수구,,옥련동,,청량로199번길,29,642-1,2022-05-01 12:37:48,"빌딩,건물||부동산||중개업||중개업-일반",False
6629,6630,5700194,바른공인중개사사무소,바른부동산,Barun Real Estate Broker Office,Professional and Other Places,Building,126.7207763341527,37.49141374138165,대한민국,KOR,KOR,인천광역시,부평구,,부평동,,경원대로,1367,341-25,2022-05-01 12:37:48,"빌딩,건물||부동산||중개업||중개업-일반",False
6703,6704,4345852,신성공인중개사사무소,신성부동산,Shinsung Real Estate Broker Office,Professional and Other Places,Building,126.73194207090894,37.46077644162708,대한민국,KOR,KOR,인천광역시,남동구,,만수동,,백범로180번길,86,74-2,2021-12-23 15:49:18,"빌딩,건물||부동산||중개업||중개업-일반",False
6735,6736,2611403,우리공인중개사사무소,우리부동산,Woori Authorized Brokerage Office,Professional and Other Places,Building,126.68252549101192,37.437548991889656,대한민국,KOR,KOR,인천광역시,미추홀구,,문학동,,소성로318번길,4,368-13,2022-05-01 12:37:48,"빌딩,건물||부동산||중개업||중개업-일반",False
6742,6743,2604229,육일공인중개사사무소,육일부동산,Yukil Real Estate Broker Office,Professional and Other Places,Building,126.7135246725189,37.5278004413213,대한민국,KOR,KOR,인천광역시,계양구,,효성동,,효서로,160,242-11,2019-08-08 23:02:27,"빌딩,건물||부동산||중개업||중개업-일반",False
6809,6810,4332702,굿모닝공인중개사사무소,굿모닝부동산,Good Morning Authorized Brokerage Office,Professional and Other Places,Building,126.68749615697088,37.44768852550176,대한민국,KOR,KOR,인천광역시,미추홀구,,주안동,,인하로352번길,7,1525-2,2022-05-01 12:37:48,"빌딩,건물||부동산||중개업||중개업-일반",False
6812,6813,26797119,삼비개발,,sambi Development,Professional and Other Places,Building,126.64726299999884,37.36661699991885,대한민국,KOR,KOR,인천광역시,연수구,,송도동,,송도미래로,30,214,2022-05-18 1:22:56,"빌딩,건물||부동산||중개업||중개업-일반",False
6825,6826,2616359,하나공인중개사사무소,하나로부동산,Hana Real Estate Broker Office,Professional and Other Places,Building,126.70947342943336,37.469305423036445,대한민국,KOR,KOR,인천광역시,남동구,,간석동,,간석로11번길,28,76-55,2022-05-01 12:37:48,"빌딩,건물||부동산||중개업||중개업-일반",False
6834,6835,3897768,부동산명가공인중개사사무소,부동산명가부동산,Real Estate Agent Real Estate Agent Office,Professional and Other Places,Building,126.5599819387924,37.48540215541102,대한민국,KOR,KOR,인천광역시,중구,,중산동,,하늘달빛로64번길,4,1873-23,2022-08-08 10:29:42,"빌딩,건물||부동산||중개업||중개업-일반",False
6942,6943,4329445,행운부동산공인중개사사무소,행운공인중개사,Lucky Real Estate Real Estate Broker Office,Professional and Other Places,Building,126.70829168247896,37.46926169811269,대한민국,KOR,KOR,인천광역시,남동구,,간석동,,풀무로,2,73-3,2022-09-06 15:18:26,"빌딩,건물||부동산||중개업||중개업-일반",False
6946,6947,4337849,베스트공인중개사사무소,베스트부동산,Best Real Estate Broker Office,Professional and Other Places,Building,126.72611523236492,37.53410864731312,대한민국,KOR,KOR,인천광역시,계양구,,작전동,,주부토로413번길,35,860,2021-12-23 15:49:18,"빌딩,건물||부동산||중개업||중개업-일반",False
6983,6984,27495125,힐부동산,,Hill Real Estate,Professional and Other Places,Building,126.67266913242196,37.509366293278525,대한민국,KOR,KOR,인천광역시,서구,,석남동,,가정로,276,509-1,2022-08-24 14:41:06,"빌딩,건물||부동산||중개업||중개업-일반",False
6995,6996,3135191,마젤란공인중개사사무소,마젤란부동산,Magellan Real Estate Agency,Professional and Other Places,Building,126.73083990299592,37.49895279583812,대한민국,KOR,KOR,인천광역시,부평구,,부평동,,장제로,150,126-9,2021-12-23 15:49:18,"빌딩,건물||부동산||중개업||중개업-일반",False
7117,7118,4361951,LG공인중개사무소,LG부동산,LG Authorized Brokerage Office,Professional and Other Places,Building,126.68560450001588,37.43747200102575,대한민국,KOR,KOR,인천광역시,미추홀구,,문학동,,소성로,343,385-12,2022-05-01 12:37:48,"빌딩,건물||부동산||중개업||중개업-일반",False
7151,7152,2604275,영풍부동산,영풍공인중개사,Youngpoong Real Estate,Professional and Other Places,Building,126.72320158300693,37.46078941056048,대한민국,KOR,KOR,인천광역시,남동구,,만수동,,백범로,236,850,2019-11-14 23:12:44,"빌딩,건물||부동산||중개업||중개업-일반",False
7180,7181,27183367,다이아공인중개사사무소,,DIA Authorized Brokerage Office,Professional and Other Places,Building,126.64171649999996,37.39717929999978,대한민국,KOR,KOR,인천광역시,연수구,,송도동,,컨벤시아대로130번길,58,19-6,2022-05-13 10:36:55,"빌딩,건물||부동산||중개업||중개업-일반",False
7182,7183,27113422,울림공인중개사사무소,울림공인중개사사무소,Woollim Real Estate Agency,Professional and Other Places,Building,126.7333327262032,37.50171678914286,대한민국,KOR,KOR,인천광역시,부평구,,부평동,,장제로184번길,42,98-8,2022-05-01 12:37:48,"빌딩,건물||부동산||중개업||중개업-일반",False
7215,7216,26946344,검단푸르지오럭키공인중개사사무소,,Geomdan Prugio Lucky Real Estate Broker Office,Professional and Other Places,Building,126.71066139999992,37.59722169999985,대한민국,KOR,KOR,인천광역시,서구,,원당동,,이음6로,33,1018,2021-12-13 0:00:00,"빌딩,건물||부동산||중개업||중개업-일반",False
7259,7260,2601049,희망공인중개사사무소,희망부동산,Hope Real Estate Broker Office,Professional and Other Places,Building,126.72487692523292,37.45469590364426,대한민국,KOR,KOR,인천광역시,남동구,,만수동,,구월말로,65-1,912-8,2019-11-14 0:00:00,"빌딩,건물||부동산||중개업||중개업-일반",False
7426,7427,27235930,송도뛰어라부동산 공인중개사사무소,송도뛰어라부동산공인중개사사무소,Songdo Run Real Estate Real Estate Agency,Professional and Other Places,Building,126.62131319999992,37.401442299999765,대한민국,KOR,KOR,인천광역시,연수구,,송도동,,아카데미로312번길,177,397-11,2022-05-23 11:08:19,"빌딩,건물||부동산||중개업||중개업-일반",False
7509,7510,4338010,삼성공인중개사사무소,삼성부동산,Samsung Real Estate Broker Office,Professional and Other Places,Building,126.6727384725608,37.495883844735296,대한민국,KOR,KOR,인천광역시,서구,,가좌동,,가정로126번길,9,140-42,2022-05-01 12:37:48,"빌딩,건물||부동산||중개업||중개업-일반",False
7537,7538,2600640,엘리트공인중개사사무소,엘리트부동산,Elite Real Estate Broker Office,Professional and Other Places,Building,126.68628409157992,37.42491420464707,대한민국,KOR,KOR,인천광역시,연수구,,연수동,,함박로83번길,4,528,2022-05-01 12:37:48,"빌딩,건물||부동산||중개업||중개업-일반",False
7574,7575,27046103,JH공인중개사사무소,JH공인중개사사무소,JH Real Estate Broker Office,Professional and Other Places,Building,126.71492217262788,37.507501599090176,대한민국,KOR,KOR,인천광역시,부평구,,청천동,,길주로494번길,12,259,2022-08-08 10:29:42,"빌딩,건물||부동산||중개업||중개업-일반",False
7616,7617,27184754,그랑힐스공인중개사사무소,,Gran Hills Real Estate Agency,Professional and Other Places,Building,126.70273559999994,37.5208507999998,대한민국,KOR,KOR,인천광역시,부평구,,청천동,,평천로,96,13-18,2022-08-12 13:15:03,"빌딩,건물||부동산||중개업||중개업-일반",False
7621,7622,3443585,두드림공인중개사사무소,두드림공인중개사,Do Dream Real Estate Agency,Professional and Other Places,Building,126.64356899999996,37.40168299999977,대한민국,KOR,KOR,인천광역시,연수구,,송도동,,컨벤시아대로42번길,77,16-6,2018-09-18 15:00:00,"빌딩,건물||부동산||중개업||중개업-일반",False
7721,7722,27069617,세종공인중개사사무소,,Sejong Authorized Brokerage Office,Professional and Other Places,Building,126.62692365282184,37.52246931599159,대한민국,KOR,KOR,인천광역시,서구,,청라동,,보석로18번안길,31,104-114,2022-05-01 12:37:48,"빌딩,건물||부동산||중개업||중개업-일반",False
7800,7801,27127680,리가스퀘어공인중개사사무소,,Riga Square Authorized Realtor,Professional and Other Places,Building,126.6826291124469,37.46350189706367,대한민국,KOR,KOR,인천광역시,미추홀구,,주안동,,주안로,116,132,2022-08-08 10:29:42,"빌딩,건물||부동산||중개업||중개업-일반",False
7836,7837,27090362,그린공인중개사사무소,,Green Real Estate Broker Office,Professional and Other Places,Building,126.73822565352296,37.545558619877205,대한민국,KOR,KOR,인천광역시,계양구,,임학동,,장제로875번길,6,10-22,2022-05-01 12:37:48,"빌딩,건물||부동산||중개업||중개업-일반",False
7856,7857,20201358,한라비발디공인중개사사무소,한라비발디부동산,Halla Vivaldi Authorized Brokerage Office,Professional and Other Places,Building,126.72582569712291,37.48874286134859,대한민국,KOR,KOR,인천광역시,부평구,,부평동,,동수북로,176,604-4,2022-05-18 1:22:57,"빌딩,건물||부동산||중개업||중개업-일반",False
7860,7861,27113139,영종도114부동산공인중개사사무소,영종도114공인중개사,Yeongjongdo 114 Real Estate Agent Office,Professional and Other Places,Building,126.49877969999984,37.49226509999979,대한민국,KOR,KOR,인천광역시,중구,,운서동,,영종대로,184,3088-3,2022-05-01 12:37:48,"빌딩,건물||부동산||중개업||중개업-일반",False
7874,7875,1267282,어울림공인중개사사무소,스타공인중개사,Oullim Real Estate Broker Office,Professional and Other Places,Building,126.73318657438251,37.50462321413388,대한민국,KOR,KOR,인천광역시,부평구,,부개동,,길주남로101번길,10,484,2022-05-01 12:37:48,"빌딩,건물||부동산||중개업||중개업-일반",False
7892,7893,27063314,캠퍼스공인중개사사무소,캠퍼스부동산,Campus Real Estate Agency,Professional and Other Places,Building,126.6594697041549,37.45057608048457,대한민국,KOR,KOR,인천광역시,미추홀구,,용현동,,인하로,101,187-19,2022-05-01 12:37:48,"빌딩,건물||부동산||중개업||중개업-일반",False
7894,7895,5866103,송도나라공인중개사사무소,송도나라공인중개사사무소,Songdo Nara Real Estate Agency,Professional and Other Places,Building,126.65543683707288,37.37659253245974,대한민국,KOR,KOR,인천광역시,연수구,,송도동,,송도문화로28번길,28,190-2,2022-08-16 16:52:33,"빌딩,건물||부동산||중개업||중개업-일반",False
7986,7987,27214459,복플러스공인중개사사무소,,Bok Plus Real Estate Broker Office,Professional and Other Places,Building,126.68655172868687,37.45785287443245,대한민국,KOR,KOR,인천광역시,미추홀구,,주안동,,경인로,418,302-21,2022-05-01 12:37:48,"빌딩,건물||부동산||중개업||중개업-일반",False
8000,8001,27358268,학사공인중개사사무소,,Bachelor's Office,Professional and Other Places,Building,126.71451403023028,37.45598310790031,대한민국,KOR,KOR,인천광역시,남동구,,구월동,,구월로,212,23,2022-06-29 11:25:35,"빌딩,건물||부동산||중개업||중개업-일반",False
8003,8004,4359341,샘공인중개사사무소,샘부동산,Sam Authorized Brokerage Office,Professional and Other Places,Building,126.67226525885089,37.516273329674384,대한민국,KOR,KOR,인천광역시,서구,,신현동,,가정로351번길,6,283-12,2020-01-14 0:00:00,"빌딩,건물||부동산||중개업||중개업-일반",False
8008,8009,20202206,남동대표부동산,남동대표공인중개사,Namdong representative real estate,Professional and Other Places,Building,126.69492559806596,37.40915167426367,대한민국,KOR,KOR,인천광역시,남동구,,논현동,,남동대로239번길,72-29,449-2,2022-08-02 16:47:12,"빌딩,건물||부동산||중개업||중개업-일반",False
8025,8026,2688759,강화섬 공인중개사사무소,강화섬부동산,Ganghwa Island Authorized Brokerage Office,Professional and Other Places,Building,126.50720739999984,37.59729939999984,대한민국,KOR,KOR,인천광역시,강화군,,길상면,선두리,해안남로,514,1073,2021-12-23 15:49:18,"빌딩,건물||부동산||중개업||중개업-일반",False
8067,8068,5705227,랜드공인중개사사무소,랜드부동산,Land Real Estate Broker Office,Professional and Other Places,Building,126.73035507000792,37.45491988367788,대한민국,KOR,KOR,인천광역시,남동구,,만수동,,구월로,358,948-7,2022-05-01 12:37:48,"빌딩,건물||부동산||중개업||중개업-일반",False
8071,8072,2605066,라인부동산공인중개사사무소,수석부동산,LINE Real Estate Broker Office,Professional and Other Places,Building,126.71927615532388,37.542632291382304,대한민국,KOR,KOR,인천광역시,계양구,,계산동,,계산천서로4번길,1,978-19,2022-07-05 16:31:26,"빌딩,건물||부동산||중개업||중개업-일반",False
8082,8083,3119809,파트너부동산,파트너공인중개사,Partner Real Estate,Professional and Other Places,Building,126.71447765695191,37.45174958842538,대한민국,KOR,KOR,인천광역시,남동구,,구월동,,용천로,24,1225-14,2019-11-14 23:25:05,"빌딩,건물||부동산||중개업||중개업-일반",False
8166,8167,26946539,검단스타공인중개사사무소,,Geomdan Star Authorized Real Estate Agency,Professional and Other Places,Building,126.71405449999988,37.59465139999983,대한민국,KOR,KOR,인천광역시,서구,,원당동,,,,489-3,2022-08-30 9:43:30,"빌딩,건물||부동산||중개업||중개업-일반",False
8266,8267,5680038,성심공인중개사사무소,성심공인중개사,Sungshim Real Estate Broker Office,Professional and Other Places,Building,126.65238211285389,37.456922557998176,대한민국,KOR,KOR,인천광역시,미추홀구,,용현동,,인주대로137번길,7,453-213,2020-01-15 0:00:00,"빌딩,건물||부동산||중개업||중개업-일반",False
8277,8278,6226430,전원부동산,전원공인중개사,power real estate,Professional and Other Places,Building,126.54596855403176,37.49946403859026,대한민국,KOR,KOR,인천광역시,중구,,중산동,,백운로83번길,14-13,1391-2,2021-12-23 15:49:18,"빌딩,건물||부동산||중개업||중개업-일반",False
8297,8298,2607570,e조은공인중개사사무소,이조은부동산,e-Joeun Real Estate Agency,Professional and Other Places,Building,126.67730263650192,37.498603019899086,대한민국,KOR,KOR,인천광역시,서구,,가좌동,,건지로318번길,2,171-1,2022-08-24 14:41:06,"빌딩,건물||부동산||중개업||중개업-일반",False
8327,8328,4337921,영주부동산,영주공인중개사,YeongjuReal Estate,Professional and Other Places,Building,126.68464774097188,37.487396604781495,대한민국,KOR,KOR,인천광역시,서구,,가좌동,,고래울로20번길,1,340,2020-01-14 0:00:00,"빌딩,건물||부동산||중개업||중개업-일반",False
8363,8364,5703105,마루공인중개사사무소,마루부동산,Maru Certified Real Estate Broker Office,Professional and Other Places,Building,126.65034205680487,37.477284084026174,대한민국,KOR,KOR,인천광역시,동구,,송림동,,송림로,142,29-4,2022-05-01 12:37:48,"빌딩,건물||부동산||중개업||중개업-일반",False
8410,8411,3116225,동아공인중개사사무소,동아부동산,Dong-A Authorized Brokerage Office,Professional and Other Places,Building,126.71686497155999,37.53216928991115,대한민국,KOR,KOR,인천광역시,계양구,,효성동,,새벌로171번길,5,8-20,2022-08-08 10:29:42,"빌딩,건물||부동산||중개업||중개업-일반",False
8539,8540,6232745,대진공인중개사,대진부동산,Daejin real estate agent,Professional and Other Places,Building,126.7105978727899,37.48834771012768,대한민국,KOR,KOR,인천광역시,부평구,,부평동,,경원대로1256번길,21,283-113,2019-11-14 0:00:00,"빌딩,건물||부동산||중개업||중개업-일반",False
8582,8583,4338020,예담공인중개사사무소,예담공인중개사,Yedam Real Estate Agency,Professional and Other Places,Building,126.65005403032784,37.39511057309404,대한민국,KOR,KOR,인천광역시,연수구,,송도동,,컨벤시아대로,81,3-2,2020-01-14 23:22:24,"빌딩,건물||부동산||중개업||중개업-일반",False
8593,8594,5679438,수복부동산,수복공인중개사,Restoration Real Estate,Professional and Other Places,Building,126.64542839999994,37.4739355999998,대한민국,KOR,KOR,인천광역시,동구,,송림동,,금곡로91번길,1,67-10,2021-12-23 15:49:18,"빌딩,건물||부동산||중개업||중개업-일반",False
8635,8636,2152367,길상공인중개사,길상부동산,Gilsang Real Estate Broker,Professional and Other Places,Building,126.49333399999983,37.63854699999985,대한민국,KOR,KOR,인천광역시,강화군,,길상면,온수리,길상로,308,538-17,2022-08-08 10:29:42,"빌딩,건물||부동산||중개업||중개업-일반",False
8644,8645,5711006,주안역센트레빌베스트공인중개사사무소,베스트부동산,Juan Station Centerville Best Authorized Realtor Office,Professional and Other Places,Building,126.68386654101988,37.466757858401785,대한민국,KOR,KOR,인천광역시,미추홀구,,주안동,,석정로,433,18-28,2022-05-01 12:37:48,"빌딩,건물||부동산||중개업||중개업-일반",False
8665,8666,6209665,지오부동산,지오공인중개사,Geo real estate,Professional and Other Places,Building,126.64889071761387,37.48186382280336,대한민국,KOR,KOR,인천광역시,동구,,송림동,,송미로,22,8-670,2020-01-14 23:36:32,"빌딩,건물||부동산||중개업||중개업-일반",False
8686,8687,20062504,부동산써브 공인중개사 검단점,,Real Estate Sub Gumdanjeom Accredited Broker,Professional and Other Places,Building,126.65541464510999,37.601450719723154,대한민국,KOR,KOR,인천광역시,서구,,왕길동,,검단로,457,641-12,2022-08-24 14:41:06,"빌딩,건물||부동산||중개업||프랜차이즈||부동산써브",False
8773,8774,27162777,현대1차공인중개사사무소,,Hyundai 1st Certified Real Estate Broker Office,Professional and Other Places,Building,126.6758448860459,37.40497145451216,대한민국,KOR,KOR,인천광역시,연수구,,동춘동,,원인재로,56,928,2022-05-01 12:37:48,"빌딩,건물||부동산||중개업||중개업-일반",False
8845,8846,27184912,좋은집부동산공인중개사사무소,,Good House Real Estate Broker Office,Professional and Other Places,Building,126.72872239999998,37.510127799999815,대한민국,KOR,KOR,인천광역시,부평구,,갈산동,,주부토로172번길,48,370-7,2022-06-29 11:25:35,"빌딩,건물||부동산||중개업||중개업-일반",False
8910,8911,4356117,부동산나라공인중개사사무소,나라부동산,Real Estate Nara Real Estate Broker Office,Professional and Other Places,Building,126.73307771720089,37.54448985042199,대한민국,KOR,KOR,인천광역시,계양구,,임학동,,임학서로,16-3,46-38,2022-05-01 12:37:48,"빌딩,건물||부동산||중개업||중개업-일반",False
8933,8934,4352740,삼성공인중개사사무소,대우공인중개사,Samsung Real Estate Broker Office,Professional and Other Places,Building,126.74209413703989,37.54826066677581,대한민국,KOR,KOR,인천광역시,계양구,,병방동,,장제로920번길,7,118-10,2022-05-01 12:37:48,"빌딩,건물||부동산||중개업||중개업-일반",False
8951,8952,5710371,청라모아공인중개사사무소,청라모아부동산,Cheongna Moa Authorized Brokerage Office,Professional and Other Places,Building,126.62166169999992,37.53888569999984,대한민국,KOR,KOR,인천광역시,서구,,청라동,,비즈니스로,165,82-1,2022-05-01 12:37:48,"빌딩,건물||부동산||중개업||중개업-일반",False
9004,9005,2610005,부동산119,119부동산,Real Estate 119,Professional and Other Places,Building,126.7046934659286,37.46829333902259,대한민국,KOR,KOR,인천광역시,남동구,,간석동,,백범로422번길,12,234-5,2022-05-01 12:37:48,"빌딩,건물||부동산||중개업||중개업-일반",False
9032,9033,3591249,천지공인중개사사무소,천지공인중개사,Cheonji Real Estate Broker Office,Professional and Other Places,Building,126.70928648526288,37.48717216565389,대한민국,KOR,KOR,인천광역시,부평구,,부평동,,경원대로1240번길,12-3,278-55,2019-11-14 23:11:36,"빌딩,건물||부동산||중개업||중개업-일반",False
9111,9112,5710575,솔로몬 공인중개사사무소,솔로몬 부동산,Solomon Real Estate Broker Office,Professional and Other Places,Building,126.72225285077327,37.454423710171625,대한민국,KOR,KOR,인천광역시,남동구,,구월동,,호구포로810번길,52,1261-1,2022-05-01 12:37:48,"빌딩,건물||부동산||중개업||중개업-일반",False
9158,9159,4325183,이화공인중개사무소,이화부동산,Ewha Authorized Brokerage Office,Professional and Other Places,Building,126.68991950007188,37.46689740087167,대한민국,KOR,KOR,인천광역시,남동구,,간석동,,경원대로,943,616-7,2019-09-10 23:09:13,"빌딩,건물||부동산||중개업||중개업-일반",False
9168,9169,5665408,시대부동산중개인사무소,시대공인중개사,Daejeon Real Estate Broker Office,Professional and Other Places,Building,126.67152402626888,37.44872556144317,대한민국,KOR,KOR,인천광역시,미추홀구,,주안동,,인하로,211,734-4,2019-11-14 0:00:00,"빌딩,건물||부동산||중개업||중개업-일반",False
9174,9175,20464331,비둘기공인중개사,,Pigeon Authorized Broker,Professional and Other Places,Building,126.7252055199436,37.54572530834275,대한민국,KOR,KOR,인천광역시,계양구,,계산동,,하느재로,24-1,925-8,2022-05-01 12:37:48,"빌딩,건물||부동산||중개업||중개업-일반",False
9189,9190,4343535,행운공인중개사사무소,행운부동산,Lucky Real Estate Broker Office,Professional and Other Places,Building,126.67559018875288,37.50891389532338,대한민국,KOR,KOR,인천광역시,서구,,석남동,,신석로122번길,9-1,496-24,2021-12-23 15:49:18,"빌딩,건물||부동산||중개업||중개업-일반",False
9195,9196,5429329,예스부동산,예스공인중개사사무소,Yes Real Estate,Professional and Other Places,Building,126.49246444392568,37.492569747412254,대한민국,KOR,KOR,인천광역시,중구,,운서동,,흰바위로59번길,8,2807-4,2022-08-08 10:29:42,"빌딩,건물||부동산||중개업||중개업-일반",False
9203,9204,3671244,비룡공인중개사사무소,비룡부동산,Biryong Real Estate Broker Office,Professional and Other Places,Building,126.6618749539929,37.44992915104737,대한민국,KOR,KOR,인천광역시,미추홀구,,용현동,,인하로,123,80-38,2021-12-23 15:49:18,"빌딩,건물||부동산||중개업||중개업-일반",False
9250,9251,27043156,엘리트공인중개사,,elite real estate agent,Professional and Other Places,Building,126.7249287998169,37.5442212398625,대한민국,KOR,KOR,인천광역시,계양구,,계산동,,하느재로5번길,2,931-47,2022-05-01 12:37:48,"빌딩,건물||부동산||중개업||중개업-일반",False
9315,9316,2617611,뉴타운부동산,뉴타운공인중개사,New Town Real Estate,Professional and Other Places,Building,126.6864197845139,37.45532018590347,대한민국,KOR,KOR,인천광역시,미추홀구,,주안동,,경인로418번길,59,318-1,2021-12-23 15:49:18,"빌딩,건물||부동산||중개업||중개업-일반",False
9405,9406,577724,다온공인중개사사무소,공인중개사마트,Daon Real Estate Agency,Professional and Other Places,Building,126.67429459999988,37.42274699999976,대한민국,KOR,KOR,인천광역시,연수구,,연수동,,새말로,20,538,2022-05-01 12:37:48,"빌딩,건물||부동산||중개업||중개업-일반",False
9427,9428,3259582,진흥 공인중개사사무소,진흥부동산,Jinheung Real Estate Broker Office,Professional and Other Places,Building,126.72542355614456,37.44900658259465,대한민국,KOR,KOR,인천광역시,남동구,,구월동,,인주대로,793,1314-5,2022-05-01 12:37:48,"빌딩,건물||부동산||중개업||중개업-일반",False
9434,9435,3116076,대원 공인중개사 사무소,대원부동산,Daewon Real Estate Agency,Professional and Other Places,Building,126.72889134384792,37.45181607667816,대한민국,KOR,KOR,인천광역시,남동구,,만수동,,구월남로,351,938-10,2021-12-23 15:49:18,"빌딩,건물||부동산||중개업||중개업-일반",False
9447,9448,5723836,민성공인중개사사무소,민성부동산,Minsung Real Estate Broker Office,Professional and Other Places,Building,126.66734029999992,37.51907459999983,대한민국,KOR,KOR,인천광역시,서구,,신현동,,염곡로383번길,14,97-1,2021-12-23 15:49:18,"빌딩,건물||부동산||중개업||중개업-일반",False
9472,9473,4319192,두레부동산 김철수공인중개사사무소,두레부동산김철수부동산,Dure Real Estate  Kim Cheol-su Authorized Realtor Office,Professional and Other Places,Building,126.69570379999993,37.409103999999765,대한민국,KOR,KOR,인천광역시,남동구,,논현동,,남동대로239번길,72-20,448-2,2022-05-01 12:37:48,"빌딩,건물||부동산||중개업||중개업-일반",False
9542,9543,6209074,풍림부동산,풍림공인중개사,Poonglim Real Estate,Professional and Other Places,Building,126.63165918508386,37.46478545469635,대한민국,KOR,KOR,인천광역시,중구,,신흥동1가,,서해대로417번길,14,34-8,2020-01-14 23:36:32,"빌딩,건물||부동산||중개업||중개업-일반",False
9608,9609,27163727,송도킹부동산공인중개사사무소,송도킹공인중개사,Songdo King Real Estate Real Estate Agency,Professional and Other Places,Building,126.61708185336552,37.413302106480266,대한민국,KOR,KOR,인천광역시,연수구,,송도동,,랜드마크로,113,319-1,2022-08-08 10:29:42,"빌딩,건물||부동산||중개업||중개업-일반",False
9637,9638,27195496,영종스타공인중개사사무소,,Yeongjong Star Real Estate Agency,Professional and Other Places,Building,126.4976943091398,37.4950776825998,대한민국,KOR,KOR,인천광역시,중구,,운서동,,햇내로안길,5,3042-11,2022-05-01 12:37:48,"빌딩,건물||부동산||중개업||중개업-일반",False
9647,9648,27455474,효성해링턴공인중개사사무소,,Hyosung Harrington Real Estate Agency,Professional and Other Places,Building,126.65325815683096,37.45621276811719,대한민국,KOR,KOR,인천광역시,미추홀구,,용현동,,인주대로,148,451-63,2022-08-16 16:52:33,"빌딩,건물||부동산||중개업||중개업-일반",False
9712,9713,3133354,현대공인중개사사무소,현대공인중개사,Hyundai Real Estate Broker Office,Professional and Other Places,Building,126.70392707458193,37.480753783978095,대한민국,KOR,KOR,인천광역시,부평구,,십정동,,이규보로,91,608-5,2022-05-01 12:37:48,"빌딩,건물||부동산||중개업||중개업-일반",False
9725,9726,5659398,대지공인중개사사무소,대지공인중개사,Real estate agent office,Professional and Other Places,Building,126.73777174568394,37.51976885715461,대한민국,KOR,KOR,인천광역시,부평구,,삼산동,,후정동로25번길,4,74-9,2022-05-01 12:37:48,"빌딩,건물||부동산||중개업||중개업-일반",False
9761,9762,27073921,도시부동산공인중개사사무소,,Urban Real Estate Broker Office,Professional and Other Places,Building,126.70187479999994,37.446412699999776,대한민국,KOR,KOR,인천광역시,남동구,,구월동,,성말로13번길,15,1457-1,2022-05-01 12:37:48,"빌딩,건물||부동산||중개업||중개업-일반",False
9803,9804,3134731,진명공인중개사사무소,진명공인중개사,Jinmyung Real Estate Brokerage Office,Professional and Other Places,Building,126.67863548682205,37.51191971314476,대한민국,KOR,KOR,인천광역시,서구,,석남동,,서달로,147,471-2,2021-12-23 15:49:18,"빌딩,건물||부동산||중개업||중개업-일반",False
9910,9911,27210622,정문공인중개사사무소,,Jeongmoon Real Estate Agency,Professional and Other Places,Building,126.70643441632387,37.47051918395677,대한민국,KOR,KOR,인천광역시,부평구,,십정동,,동암남로,26,483-1,2022-05-01 12:37:48,"빌딩,건물||부동산||중개업||중개업-일반",False
9929,9930,3117143,사랑방공인중개사사무소,사랑방부동산,Sarangbang Real Estate Brokerage Office,Professional and Other Places,Building,126.52838599999974,37.24322249999917,대한민국,KOR,KOR,인천광역시,옹진군,,영흥면,선재리,,,412,2022-08-04 10:04:43,"빌딩,건물||부동산||중개업||중개업-일반",False
9931,9932,20079760,탑공인중개사사무소,탑부동산,Top Authorized Brokerage Office,Professional and Other Places,Building,126.67474663344288,37.46110424854768,대한민국,KOR,KOR,인천광역시,미추홀구,,도화동,,석바위로,15,392-1,2021-12-23 15:49:18,"빌딩,건물||부동산||중개업||중개업-일반",False
10044,10045,3270439,우성공인중개사사무소,우성부동산,Woosung Real Estate Agency,Professional and Other Places,Building,126.4850920521317,37.71482895331262,대한민국,KOR,KOR,인천광역시,강화군,,선원면,금월리,대문고개로,44,231-3,2019-08-08 0:00:00,"빌딩,건물||부동산||중개업||중개업-일반",False
10055,10056,2623040,온나라부동산,온나라공인중개사,on Nara Real Estate,Professional and Other Places,Building,126.6847751416829,37.448144532136766,대한민국,KOR,KOR,인천광역시,미추홀구,,주안동,,인하로,327-1,1492-18,2019-11-14 0:00:00,"빌딩,건물||부동산||중개업||중개업-일반",False
10184,10185,27161782,서창센트럴푸르지오공인중개사무소,서창센트럴공인중개사,Seochang Central Prugio Authorized Brokerage Office,Professional and Other Places,Building,126.75049759999996,37.429149299999786,대한민국,KOR,KOR,인천광역시,남동구,,서창동,,서창남순환로,55,682,2022-05-01 12:37:48,"빌딩,건물||부동산||중개업||중개업-일반",False
10247,10248,4324880,부동산1577공인중개사사무소,1577부동산,Real Estate 1577 Real Estate Broker Office,Professional and Other Places,Building,126.48540889999984,37.496748699999806,대한민국,KOR,KOR,인천광역시,중구,,운서동,,신도시북로,18,2709-3,2022-05-01 12:37:48,"빌딩,건물||부동산||중개업||중개업-일반",False
10252,10253,5707649,한서공인중개사사무소,한서부동산,Hanseo Authorized Brokerage Office,Professional and Other Places,Building,126.68503614717687,37.45718208227366,대한민국,KOR,KOR,인천광역시,미추홀구,,주안동,,동주길,132,399-26,2021-12-23 15:49:18,"빌딩,건물||부동산||중개업||중개업-일반",False
10298,10299,5662230,대명공인중개사사무소,대명부동산,Daemyung Real Estate Broker Office,Professional and Other Places,Building,126.72138866749494,37.532522346080206,대한민국,KOR,KOR,인천광역시,계양구,,작전동,,계양대로97번길,9,864-1,2022-08-08 10:29:42,"빌딩,건물||부동산||중개업||중개업-일반",False
10320,10321,1266902,대동공인중개사사무소,대동공인중개사,Daedong Real Estate Broker Office,Professional and Other Places,Building,126.73301559088092,37.5051311821637,대한민국,KOR,KOR,인천광역시,부평구,,부개동,,장제로222번길,30,482,2022-08-19 9:48:28,"빌딩,건물||부동산||중개업||중개업-일반",False
10321,10322,5665539,산업공인중개사사무소,산업부동산,Industrial Real Estate Broker Office,Professional and Other Places,Building,126.75109019943896,37.5258056012903,대한민국,KOR,KOR,인천광역시,계양구,,서운동,,아나지로,527,129-1,2022-08-24 14:41:06,"빌딩,건물||부동산||중개업||중개업-일반",False
10333,10334,3269476,천일부동산중개인사무소,천일공인중개사,Cheonil Real Estate Broker Office,Professional and Other Places,Building,126.49308399999984,37.63705399999986,대한민국,KOR,KOR,인천광역시,강화군,,길상면,온수리,전등사로,97,604-16,2022-06-07 17:23:36,"빌딩,건물||부동산||중개업||중개업-일반",False
10370,10371,4343586,선학공인중개사,선학공인중개사,Seonhak real estate agent,Professional and Other Places,Building,126.6959745478899,37.423723590703474,대한민국,KOR,KOR,인천광역시,연수구,,선학동,,학나래로5번길,10,364-9,2021-12-23 15:49:18,"빌딩,건물||부동산||중개업||중개업-일반",False
10409,10410,4335396,다복공인중개사사무소,다복부동산,Dabok Real Estate Agency,Professional and Other Places,Building,126.73541776825296,37.57781229092223,대한민국,KOR,KOR,인천광역시,계양구,,장기동,,장기로,16,148-4,2021-12-23 15:49:18,"빌딩,건물||부동산||중개업||중개업-일반",False
10415,10416,3965277,동원부동산,동원공인중개사,Dongwon Real Estate,Professional and Other Places,Building,126.63512337352684,37.58789446388421,대한민국,KOR,KOR,인천광역시,서구,,왕길동,,원당대로301번길,3,517-1,2022-05-01 12:37:48,"빌딩,건물||부동산||중개업||중개업-일반",False
10578,10579,4329012,재능공인중개사사무소,재능부동산,Talent Real Estate Broker Office,Professional and Other Places,Building,126.64375373790686,37.475790809574384,대한민국,KOR,KOR,인천광역시,동구,,송림동,,송림로,81,55-17,2020-01-14 23:23:42,"빌딩,건물||부동산||중개업||중개업-일반",False
10595,10596,3735951,금강KCC공인중개사사무소,금강KCC공인중개사,Kumkang KCC Real Estate Broker Office,Professional and Other Places,Building,126.67736571304422,37.5880678800665,대한민국,KOR,KOR,인천광역시,서구,,당하동,,청마로,122,1113-2,2020-01-30 15:59:35,"빌딩,건물||부동산||중개업||중개업-일반",False
10600,10601,27424138,검단황금공인중개사사무소,,Geomdan Golden Real Estate Agency,Professional and Other Places,Building,126.7168325999999,37.59472229999983,대한민국,KOR,KOR,인천광역시,서구,,원당동,,이음1로,383,434-13,2022-08-30 9:43:30,"빌딩,건물||부동산||중개업||중개업-일반",False
10720,10721,3145966,서울 공인중개사사무소,서울 부동산,Seoul Real Estate Agency,Professional and Other Places,Building,126.71571413185988,37.42777636522575,대한민국,KOR,KOR,인천광역시,남동구,,남촌동,,남촌로,72,255,2021-12-23 15:49:18,"빌딩,건물||부동산||중개업||중개업-일반",False
10742,10743,4323557,하늘공인중개사사무소,하늘공인중개사,Sky Real Estate Broker Office,Professional and Other Places,Building,126.69197789999994,37.4614077999998,대한민국,KOR,KOR,인천광역시,미추홀구,,주안동,,주안로194번길,48,925-1,2018-08-11 0:00:00,"빌딩,건물||부동산||중개업||중개업-일반",False
10766,10767,26967863,최진호공인중개사사무소,,Jinho Choi Certified Real Estate Agent,Professional and Other Places,Building,126.41432125019153,37.632601603960566,대한민국,KOR,KOR,인천광역시,강화군,,화도면,상방리,마니산로,753,1091-3,2022-05-01 12:37:48,"빌딩,건물||부동산||중개업||중개업-일반",False
10804,10805,3137899,탑공인중개사무소,탑부동산,Top Authorized Brokerage Office,Professional and Other Places,Building,126.6653096989344,37.51211040271061,대한민국,KOR,KOR,인천광역시,서구,,석남동,,새오개로22번길,1,183-5,2022-05-01 12:37:48,"빌딩,건물||부동산||중개업||중개업-일반",False
10845,10846,20202076,정원공인중개사사무소,정원부동산,Garden Real Estate Broker Office,Professional and Other Places,Building,126.70669142834892,37.446856833856685,대한민국,KOR,KOR,인천광역시,남동구,,구월동,,성말로53번길,39,1157-4,2021-12-23 15:49:18,"빌딩,건물||부동산||중개업||중개업-일반",False
10910,10911,2598591,로뎀공인중개사사무소,로뎀공인중개사,Rodem Authorized Brokerage Office,Professional and Other Places,Building,126.73317941892792,37.504765066692,대한민국,KOR,KOR,인천광역시,부평구,,부개동,,길주로,640,477-1,2022-05-01 12:37:48,"빌딩,건물||부동산||중개업||중개업-일반",False
10928,10929,1857346,포스코건설송도사옥,포스코건설사옥,POSCO E&C Songdo office building,Professional and Other Places,Building,126.63443319107785,37.39227812360196,대한민국,KOR,KOR,인천광역시,연수구,,송도동,,인천타워대로,241,36,2021-12-23 15:49:18,"빌딩,건물||빌딩||주요기업빌딩",False
11024,11025,4328326,세종 부동산중개사무소,세종공인중개사,Sejong Real Estate Brokerage Office,Professional and Other Places,Building,126.71880373077488,37.448105553956864,대한민국,KOR,KOR,인천광역시,남동구,,구월동,,호구포로,738,1289,2021-12-23 15:49:18,"빌딩,건물||부동산||중개업||중개업-일반",False
11034,11035,27193270,럭키공인중개사사무소,,Lucky Real Estate Broker Office,Professional and Other Places,Building,126.71004379590087,37.460375751303374,대한민국,KOR,KOR,인천광역시,남동구,,간석동,,석산로,166,939-1,2022-05-01 12:37:48,"빌딩,건물||부동산||중개업||중개업-일반",False
11061,11062,27428315,검단블루텍공인중개사사무소,,Geomdan Blue Tech Broker Office,Professional and Other Places,Building,126.61506232831186,37.596078514726415,대한민국,KOR,KOR,인천광역시,서구,,오류동,,보듬로,158,1656-1,2022-08-08 10:29:42,"빌딩,건물||부동산||중개업||중개업-일반",False
11087,11088,2597056,아주공인중개사사무소,아주부동산,Aju Authorized Brokerage Office,Professional and Other Places,Building,126.74163749999998,37.536174999999815,대한민국,KOR,KOR,인천광역시,계양구,,계산동,,용종로,30,1085-2,2018-09-18 15:00:00,"빌딩,건물||부동산||중개업||중개업-일반",False
11093,11094,27086986,명품자이공인중개사사무소,,Luxury Zai Authorized Brokerage Office,Professional and Other Places,Building,126.71453015736188,37.44386287798197,대한민국,KOR,KOR,인천광역시,남동구,,구월동,,선수촌로,55,1510,2022-05-01 12:37:48,"빌딩,건물||부동산||중개업||중개업-일반",False
11166,11167,6216532,두산부동산,두산공인중개사,Doosan Real Estate,Professional and Other Places,Building,126.6847895892169,37.45543395775756,대한민국,KOR,KOR,인천광역시,미추홀구,,주안동,,동주길97번길,1,414-32,2019-11-14 23:30:26,"빌딩,건물||부동산||중개업||중개업-일반",False
11174,11175,27455917,희망공인중개사사무소,,Hope Real Estate Broker Office,Professional and Other Places,Building,126.49629798598784,37.25673608812962,대한민국,KOR,KOR,인천광역시,옹진군,,영흥면,내리,영흥로144번길,12-11,8-232,2022-08-18 12:00:50,"빌딩,건물||부동산||중개업||중개업-일반",False
11307,11308,3112930,고려공인중개사,고려부동산,Korea Authorized Broker,Professional and Other Places,Building,126.65013499999996,37.4818459999998,대한민국,KOR,KOR,인천광역시,동구,,송림동,,송미로,6,339,2017-03-16 0:00:00,"빌딩,건물||부동산||중개업||중개업-일반",False
11321,11322,4343828,통일공인중개사사무소,통일부동산,Unification Real Estate Broker Office,Professional and Other Places,Building,126.4802234925237,37.74826201847407,대한민국,KOR,KOR,인천광역시,강화군,,강화읍,관청리,강화대로,464,891-4,2022-05-01 12:37:48,"빌딩,건물||부동산||중개업||중개업-일반",False
11347,11348,4324318,열린공인중개사사무소,열린부동산,Open Real Estate Broker Office,Professional and Other Places,Building,126.63856886453084,37.45774611399076,대한민국,KOR,KOR,인천광역시,미추홀구,,용현동,,아암대로29번길,33,572-45,2019-11-14 23:09:16,"빌딩,건물||부동산||중개업||중개업-일반",False
11362,11363,27181726,미추홀공인중개사사무소,,Michuhol Authorized Brokerage Office,Professional and Other Places,Building,126.70403555630187,37.45115255082808,대한민국,KOR,KOR,인천광역시,남동구,,구월동,,미래로,13,1129-22,2022-05-01 12:37:48,"빌딩,건물||부동산||중개업||중개업-일반",False
11387,11388,3458023,웰빙공인중개사사무소,웰빙부동산,Well-Being Authorized Broker Office,Professional and Other Places,Building,126.69480745718155,37.59274595705904,대한민국,KOR,KOR,인천광역시,서구,,당하동,,고산후로95번길,38,1028-1,2022-05-13 10:36:55,"빌딩,건물||부동산||중개업||중개업-일반",False
11414,11415,27158014,미래공인중개사사무소,미래공인중개사사무소,Future Certified Real Estate Broker Office,Professional and Other Places,Building,126.71748386719888,37.48704040548839,대한민국,KOR,KOR,인천광역시,부평구,,부평동,,부영로,19,760-261,2022-05-01 12:37:48,"빌딩,건물||부동산||중개업||중개업-일반",False
11418,11419,5673396,디오빌부동산공인중개사사무소,디오빌공인중개사,Theoville Real Estate Real Estate Agency,Professional and Other Places,Building,126.46287987488265,37.439053273330096,대한민국,KOR,KOR,인천광역시,중구,,운서동,,공항로424번길,72,2850-7,2020-01-14 23:21:05,"빌딩,건물||부동산||중개업||중개업-일반",False
11448,11449,5721745,석사공인중개사사무소,석사부동산,Master's Real Estate Broker Office,Professional and Other Places,Building,126.46818929999982,37.71459489999989,대한민국,KOR,KOR,인천광역시,강화군,,선원면,냉정리,중앙로413번길,4,840-3,2021-12-23 15:49:18,"빌딩,건물||부동산||중개업||중개업-일반",False
11474,11475,3141830,태양공인중개사사무소,태양부동산,Solar Real Estate Broker Office,Professional and Other Places,Building,126.6957749595989,37.446390796206565,대한민국,KOR,KOR,인천광역시,남동구,,구월동,,문화서로,11,1393-8,2022-05-01 12:37:48,"빌딩,건물||부동산||중개업||중개업-일반",False
11550,11551,27022348,다온공인중개사,,Daon real estate agent,Professional and Other Places,Building,126.64589149375692,37.4666987827254,대한민국,KOR,KOR,인천광역시,미추홀구,,숭의동,,석정로,78-13,124-101,2022-05-01 12:37:48,"빌딩,건물||부동산||중개업||중개업-일반",False
11568,11569,5666676,동아공인중개사사무소,동아공인중개사,Dong-A Authorized Brokerage Office,Professional and Other Places,Building,126.72105968817291,37.45177079467976,대한민국,KOR,KOR,인천광역시,남동구,,구월동,,인주대로751번길,58,1274-2,2022-05-01 12:37:48,"빌딩,건물||부동산||중개업||중개업-일반",False
11587,11588,2598304,거목공인중개사사무소,거목김동현부동산,Geomok Real Estate Broker Office,Professional and Other Places,Building,126.37331862762449,37.46602600977168,대한민국,KOR,KOR,인천광역시,중구,,을왕동,,용유로745번길,32,912-3,2021-12-23 15:49:18,"빌딩,건물||부동산||중개업||중개업-일반",False
11589,11590,2150763,땡큐공인중개사사무소,땡큐공인중개사,Thank you real estate agent,Professional and Other Places,Building,126.63385956920683,37.45035194123336,대한민국,KOR,KOR,인천광역시,미추홀구,,용현동,,낙섬서로,8,627-284,2019-11-14 0:00:00,"빌딩,건물||부동산||중개업||중개업-일반",False
11613,11614,27037023,하이부동산,,high real estate,Professional and Other Places,Building,126.68327093246394,37.45338188591689,대한민국,KOR,KOR,인천광역시,미추홀구,,주안동,,인주대로417번길,44-1,1476-5,2022-05-01 12:37:48,"빌딩,건물||부동산||중개업||중개업-일반",False
11694,11695,26983388,영종도유튜브부동산,,Yeongjongdo youtube real estate,Professional and Other Places,Building,126.49121647117772,37.49492323753904,대한민국,KOR,KOR,인천광역시,중구,,운서동,,영종대로,108,2800-2,2022-05-01 12:37:48,"빌딩,건물||부동산||중개업||중개업-일반",False
11798,11799,3112264,풍림공인중개사사무소,풍림공인중개사,Poonglim Real Estate Agency,Professional and Other Places,Building,126.64888222186586,37.4822400562264,대한민국,KOR,KOR,인천광역시,동구,,송림동,,송미로,25-1,11-51,2021-12-23 15:49:18,"빌딩,건물||부동산||중개업||중개업-일반",False
11800,11801,4327474,OK공인중개사사무소,OK공인중개사,OK Real Estate Broker Office,Professional and Other Places,Building,126.66905574942588,37.453894481147074,대한민국,KOR,KOR,인천광역시,미추홀구,,주안동,,한나루로,532,698-1,2021-12-23 15:49:18,"빌딩,건물||부동산||중개업||중개업-일반",False
11828,11829,3135256,남송공인중개사사무소,남송공인중개사,Namsong Real Estate Broker Office,Professional and Other Places,Building,126.66868866659688,37.517405921277295,대한민국,KOR,KOR,인천광역시,서구,,신현동,,원창로,174,75-2,2022-05-01 12:37:48,"빌딩,건물||부동산||중개업||중개업-일반",False
11845,11846,4333651,미소공인중개사사무소,미소부동산,Smile Real Estate Broker Office,Professional and Other Places,Building,126.69784849999996,37.45740259999978,대한민국,KOR,KOR,인천광역시,남동구,,간석동,,구월로,65,900-153,2017-06-21 9:30:30,"빌딩,건물||부동산||중개업||중개업-일반",False
11850,11851,4677572,대박부동산,대박공인중개사,jackpot real estate,Professional and Other Places,Building,126.67903712378292,37.42603535613235,대한민국,KOR,KOR,인천광역시,연수구,,연수동,,함박로,15-1,487-12,2021-12-23 15:49:18,"빌딩,건물||부동산||중개업||중개업-일반",False
11949,11950,3104850,미소공인중개사사무소,미소부동산,Smile Real Estate Broker Office,Professional and Other Places,Building,126.48831869999984,37.64204099999986,대한민국,KOR,KOR,인천광역시,강화군,,길상면,온수리,마니산로,30,481-5,2021-12-23 15:49:18,"빌딩,건물||부동산||중개업||중개업-일반",False
11978,11979,27070605,무지개부동산공인중개사사무소,,Rainbow Real Estate Real Estate Agency,Professional and Other Places,Building,126.64821689999997,37.459571699999785,대한민국,KOR,KOR,인천광역시,미추홀구,,숭의동,,독배로,449,294-1,2022-05-01 12:37:48,"빌딩,건물||부동산||중개업||중개업-일반",False
11994,11995,5675534,행운공인중개사사무소,행운부동산,Lucky Real Estate Broker Office,Professional and Other Places,Building,126.65387722735288,37.47757557684466,대한민국,KOR,KOR,인천광역시,미추홀구,,도화동,,송림로,177,18-24,2022-05-01 12:37:48,"빌딩,건물||부동산||중개업||중개업-일반",False
11995,11996,6209468,소망공인중개사사무소,소망공인중개사,Somang Authorized Brokerage Office,Professional and Other Places,Building,126.67303169999992,37.4674408999998,대한민국,KOR,KOR,인천광역시,미추홀구,,도화동,,석정로,338,127-9,2022-08-08 10:29:42,"빌딩,건물||부동산||중개업||중개업-일반",False
12003,12004,4348361,바다풍경부동산,바다풍경공인중개사,sea view real estate,Professional and Other Places,Building,126.4230111350308,37.39688122358646,대한민국,KOR,KOR,인천광역시,중구,,무의동,,대무의로,212,278-11,2022-05-01 12:37:48,"빌딩,건물||부동산||중개업||중개업-일반",False
12012,12013,5688479,한독공인중개사사무소,한독공인중개사,Korea-Germany Authorized  Broker Office,Professional and Other Places,Building,126.71322580047688,37.46422700134737,대한민국,KOR,KOR,인천광역시,남동구,,간석동,,백범로,333,123-2,2021-12-23 15:49:18,"빌딩,건물||부동산||중개업||중개업-일반",False
12046,12047,2613234,금성공인중개사사무소,금성공인중개사,Goldstar Real Estate Broker Office,Professional and Other Places,Building,126.69526132303191,37.460103625380974,대한민국,KOR,KOR,인천광역시,미추홀구,,주안동,,경인로,502,1593-44,2019-11-14 23:28:00,"빌딩,건물||부동산||중개업||중개업-일반",False
12060,12061,2597658,양지공인중개사사무소,양지부동산,Yangji Real Estate Broker Office,Professional and Other Places,Building,126.62329732992283,37.47952745703959,대한민국,KOR,KOR,인천광역시,중구,,송월동1가,,송월로,1-2,12-19,2022-05-01 12:37:48,"빌딩,건물||부동산||중개업||중개업-일반",False
12186,12187,3116791,부동산광장공인중개사,광장부동산,Real Estate Square Real Estate Broker,Professional and Other Places,Building,126.63919628116987,37.45369928316716,대한민국,KOR,KOR,인천광역시,미추홀구,,용현동,,토금북로,45,577-74,2019-11-14 0:00:00,"빌딩,건물||부동산||중개업||중개업-일반",False
12252,12253,26972214,재테크부동산중개법인,,Jaetech Real Estate Brokerage Corporation,Professional and Other Places,Building,126.67702399999897,37.55694909994261,대한민국,KOR,KOR,인천광역시,서구,,검암동,,도요지로,239-1,665-5,2022-05-01 12:37:48,"빌딩,건물||부동산||부동산-일반",False
12291,12292,3137085,씨티공인중개사사무소,씨티부동산,Citi Real Estate Broker Office,Professional and Other Places,Building,126.68603889999994,37.496274999999805,대한민국,KOR,KOR,인천광역시,서구,,가좌동,,건지로399번길,7,78-19,2018-09-18 0:00:00,"빌딩,건물||부동산||중개업||중개업-일반",False
12317,12318,6204736,대복부동산공인중개사사무소,대복공인중개사,Daebok Real Estate Real Estate Agency,Professional and Other Places,Building,126.63967165476782,37.531475385273886,대한민국,KOR,KOR,인천광역시,서구,,청라동,,크리스탈로74번길,26,154-1,2022-05-01 12:37:48,"빌딩,건물||부동산||중개업||중개업-일반",False
12342,12343,4346709,빌스공인중개사사무소,대광부동산,Bills Real Estate Broker Office,Professional and Other Places,Building,126.7280544810462,37.49561131793158,대한민국,KOR,KOR,인천광역시,부평구,,부평동,,장제로109번길,29-2,150-1,2022-08-08 10:29:42,"빌딩,건물||부동산||중개업||중개업-일반",False
12354,12355,3135340,신용부동산중개인사무소,신용공인중개사,Credit Real Estate Broker Office,Professional and Other Places,Building,126.67843144004192,37.50885183431609,대한민국,KOR,KOR,인천광역시,서구,,석남동,,서달로,115,488-20,2021-12-23 15:49:18,"빌딩,건물||부동산||중개업||중개업-일반",False
12376,12377,27264223,바로공인중개사사무소,,Baro Authorized Broker Office,Professional and Other Places,Building,126.63697719999992,37.397870299999774,대한민국,KOR,KOR,인천광역시,연수구,,송도동,,센트럴로,232,23-3,2022-08-02 16:47:12,"빌딩,건물||부동산||중개업||중개업-일반",False
12410,12411,20070968,LH공인중개사사무소,LH부동산,LH Authorized Broker Office,Professional and Other Places,Building,126.64478170003188,37.52836900053328,대한민국,KOR,KOR,인천광역시,서구,,청라동,,청라커낼로,232,184-1,2022-05-01 12:37:48,"빌딩,건물||부동산||중개업||중개업-일반",False
12415,12416,27182573,부동산랜드신주공공인중개사,,Real Estate Land Shinju Public Realtor,Professional and Other Places,Building,126.73828956883693,37.5008422641792,대한민국,KOR,KOR,인천광역시,부평구,,부개동,,부흥북로,143,498-13,2022-08-08 10:29:42,"빌딩,건물||부동산||중개업||프랜차이즈||부동산랜드",False
12440,12441,2602945,논현씨티공인중개사사무소,논현씨티부동산,Nonhyeon City Real Estate Agency,Professional and Other Places,Building,126.73745702374076,37.40623957841735,대한민국,KOR,KOR,인천광역시,남동구,,논현동,,청능대로718번길,9,577,2022-05-18 11:21:23,"빌딩,건물||부동산||중개업||중개업-일반",False
12442,12443,5693514,대운공인중개사사무소,대운공인중개사,Daewoon Real Estate Broker Office,Professional and Other Places,Building,126.72972378397992,37.50423226289719,대한민국,KOR,KOR,인천광역시,부평구,,부평동,,길주남로,74,10-439,2019-11-14 23:27:34,"빌딩,건물||부동산||중개업||중개업-일반",False
12483,12484,5675142,신화부동산공인중개사사무소,신화공인중개사,Shinhwa Real Estate Real Estate Agency,Professional and Other Places,Building,126.69994675290388,37.473999993503966,대한민국,KOR,KOR,인천광역시,부평구,,십정동,,이규보로,6,397-33,2021-12-23 15:49:18,"빌딩,건물||부동산||중개업||중개업-일반",False
12491,12492,27037292,에코스타부동산,,Eco Star Real Estate,Professional and Other Places,Building,126.73431291298796,37.39829372444326,대한민국,KOR,KOR,인천광역시,남동구,,논현동,,소래역남로,22,752-1,2022-05-01 12:37:48,"빌딩,건물||부동산||중개업||중개업-일반",False
12492,12493,3130853,대우부동산공인중개사사무소,대우공인중개사,Daewoo Real Estate Broker Office,Professional and Other Places,Building,126.70101918958188,37.469677325249584,대한민국,KOR,KOR,인천광역시,부평구,,십정동,,열우물로,18,408-48,2022-05-01 12:37:48,"빌딩,건물||부동산||중개업||중개업-일반",False
12515,12516,5719044,삼익공인중개사무소,삼익부동산,Samik Brokerage Office,Professional and Other Places,Building,126.73898929999996,37.4417619999998,대한민국,KOR,KOR,인천광역시,남동구,,만수동,,담방로,22-1,1038,2022-08-08 10:29:42,"빌딩,건물||부동산||중개업||중개업-일반",False
12561,12562,2618167,노력공장부동산공인중개사사무소,노력공장공인중개사,Yeewon Factory Real Estate Broker Office,Professional and Other Places,Building,126.66843793665689,37.473727703810674,대한민국,KOR,KOR,인천광역시,미추홀구,,도화동,,장고개로,65,53-53,2022-08-08 10:29:42,"빌딩,건물||부동산||중개업||중개업-일반",False
12602,12603,3257898,국민 공인중개사사무소,국민부동산,National Real Estate Broker Office,Professional and Other Places,Building,126.69845683674087,37.466900341491886,대한민국,KOR,KOR,인천광역시,남동구,,간석동,,석정로,567,612-4,2022-05-01 12:37:48,"빌딩,건물||부동산||중개업||중개업-일반",False
12637,12638,2611805,원공인중개사사무소,원부동산,Wongong Broker's Office,Professional and Other Places,Building,126.6761040945129,37.51755362838929,대한민국,KOR,KOR,인천광역시,서구,,가정동,,원창로239번길,2,510-13,2020-01-14 23:39:29,"빌딩,건물||부동산||중개업||중개업-일반",False
12666,12667,27187161,정다운공인중개사사무소,정다운부동산,Jung Daun Real Estate Agency,Professional and Other Places,Building,126.64783779999996,37.53435729999983,대한민국,KOR,KOR,인천광역시,서구,,청라동,,청라커낼로,300,156-1,2022-08-12 13:15:03,"빌딩,건물||부동산||중개업||중개업-일반",False
12696,12697,5721375,큰마당 공인중개사사무소,큰마당부동산,Keunmadang Authorized Realtor Office,Professional and Other Places,Building,126.72291570986891,37.45502354884727,대한민국,KOR,KOR,인천광역시,남동구,,구월동,,복개서로,93,1257-2,2021-12-23 15:49:18,"빌딩,건물||부동산||중개업||중개업-일반",False
12744,12745,2601808,가가공인중개사사무소,가가부동산,Processing broker office,Professional and Other Places,Building,126.6992085453749,37.470025827080775,대한민국,KOR,KOR,인천광역시,부평구,,십정동,,배곶로,13,426,2019-11-14 23:28:31,"빌딩,건물||부동산||중개업||중개업-일반",False
12778,12779,3122270,베스트부동산,베스트공인중개사,Best Real Estate,Professional and Other Places,Building,126.70376198774288,37.445966307761765,대한민국,KOR,KOR,인천광역시,남동구,,구월동,,인주대로604번길,83,1162-20,2019-11-14 23:05:38,"빌딩,건물||부동산||중개업||중개업-일반",False
12800,12801,3130082,한서공인중개사사무소,한서부동산,Hanseo Authorized Brokerage Office,Professional and Other Places,Building,126.6781749999989,37.41934499999596,대한민국,KOR,KOR,인천광역시,연수구,,연수동,,새말로,76-1,568-4,2019-08-08 23:01:22,"빌딩,건물||부동산||중개업||중개업-일반",False
12823,12824,5665585,예원공인중개사,예원부동산,Yewon certified real estate agent,Professional and Other Places,Building,126.66361549247291,37.465360910078864,대한민국,KOR,KOR,인천광역시,미추홀구,,도화동,,경인로,190,631-6,2022-05-01 12:37:48,"빌딩,건물||부동산||중개업||중개업-일반",False
12856,12857,20482504,미가공인중개사사무소,,Raw Broker's Office,Professional and Other Places,Building,126.7292494512209,37.5048473542115,대한민국,KOR,KOR,인천광역시,부평구,,부평동,,길주남로65번길,12-6,10-623,2022-05-01 12:37:48,"빌딩,건물||부동산||중개업||중개업-일반",False
12882,12883,27215499,상가공인중개사사무소,,Commercial Real Estate Broker Office,Professional and Other Places,Building,126.72323900022992,37.491213301899904,대한민국,KOR,KOR,인천광역시,부평구,,부평동,,부평대로,7,126-10,2022-05-01 12:37:48,"빌딩,건물||부동산||중개업||중개업-일반",False
12883,12884,5676314,우성사랑부동산공인중개사사무소,우성사랑공인중개사,Woosung Love  Real Estate,Professional and Other Places,Building,126.71410229999992,37.5021036999998,대한민국,KOR,KOR,인천광역시,부평구,,산곡동,,부영로,165,294-35,2022-06-07 17:23:36,"빌딩,건물||부동산||중개업||중개업-일반",False
12993,12994,3959223,부동산톡톡공인중개사사무소,부동산톡톡공인중개사,Real Estate Toktok Real Estate Broker Office,Professional and Other Places,Building,126.68079610029592,37.413380501360265,대한민국,KOR,KOR,인천광역시,연수구,,연수동,,샘말로62번길,19,620-8,2022-05-01 12:37:48,"빌딩,건물||부동산||중개업||중개업-일반",False
13093,13094,5708850,명성공인중개사사무소,명성부동산,Myeongseong Real Estate Broker Office,Professional and Other Places,Building,126.69030750059989,37.44789308286226,대한민국,KOR,KOR,인천광역시,미추홀구,,주안동,,경원대로,732,1574-8,2019-11-14 0:00:00,"빌딩,건물||부동산||중개업||중개업-일반",False
13094,13095,4356895,대성공인중개사사무소,대성부동산,Daesung Real Estate Agency,Professional and Other Places,Building,126.68613322306588,37.43674682838009,대한민국,KOR,KOR,인천광역시,미추홀구,,문학동,,소성로350번길,13,389-3,2022-08-08 10:29:42,"빌딩,건물||부동산||중개업||중개업-일반",False
13217,13218,20482306,가온공인중개사사무소,,Gaon Real Estate Agency,Professional and Other Places,Building,126.72674068446392,37.45999393233567,대한민국,KOR,KOR,인천광역시,남동구,,만수동,,만수서로3번길,18,864-12,2022-05-01 12:37:48,"빌딩,건물||부동산||중개업||중개업-일반",False
13259,13260,27370762,LG공인중개사사무소,,LG Real Estate Broker Office,Professional and Other Places,Building,126.64342258371684,37.423839983153954,대한민국,KOR,KOR,인천광역시,연수구,,옥련동,,능허대로79번길,30,626,2022-07-19 20:20:05,"빌딩,건물||부동산||중개업||중개업-일반",False
13291,13292,27103428,대박공인중개사사무소,,Daebak Real Estate Agency,Professional and Other Places,Building,126.62171367229584,37.47947897690777,대한민국,KOR,KOR,인천광역시,중구,,송월동1가,,참외전로,14-1,11-112,2022-05-01 12:37:48,"빌딩,건물||부동산||중개업||중개업-일반",False
13493,13494,3123029,서원공인중개사사무소,서원부동산,Seowon Authorized Realtor Office,Professional and Other Places,Building,126.74191139999996,37.546661699999824,대한민국,KOR,KOR,인천광역시,계양구,,병방동,,병방로,14,432-3,2018-09-18 15:00:00,"빌딩,건물||부동산||중개업||중개업-일반",False
13548,13549,3123512,현대공인중개사사무소,현대공인중개사,Hyundai Real Estate Broker Office,Professional and Other Places,Building,126.70780690667708,37.46244806170172,대한민국,KOR,KOR,인천광역시,남동구,,간석동,,남동대로897번길,5,283-1,2022-08-30 9:43:30,"빌딩,건물||부동산||중개업||중개업-일반",False
13552,13553,27184228,4989공인중개사사무소,,4989 Realtor Office,Professional and Other Places,Building,126.7109658999999,37.48820349999978,대한민국,KOR,KOR,인천광역시,부평구,,부평동,,신촌로,55,283-29,2022-08-08 10:29:42,"빌딩,건물||부동산||중개업||중개업-일반",False
13578,13579,3607941,가이드공인중개사사무소,행복한청라공인중개사,Guide Authorized Brokerage Office,Professional and Other Places,Building,126.65663012450284,37.53738913948344,대한민국,KOR,KOR,인천광역시,서구,,청라동,,청라에메랄드로,134,130-4,2022-08-30 9:43:30,"빌딩,건물||부동산||중개업||중개업-일반",False
13579,13580,4344816,동신부동산중개사무소,동신공인중개사,Dongshin Real Estate brokerage office,Professional and Other Places,Building,126.63874318060284,37.46955370164676,대한민국,KOR,KOR,인천광역시,중구,,도원동,,도원로56번길,13-25,21-1,2021-12-23 15:49:18,"빌딩,건물||부동산||중개업||중개업-일반",False
13582,13583,3124127,신현대 공인중개사사무소,신현대공인중개사,Shin-Hyundai Real Estate Broker Office,Professional and Other Places,Building,126.69286299999996,37.4671849999998,대한민국,KOR,KOR,인천광역시,남동구,,간석동,,방축로,491,893,2018-09-18 15:00:00,"빌딩,건물||부동산||중개업||중개업-일반",False
13608,13609,6205979,대우공인중개사사무소,대우부동산,Daewoo Real Estate Broker Office,Professional and Other Places,Building,126.67739930878794,37.406327920460875,대한민국,KOR,KOR,인천광역시,연수구,,동춘동,,원인재로,88,925-7,2019-08-13 0:02:25,"빌딩,건물||부동산||중개업||중개업-일반",False
13651,13652,2149214,수정공인중개사사무소,수정부동산,Modified Real Estate Broker Office,Professional and Other Places,Building,126.65998388718587,37.605116280034416,대한민국,KOR,KOR,인천광역시,서구,,마전동,,검단로487번길,33,918-10,2022-08-08 10:29:42,"빌딩,건물||부동산||중개업||중개업-일반",False
13730,13731,5703198,서창탑공인중개사사무소,탑공인중개사,Seochang Top Real Estate Broker Office,Professional and Other Places,Building,126.74914770036494,37.42476200113747,대한민국,KOR,KOR,인천광역시,남동구,,서창동,,서창남순환로,223,687-3,2022-08-08 10:29:42,"빌딩,건물||부동산||중개업||중개업-일반",False
13742,13743,3168318,철마현대공인중개사,철마현대부동산,Cheorma Hyundai Real Estate Broker,Professional and Other Places,Building,126.69558799999994,37.5050282999998,대한민국,KOR,KOR,인천광역시,부평구,,산곡동,,원적로269번길,15,179-92,2022-08-08 10:29:42,"빌딩,건물||부동산||중개업||중개업-일반",False
13819,13820,27499730,오복부동산,,Obok Real Estate,Professional and Other Places,Building,126.70763044822093,37.46260919212008,대한민국,KOR,KOR,인천광역시,남동구,,간석동,,남동대로897번길,8,282-3,2022-08-30 9:43:30,"빌딩,건물||부동산||중개업||중개업-일반",False
13873,13874,4341551,대한공인중개사사무소,대한공인중개사,Korea Real Estate Broker Office,Professional and Other Places,Building,126.73190156979096,37.50534413624798,대한민국,KOR,KOR,인천광역시,부평구,,부개동,,장제로222번길,11,480-7,2022-05-01 12:37:48,"빌딩,건물||부동산||중개업||중개업-일반",False
13896,13897,27368706,향기부동산공인중개사사무소,,Hyangyang Real Estate Real Estate Agency,Professional and Other Places,Building,126.66847892154556,37.5273560258515,대한민국,KOR,KOR,인천광역시,서구,,가정동,,,,610-5,2022-07-05 16:31:26,"빌딩,건물||부동산||중개업||중개업-일반",False
13955,13956,3131508,대표 공인중개사사무소,대표부동산,Representative Real Estate Broker Office,Professional and Other Places,Building,126.66815410740088,37.50301748452389,대한민국,KOR,KOR,인천광역시,서구,,석남동,,염곡로,208,587-100,2022-08-08 10:29:42,"빌딩,건물||부동산||중개업||중개업-일반",False
13957,13958,26945728,검단신도시공인중개사사무소,,Geomdan New Town Authorized Real Estate Agency,Professional and Other Places,Building,126.7139615999999,37.594615599999806,대한민국,KOR,KOR,인천광역시,서구,,원당동,,,,489-3,2022-08-30 9:43:30,"빌딩,건물||부동산||중개업||중개업-일반",False
13975,13976,1266198,시티공인중개사사무소,시티공인중개사,City Real Estate Broker Office,Professional and Other Places,Building,126.72934844875292,37.41684734402366,대한민국,KOR,KOR,인천광역시,남동구,,도림동,,오봉로,18,635-1,2022-05-01 12:37:48,"빌딩,건물||부동산||중개업||중개업-일반",False
14020,14021,3134089,태양공인중개사사무소,태양부동산,Solar Real Estate Broker Office,Professional and Other Places,Building,126.67303106210171,37.52191851943676,대한민국,KOR,KOR,인천광역시,서구,,신현동,,가정로,413,259-15,2022-08-08 10:29:42,"빌딩,건물||부동산||중개업||중개업-일반",False
14026,14027,2598987,우림부동산공인중개사사무소,우림공인중개사,Woorim Real Estate Broker Office,Professional and Other Places,Building,126.72813749999997,37.52505829999983,대한민국,KOR,KOR,인천광역시,계양구,,작전동,,아나지로,332,392-1,2017-03-16 12:12:12,"빌딩,건물||부동산||중개업||중개업-일반",False
14035,14036,27163722,송도로공인중개사사무소,,Songdo Authorized Realtor Office,Professional and Other Places,Building,126.6165965142389,37.41393178313528,대한민국,KOR,KOR,인천광역시,연수구,,송도동,,랜드마크로,110,310-1,2022-05-01 12:37:48,"빌딩,건물||부동산||중개업||중개업-일반",False
14104,14105,3122979,신일부동산중개인사무소,신일공인중개사,Shinil Real Estate Broker Office,Professional and Other Places,Building,126.66621071461688,37.449119510760475,대한민국,KOR,KOR,인천광역시,미추홀구,,용현동,,인하로163번길,2,35-7,2021-12-23 15:49:18,"빌딩,건물||부동산||중개업||중개업-일반",False
14147,14148,2148838,고려공인중개사사무소,고려공인중개사,Korea Real Estate Broker Office,Professional and Other Places,Building,126.51702099999989,37.67996299999987,대한민국,KOR,KOR,인천광역시,강화군,,불은면,오두리,해안동로,691,89-3,2018-09-18 0:00:00,"빌딩,건물||부동산||중개업||중개업-일반",False
14166,14167,5737943,스타부동산,스타공인중개사,Star Real Estate,Professional and Other Places,Building,126.6992934164479,37.59688537450072,대한민국,KOR,KOR,인천광역시,서구,,원당동,,고산후로,148,840-11,2022-05-01 12:37:48,"빌딩,건물||부동산||중개업||중개업-일반",False
14186,14187,3128181,뉴럭키공인중개사,뉴럭키공인중개사,New Lucky Authorized Broker,Professional and Other Places,Building,126.64209799999992,37.42516599999978,대한민국,KOR,KOR,인천광역시,연수구,,옥련동,,능허대로79번길,30,626,2012-04-22 0:00:00,"빌딩,건물||부동산||중개업||중개업-일반",False
14201,14202,27017691,다모아공인중개사사무소,,Damoa Authorized Brokerage Office,Professional and Other Places,Building,126.71443599999988,37.59430169999983,대한민국,KOR,KOR,인천광역시,서구,,원당동,,이음5로,60,산64-4,2022-08-30 9:43:30,"빌딩,건물||부동산||중개업||중개업-일반",False
14219,14220,20200956,금토부동산,금토공인중개사,Fri-Sat Real Estate,Professional and Other Places,Building,126.49955092673989,37.49648657946712,대한민국,KOR,KOR,인천광역시,중구,,운서동,,햇내로안길,32,3035-2,2021-12-23 15:49:18,"빌딩,건물||부동산||중개업||중개업-일반",False
14275,14276,27077769,행복공인중개사사무소,,Happy Real Estate Broker Office,Professional and Other Places,Building,126.72758945801093,37.541543124660215,대한민국,KOR,KOR,인천광역시,계양구,,계산동,,주부토로529번길,6,950-23,2022-08-08 10:29:42,"빌딩,건물||부동산||중개업||중개업-일반",False
14280,14281,2609934,명진공인중개사사무소,명진부동산,Myungjin Real Estate Agency,Professional and Other Places,Building,126.7289575762819,37.5040861960084,대한민국,KOR,KOR,인천광역시,부평구,,부평동,,장제로205번길,32,12-1,2022-05-01 12:37:48,"빌딩,건물||부동산||중개업||중개업-일반",False
14284,14285,5710182,참조은공인중개사,참조은부동산,Reference is a real estate agent,Professional and Other Places,Building,126.69871649999996,37.590812099999845,대한민국,KOR,KOR,인천광역시,서구,,당하동,,고산후로78번길,3,1037-3,2022-05-01 12:37:48,"빌딩,건물||부동산||중개업||중개업-일반",False
14291,14292,27081068,대림OK공인중개사사무소,,Daelim OK Real Estate Agency,Professional and Other Places,Building,126.61718671012557,37.41339336866752,대한민국,KOR,KOR,인천광역시,연수구,,송도동,,랜드마크로,113,319-1,2022-05-01 12:37:48,"빌딩,건물||부동산||중개업||중개업-일반",False
14296,14297,2614640,만수 공인중개사사무소,만수부동산,Mansu Authorized Brokerage Office,Professional and Other Places,Building,126.7233672468609,37.46163414618177,대한민국,KOR,KOR,인천광역시,남동구,,만수동,,서판로,12,853-3,2022-08-12 13:15:03,"빌딩,건물||부동산||중개업||중개업-일반",False
14337,14338,3130847,벽산공인중개사사무소,벽산부동산,Byucksan Real Estate Agency,Professional and Other Places,Building,126.73782027357753,37.51878366174574,대한민국,KOR,KOR,인천광역시,부평구,,삼산동,,후정동로,15,201-3,2022-05-01 12:37:48,"빌딩,건물||부동산||중개업||중개업-일반",False
14400,14401,3134671,매일공인중개사사무소,매일부동산,Maeil Real Estate Broker Office,Professional and Other Places,Building,126.67548919186189,37.54374513779899,대한민국,KOR,KOR,인천광역시,서구,,심곡동,,탁옥로,54,248-13,2020-01-14 23:37:01,"빌딩,건물||부동산||중개업||중개업-일반",False
14402,14403,3264623,푸른광장공인중개사사무소,푸른광장공인중개사,Blue Square Authorized Realtor Office,Professional and Other Places,Building,126.6409151283828,37.53716784842903,대한민국,KOR,KOR,인천광역시,서구,,청라동,,청라루비로,136-4,142-19,2022-05-01 12:37:48,"빌딩,건물||부동산||중개업||중개업-일반",False
14419,14420,3125026,우주공인중개사사무소,우주부동산,Space real estate agency,Professional and Other Places,Building,126.67977029999996,37.42270899999977,대한민국,KOR,KOR,인천광역시,연수구,,연수동,,함박뫼로,115,535-2,2018-09-18 0:00:00,"빌딩,건물||부동산||중개업||중개업-일반",False
14423,14424,20199478,정원공인중개사사무소,정원부동산,Garden Real Estate Broker Office,Professional and Other Places,Building,126.66812583934696,37.51740801986001,대한민국,KOR,KOR,인천광역시,서구,,신현동,,염곡로327번길,44,77-7,2021-12-23 15:49:18,"빌딩,건물||부동산||중개업||중개업-일반",False
14460,14461,4349139,신현공인중개사사무소,신현부동산,Shinhyeon Real Estate Agency,Professional and Other Places,Building,126.66808804091488,37.518064745156686,대한민국,KOR,KOR,인천광역시,서구,,신현동,,원창로169번길,3,80-8,2022-08-08 10:29:42,"빌딩,건물||부동산||중개업||중개업-일반",False
14470,14471,20018176,신세계공인중개사사무소,신세계부동산,Shinsegae Real Estate Agency,Professional and Other Places,Building,126.73920560413096,37.49360927593168,대한민국,KOR,KOR,인천광역시,부평구,,부개동,,부평문화로205번길,1,120-531,2022-05-01 12:37:48,"빌딩,건물||부동산||중개업||중개업-일반",False
14496,14497,4326838,유로공인중개사사무소,유로부동산,Euro Authorized Broker Office,Professional and Other Places,Building,126.69398378869292,37.45991700641567,대한민국,KOR,KOR,인천광역시,미추홀구,,주안동,,경인로,491,919-5,2021-12-23 15:49:18,"빌딩,건물||부동산||중개업||중개업-일반",False
14541,14542,2597012,굿모닝공인중개사사무소,굿모닝공인중개사,Good Morning Authorized Brokerage Office,Professional and Other Places,Building,126.63714854551728,37.46702037746729,대한민국,KOR,KOR,인천광역시,중구,,도원동,,도원로,25-10,28-117,2022-05-01 12:37:48,"빌딩,건물||부동산||중개업||중개업-일반",False
14574,14575,2621457,대명공인중개사사무소,대명부동산,Daemyung Real Estate Broker Office,Professional and Other Places,Building,126.73862770807042,37.43938228980276,대한민국,KOR,KOR,인천광역시,남동구,,만수동,,매소홀로,1040,1049,2022-05-01 12:37:48,"빌딩,건물||부동산||중개업||중개업-일반",False
14592,14593,5710809,크로바공인중개사사무소,크로바부동산,Clover Real Estate Agency,Professional and Other Places,Building,126.6722642194709,37.451163876346165,대한민국,KOR,KOR,인천광역시,미추홀구,,주안동,,한나루로502번길,84,1418-28,2019-11-14 23:29:26,"빌딩,건물||부동산||중개업||중개업-일반",False
14639,14640,4353435,중앙공인중개사사무소,중앙부동산,Central Real Estate Broker Office,Professional and Other Places,Building,126.71341926656788,37.431637310860566,대한민국,KOR,KOR,인천광역시,남동구,,남촌동,,남촌동로,50-4,346-13,2019-11-14 0:00:00,"빌딩,건물||부동산||중개업||중개업-일반",False
14646,14647,2147062,운북공인중개사사무소,운북부동산,Unbuk Real Estate Broker Office,Professional and Other Places,Building,126.54206058491977,37.51431425476826,대한민국,KOR,KOR,인천광역시,중구,,운북동,,백운로186번길,135,1257-93,2020-01-14 0:00:00,"빌딩,건물||부동산||중개업||중개업-일반",False
14684,14685,2595178,신현대 공인중개사사무소,신현대공인중개사,Shin-Hyundai Real Estate Broker Office,Professional and Other Places,Building,126.7092167169709,37.46186493523719,대한민국,KOR,KOR,인천광역시,남동구,,간석동,,석촌로14번길,3,190-25,2019-11-14 0:00:00,"빌딩,건물||부동산||중개업||중개업-일반",False
14715,14716,2607106,마루공인중개사사무소,마루부동산,Maru Certified Real Estate Broker Office,Professional and Other Places,Building,126.68261900841888,37.44777067557448,대한민국,KOR,KOR,인천광역시,미추홀구,,주안동,,인하로,310,1495,2019-11-14 0:00:00,"빌딩,건물||부동산||중개업||중개업-일반",False
14788,14789,27213131,송도탑공인중개사사무소,,Songdo Top Real Estate Agency,Professional and Other Places,Building,126.65519334688928,37.3763971564281,대한민국,KOR,KOR,인천광역시,연수구,,송도동,,송도문화로28번길,28,190-2,2022-05-01 12:37:48,"빌딩,건물||부동산||중개업||중개업-일반",False
14809,14810,3123025,예일공인중개사사무소,예일부동산,Yale Real Estate Broker Office,Professional and Other Places,Building,126.73454598540982,37.5360472124937,대한민국,KOR,KOR,인천광역시,계양구,,계산동,,장제로,766,1074-10,2022-08-26 9:52:19,"빌딩,건물||부동산||중개업||중개업-일반",False
14819,14820,3452808,비타민공인중개사사무소,비타민부동산,Vitamin Authorized Brokerage Office,Professional and Other Places,Building,126.67453220554188,37.513213342983285,대한민국,KOR,KOR,인천광역시,서구,,석남동,,율도로,110,461-2,2021-12-23 15:49:18,"빌딩,건물||부동산||중개업||중개업-일반",False
14855,14856,4347707,하나공인중개사사무소,하나공인중개사,Hana Real Estate Broker Office,Professional and Other Places,Building,126.73419349136628,37.52790024417448,대한민국,KOR,KOR,인천광역시,계양구,,작전동,,아나지로375번길,26,134-1,2022-08-26 9:52:19,"빌딩,건물||부동산||중개업||중개업-일반",False
14922,14923,4358363,청룡공인중개사사무소,청룡공인중개사,Blue Dragon Real Estate Agency,Professional and Other Places,Building,126.71102081188988,37.525239028024885,대한민국,KOR,KOR,인천광역시,계양구,,효성동,,안남로,474,302-10,2022-05-01 12:37:48,"빌딩,건물||부동산||중개업||중개업-일반",False
15049,15050,2616343,부동산타운공인중개사사무소,부동산타운부동산,Real Estate Town Authorized Broker Office,Professional and Other Places,Building,126.71216088972989,37.46584921338187,대한민국,KOR,KOR,인천광역시,남동구,,간석동,,백범로352번길,14,96-4,2022-05-01 12:37:48,"빌딩,건물||부동산||중개업||중개업-일반",False
15095,15096,5673597,로얄공인중개사사무소,로얄공인중개사,Royal Real Estate Broker Office,Professional and Other Places,Building,126.67565794424787,37.45690465630097,대한민국,KOR,KOR,인천광역시,미추홀구,,도화동,,경인로326번길,42-4,450-2,2022-08-12 13:15:03,"빌딩,건물||부동산||중개업||중개업-일반",False
15108,15109,3145917,낙원 공인중개사사무소,낙원 부동산,Nakwon Real Estate Broker Office,Professional and Other Places,Building,126.6934303112999,37.44922919188795,대한민국,KOR,KOR,인천광역시,남동구,,구월동,,인하로411번길,76,1341-8,2021-12-23 15:49:18,"빌딩,건물||부동산||중개업||중개업-일반",False
15117,15118,3440244,영종도부동산공인중개사사무소,영종도공인중개사,Yeongjongdo Real Estate,Professional and Other Places,Building,126.55134049999992,37.49724859999981,대한민국,KOR,KOR,인천광역시,중구,,중산동,,운중로,175,1335-8,2022-05-01 12:37:48,"빌딩,건물||부동산||중개업||중개업-일반",False
15128,15129,3964338,검단자이공인중개사사무소,검단자이부동산,Geomdanzai Authorized Brokerage Office,Professional and Other Places,Building,126.63929413678513,37.59687417221879,대한민국,KOR,KOR,인천광역시,서구,,왕길동,,버들로,27,692-1,2022-05-01 12:37:48,"빌딩,건물||부동산||중개업||중개업-일반",False
15149,15150,27183384,한마음공인중개사사무소,,Hanmaeum Real Estate Broker Office,Professional and Other Places,Building,126.64156719999984,37.39632759999972,대한민국,KOR,KOR,인천광역시,연수구,,송도동,,컨벤시아대로130번길,58,19-6,2022-05-01 12:37:48,"빌딩,건물||부동산||중개업||중개업-일반",False
15233,15234,4347509,무의도본토공인중개사사무소,본토부동산,Muuido Mainland Real Estate Broker Office,Professional and Other Places,Building,126.41366737905356,37.403814294974566,대한민국,KOR,KOR,인천광역시,중구,,무의동,,대무의로,86-4,471-1,2022-05-01 12:37:48,"빌딩,건물||부동산||중개업||중개업-일반",False
15281,15282,5664716,대현공인중개사무소,대현부동산,Daehyeon Authorized Brokerage Office,Professional and Other Places,Building,126.70361809606288,37.49749182363228,대한민국,KOR,KOR,인천광역시,부평구,,산곡동,,마장로220번길,18,238-5,2019-11-14 23:27:29,"빌딩,건물||부동산||중개업||중개업-일반",False
15286,15287,3125048,국제공인중개사사무소,부동산114국제부동산,International Real Estate Broker Office,Professional and Other Places,Building,126.65236699999996,37.39495999999978,대한민국,KOR,KOR,인천광역시,연수구,,송도동,,해돋이로120번길,16,3-10,2022-05-01 12:37:48,"빌딩,건물||부동산||중개업||중개업-일반",False
15302,15303,5712470,삼성공인중개사,삼성부동산,Samsung Authorized Broker,Professional and Other Places,Building,126.67667889999996,37.40671739999977,대한민국,KOR,KOR,인천광역시,연수구,,동춘동,,원인재로,81,924-3,2021-12-23 15:49:18,"빌딩,건물||부동산||중개업||중개업-일반",False
15315,15316,4332833,샘공인중개사사무소,샘공인중개사,Sam Authorized Brokerage Office,Professional and Other Places,Building,126.73681809999992,37.463109299999765,대한민국,KOR,KOR,인천광역시,남동구,,만수동,,만수로,90,5-376,2021-12-23 15:49:18,"빌딩,건물||부동산||중개업||중개업-일반",False
15376,15377,3128330,황금공인중개사사무소,황금부동산,Golden Real Estate Broker Office,Professional and Other Places,Building,126.74029859999996,37.490845899999805,대한민국,KOR,KOR,인천광역시,부평구,,부개동,,수변로,47,196-9,2022-05-01 12:37:48,"빌딩,건물||부동산||중개업||중개업-일반",False
15432,15433,2597881,21세기공인중개사사무소,21세기부동산,21st Century Real Estate Broker Office,Professional and Other Places,Building,126.70525488829593,37.497731593819886,대한민국,KOR,KOR,인천광역시,부평구,,산곡동,,마장로220번길,45,234-45,2019-11-14 0:00:00,"빌딩,건물||부동산||중개업||중개업-일반",False
15470,15471,27151118,부동산파트너공인중개사사무소,,Real Estate Partner Real Estate Broker Office,Professional and Other Places,Building,126.64857768641345,37.38952378652171,대한민국,KOR,KOR,인천광역시,연수구,,송도동,,해돋이로,107,4-1,2022-05-01 12:37:48,"빌딩,건물||부동산||중개업||중개업-일반",False
15509,15510,20483941,한백부동산,,Hanbaek Real Estate,Professional and Other Places,Building,126.67408798136697,37.50687183904071,대한민국,KOR,KOR,인천광역시,서구,,석남동,,옻우물로8번길,10,503-2,2022-05-01 12:37:48,"빌딩,건물||부동산||중개업||중개업-일반",False
15586,15587,27184017,복드림공인중개사사무소,복드림부동산,Bok Dream Real Estate Agency,Professional and Other Places,Building,126.73937002269194,37.445022807240775,대한민국,KOR,KOR,인천광역시,남동구,,만수동,,담방로60번길,10,1028,2022-05-01 12:37:48,"빌딩,건물||부동산||중개업||중개업-일반",False
15601,15602,4341241,철마부동산중개인사무소,철마공인중개사,Cheolma Real Estate Broker Office,Professional and Other Places,Building,126.68270146622189,37.495587278290486,대한민국,KOR,KOR,인천광역시,서구,,가좌동,,원적로,103,122-5,2020-01-14 23:23:42,"빌딩,건물||부동산||중개업||중개업-일반",False
15655,15656,4681087,자이탑공인중개사사무소,자이탑부동산,Zaitop Authorized Realtor Office,Professional and Other Places,Building,126.624426336519,37.523891311954095,대한민국,KOR,KOR,인천광역시,서구,,청라동,,보석로,32,104-13,2022-05-01 12:37:48,"빌딩,건물||부동산||중개업||중개업-일반",False
15671,15672,20089116,부평주안공인중개사무소,주안부동산,Bupyeongjuan Authorized Brokerage Office,Professional and Other Places,Building,126.71590000030793,37.49958220111567,대한민국,KOR,KOR,인천광역시,부평구,,산곡동,,부영로,161,294-134,2022-08-08 10:29:42,"빌딩,건물||부동산||중개업||중개업-일반",False
15676,15677,2615152,만수주공부동산,만수주공공인중개사,Mansu Real Estate,Professional and Other Places,Building,126.73198749999992,37.45756789999978,대한민국,KOR,KOR,인천광역시,남동구,,만수동,,만수로,14-27,30,2021-12-23 15:49:18,"빌딩,건물||부동산||중개업||중개업-일반",False
15688,15689,27161778,서창푸르지오공인중개사사무소,푸르지오부동산,Seochang Prugio Authorized Brokerage Office,Professional and Other Places,Building,126.75057642779286,37.42897374286023,대한민국,KOR,KOR,인천광역시,남동구,,서창동,,서창남순환로,55,682,2022-08-08 10:29:42,"빌딩,건물||부동산||중개업||중개업-일반",False
15696,15697,5708031,베스트부동산공인중개사사무소,이순진공인중개사,Best Real Estate Broker Office,Professional and Other Places,Building,126.50716865364171,37.48489921881434,대한민국,KOR,KOR,인천광역시,중구,,운서동,,운서2로68번길,43,2888-3,2022-08-08 10:29:42,"빌딩,건물||부동산||중개업||중개업-일반",False
15697,15698,5694626,희망부동산,25시부동산,Hope Real Estate,Professional and Other Places,Building,126.68801640835824,37.4455609774187,대한민국,KOR,KOR,인천광역시,미추홀구,,관교동,,주승로,157-1,514-1,2022-05-01 12:37:48,"빌딩,건물||부동산||중개업||중개업-일반",False
15729,15730,27240155,송월아파트구역주택재개발정비사업조합,,Songwol Apartment District Housing Redevelopment and Maintenance Business Association,Professional and Other Places,Building,126.61734229999988,37.47494619999976,대한민국,KOR,KOR,인천광역시,중구,,선린동,,제물량로,259-2,48-1,2022-05-01 12:37:48,"빌딩,건물||부동산||컨설팅",False
15761,15762,2599646,명문공인중개사사무소,명문부동산,Prestigious Real Estate Broker Office,Professional and Other Places,Building,126.73294705377592,37.54472672407392,대한민국,KOR,KOR,인천광역시,계양구,,임학동,,임학서로20번길,2,46-25,2022-05-01 12:37:48,"빌딩,건물||부동산||중개업||중개업-일반",False
15787,15788,4345220,삼성공인중개사사무소,삼성부동산,Samsung Real Estate Broker Office,Professional and Other Places,Building,126.6742937341059,37.509709597840086,대한민국,KOR,KOR,인천광역시,서구,,석남동,,신석로,110,508-3,2021-12-23 15:49:18,"빌딩,건물||부동산||중개업||중개업-일반",False
15809,15810,4783536,호반사랑공인중개사사무소,호반사랑부동산,Hoban Sarang Real Estate Agency,Professional and Other Places,Building,126.63883279999985,37.5261703999998,대한민국,KOR,KOR,인천광역시,서구,,청라동,,청라커낼로,163,173-1,2021-12-23 15:49:18,"빌딩,건물||부동산||중개업||중개업-일반",False
15811,15812,5709075,제일공인중개사사무소,제일부동산,Jeil Authorized Brokerage Office,Professional and Other Places,Building,126.73274857482492,37.45006748891056,대한민국,KOR,KOR,인천광역시,남동구,,만수동,,소래로669번길,30,967-10,2019-11-14 0:00:00,"빌딩,건물||부동산||중개업||중개업-일반",False
15832,15833,2602933,인하공인중개사,인하부동산,Inha Authorized Broker,Professional and Other Places,Building,126.7171629601989,37.52899183382491,대한민국,KOR,KOR,인천광역시,계양구,,효성동,,새벌로,136,282-8,2019-11-14 23:29:52,"빌딩,건물||부동산||중개업||중개업-일반",False
15869,15870,27078100,태극부동산공인중개사사무소,,Taegeuk Real Estate Broker Office,Professional and Other Places,Building,126.69536989999995,37.47175719999979,대한민국,KOR,KOR,인천광역시,부평구,,십정동,,배곶남로9번길,4,355-18,2022-05-01 12:37:48,"빌딩,건물||부동산||중개업||중개업-일반",False
15890,15891,3143357,유승공인중개사사무소,유승공인중개사,Yoo Seung Real Estate Agency,Professional and Other Places,Building,126.6992185133879,37.5261575077532,대한민국,KOR,KOR,인천광역시,계양구,,효성동,,새풀로,30,553-10,2022-05-01 12:37:48,"빌딩,건물||부동산||중개업||중개업-일반",False
15896,15897,5721234,송림공인중개사사무소,송림부동산,Songlim Real Estate Agency,Professional and Other Places,Building,126.64921419938256,37.47740781433991,대한민국,KOR,KOR,인천광역시,동구,,송림동,,송림로,133,42-329,2022-05-01 12:37:48,"빌딩,건물||부동산||중개업||중개업-일반",False
15941,15942,3124895,대일공인중개사사무소,대일부동산,Daeil Authorized Brokerage Office,Professional and Other Places,Building,126.74137326432997,37.5487047111586,대한민국,KOR,KOR,인천광역시,계양구,,병방동,,장제로,921,425,2022-08-16 16:52:33,"빌딩,건물||부동산||중개업||중개업-일반",False
15959,15960,27245936,강화현대힐스테이트공인중개사사무소,,Ganghwa Hyundai Hill State Real Estate Agency,Professional and Other Places,Building,126.48883129999967,37.73508159999972,대한민국,KOR,KOR,인천광역시,강화군,,선원면,창리,,,492-5,2022-05-01 12:37:48,"빌딩,건물||부동산||중개업||중개업-일반",False
16011,16012,27064879,꿀방공인중개사사무소,,Honeybang Real Estate Broker's Office,Professional and Other Places,Building,126.64097660010384,37.46303361455946,대한민국,KOR,KOR,인천광역시,미추홀구,,숭의동,,인중로,16,408-16,2022-05-01 12:37:48,"빌딩,건물||부동산||중개업||중개업-일반",False
16051,16052,4344111,현대공인중개사사무소,현대부동산,Hyundai Real Estate Broker Office,Professional and Other Places,Building,126.64418238568489,37.46078029691486,대한민국,KOR,KOR,인천광역시,미추홀구,,숭의동,,인주대로45번길,38,303-175,2021-12-23 15:49:18,"빌딩,건물||부동산||중개업||중개업-일반",False
16095,16096,4335016,경남에이스공인중개사사무소,경남에이스부동산,Gyeongnam Ace Real Estate Agency,Professional and Other Places,Building,126.70884859999984,37.50247559999979,대한민국,KOR,KOR,인천광역시,부평구,,산곡동,,안남로222번길,30,274,2020-06-18 0:00:00,"빌딩,건물||부동산||중개업||중개업-일반",False
16109,16110,20202492,온누리부동산,온누리공인중개사,Onnuri Real Estate,Professional and Other Places,Building,126.67032906469494,37.5043866104456,대한민국,KOR,KOR,인천광역시,서구,,석남동,,길주로76번길,21,535-28,2021-12-23 15:49:18,"빌딩,건물||부동산||중개업||중개업-일반",False
16132,16133,3143174,주안부동산,주안공인중개사,Juan Real Estate,Professional and Other Places,Building,126.68380888367288,37.46549935612947,대한민국,KOR,KOR,인천광역시,미추홀구,,주안동,,염창로,87,22-4,2022-05-01 12:37:48,"빌딩,건물||부동산||컨설팅",False
16190,16191,27455640,부동산톡톡,,Real Estate Talk Talk,Professional and Other Places,Building,126.68238167097496,37.45182448710969,대한민국,KOR,KOR,인천광역시,미추홀구,,주안동,,미추홀대로614번길,42,1483-1,2022-08-16 16:52:33,"빌딩,건물||부동산||중개업||중개업-일반",False
16237,16238,4337998,현대부동산,현대공인중개사,Hyundai Real Estate,Professional and Other Places,Building,126.67231924260288,37.495726420673805,대한민국,KOR,KOR,인천광역시,서구,,가좌동,,가정로126번길,6-1,144-3,2021-12-23 15:49:18,"빌딩,건물||부동산||중개업||중개업-일반",False
16264,16265,4332822,현대공인중개사사무소,현대부동산,Hyundai Real Estate Broker Office,Professional and Other Places,Building,126.6882543586742,37.459887445823846,대한민국,KOR,KOR,인천광역시,미추홀구,,주안동,,석바위로,139,993-10,2022-08-08 10:29:42,"빌딩,건물||부동산||중개업||중개업-일반",False
16278,16279,20738246,검단 21세기 부동산공인중개사사무소,,Geomdan  21st Century  Real Estate Agent Office,Professional and Other Places,Building,126.70930579999995,37.58233299999984,대한민국,KOR,KOR,인천광역시,서구,,당하동,,,,582-6,2022-09-06 15:18:26,"빌딩,건물||부동산||중개업||중개업-일반",False
16285,16286,3897180,장승백이부동산,장승백이공인중개사,Seungbaek Jang Real Estate,Professional and Other Places,Building,126.73057829184594,37.570746531602026,대한민국,KOR,KOR,인천광역시,계양구,,다남동,,역골로,144,102-11,2022-08-08 10:29:42,"빌딩,건물||부동산||중개업||중개업-일반",False
16298,16299,4347003,성공 공인중개사사무소,성공부동산,Success Real Estate Broker Office,Professional and Other Places,Building,126.67536951166392,37.5057170940971,대한민국,KOR,KOR,인천광역시,서구,,석남동,,거북로119번길,30,550-4,2020-01-14 23:23:42,"빌딩,건물||부동산||중개업||중개업-일반",False
16308,16309,27101574,강화길공인중개사사무소,,Ganghwa-gil Real Estate Broker Office,Professional and Other Places,Building,126.39752159999952,37.63843519999966,대한민국,KOR,KOR,인천광역시,강화군,,화도면,내리,,,1530-4,2022-08-12 13:15:03,"빌딩,건물||부동산||중개업||중개업-일반",False
16345,16346,3116769,부동산119공인중개사사무소,119부동산,Real Estate 119 Real Estate Broker Office,Professional and Other Places,Building,126.6739367718369,37.46445114834517,대한민국,KOR,KOR,인천광역시,미추홀구,,주안동,,주안로,39,478-51,2019-11-14 23:26:14,"빌딩,건물||부동산||중개업||중개업-일반",False
16349,16350,27453228,열린부동산공인중개사사무소,열린공인중개사,Open Real Estate Broker Office,Professional and Other Places,Building,126.64754285999388,37.37930252347181,대한민국,KOR,KOR,인천광역시,연수구,,송도동,,해송로,143,9-31,2022-08-12 13:15:03,"빌딩,건물||부동산||중개업||중개업-일반",False
16418,16419,3116067,부동산멘토 공인중개사사무소,멘토부동산,Real Estate Mentor Real Estate Broker Office,Professional and Other Places,Building,126.70313588307188,37.45307924546708,대한민국,KOR,KOR,인천광역시,남동구,,구월동,,인주대로591번길,64,1132,2022-05-01 12:37:48,"빌딩,건물||부동산||중개업||중개업-일반",False
