,OID_,id,name,name_alias,name_eng,category,subcategory,lon,lat,country,country_code,language_code,sd,sgg,sgg_sub,emd,ri,street,number_st,number_jb,update_date,dwnm,result
1163,1164,1745892,간석우성1차아파트테니스장,,Ganseok Wooseong 1st Apartment Tennis Court,Parks and Outdoors,Tennis Court,126.69507326267292,37.4677855527471,대한민국,KOR,KOR,인천광역시,남동구,,간석동,,방축로,501,893-1,2017-09-29 11:11:11,"레져,체육||구기||테니스장",False
1750,1751,27173495,노블테니스아카데미,,Noble Tennis Academy,Parks and Outdoors,Tennis Court,126.72656216270192,37.39825895924225,대한민국,KOR,KOR,인천광역시,남동구,,논현동,,논고개로,73,746-5,2022-08-18 12:00:50,"레져,체육||구기||테니스장",False
2691,2692,1745546,한국폴리텍2대학 인천캠퍼스테니스장,폴리텍2대학인천캠퍼스테니스장,Korea Polytechnic University Incheon Campus Tennis Court,Parks and Outdoors,Tennis Court,126.75455894903196,37.4768489583431,대한민국,KOR,KOR,인천광역시,부평구,,구산동,,무네미로448번길,56,40-7,2020-05-19 23:00:14,"레져,체육||구기||테니스장",False
3939,3940,20078344,담방테니스클럽,,Dambang Tennis Club,Parks and Outdoors,Tennis Court,126.73595069999996,37.437202199999774,대한민국,KOR,KOR,인천광역시,남동구,,수산동,,소래로,540,601,2022-05-01 12:37:48,"레져,체육||구기||테니스장",False
6975,6976,1747311,가이아샹베르2차아파트테니스장,,Gaia Chambert 2nd Apartment Tennis Court,Parks and Outdoors,Tennis Court,126.65114863760871,37.55705055281339,대한민국,KOR,KOR,인천광역시,서구,,경서동,,경서로31번길,47,727-1,2018-07-30 19:19:18,"레져,체육||구기||테니스장",False
6997,6998,1747725,청천푸르지오아파트테니스장,푸르지오아파트테니스장,Cheongcheon Prugio Apartment Tennis Court,Parks and Outdoors,Tennis Court,126.70656684453591,37.51479050385917,대한민국,KOR,KOR,인천광역시,부평구,,청천동,,세월천로,16,176,2017-09-29 11:11:11,"레져,체육||구기||테니스장",False
10060,10061,20100507,계산현대아파트테니스장,,Gyesan Hyundai Apartment Tennis Court,Parks and Outdoors,Tennis Court,126.73255405497248,37.537970558372,대한민국,KOR,KOR,인천광역시,계양구,,계산동,,계산로,171,66,2021-12-23 15:49:18,"레져,체육||구기||테니스장",False
10103,10104,1746175,현대3단지아파트테니스장,3단지부평현대아파트테니스장,Hyundai 3 Complex Apartment Tennis Court,Parks and Outdoors,Tennis Court,126.7046848647478,37.490177166134,대한민국,KOR,KOR,인천광역시,부평구,,산곡동,,마장로,121,370-399,2018-02-07 11:22:33,"레져,체육||구기||테니스장",False
10351,10352,1745940,송도럭키아파트테니스장,,Songdo Lucky Apartment Tennis Court,Parks and Outdoors,Tennis Court,126.64370278351647,37.425420132497536,대한민국,KOR,KOR,인천광역시,연수구,,옥련동,,능허대로79번길,30,626,2018-12-19 14:34:02,"레져,체육||구기||테니스장",False
10964,10965,20195297,연수풍림2차아파트테니스장,,Yeonsu Poongrim 2nd Apartment Tennis Court,Parks and Outdoors,Tennis Court,126.67372080656092,37.40092155232645,대한민국,KOR,KOR,인천광역시,연수구,,동춘동,,경원대로119번길,21,929,2021-12-23 15:49:18,"레져,체육||구기||테니스장",False
13961,13962,1746719,주안진흥아파트테니스장,,Juan Jinheung Apartment Tennis Court,Parks and Outdoors,Tennis Court,126.68190172969672,37.4474760049084,대한민국,KOR,KOR,인천광역시,미추홀구,,주안동,,인하로298번길,33,1606,2018-07-30 19:19:18,"레져,체육||구기||테니스장",False
14148,14149,271663,교동테니스장,,Gyodong Tennis Court,Parks and Outdoors,Tennis Court,126.2817499999996,37.78436699999992,대한민국,KOR,KOR,인천광역시,강화군,,교동면,대룡리,교동동로,485-5,산36,2017-03-02 12:00:00,"레져,체육||구기||테니스장",False
15339,15340,1746309,현대2단지아파트테니스장,,Hyundai 2nd Apartment Tennis Court,Parks and Outdoors,Tennis Court,126.70711007116796,37.4945894407729,대한민국,KOR,KOR,인천광역시,부평구,,산곡동,,안남로123번길,46,306-3,2021-12-23 15:49:18,"레져,체육||구기||테니스장",False
16591,16592,1746761,부개주공1단지아파트테니스장,,Bugae Jugong Apartment Complex 1 Tennis Court,Parks and Outdoors,Tennis Court,126.73735478720896,37.50631884817671,대한민국,KOR,KOR,인천광역시,부평구,,부개동,,길주남로,143,496-2,2021-12-23 15:49:18,"레져,체육||구기||테니스장",False
21514,21515,1746433,부개주공5단지아파트테니스장,5단지부개주공아파트테니스장,Bugae Jugong Complex 5 Apartment Tennis Court,Parks and Outdoors,Tennis Court,126.73742169197897,37.498696801094006,대한민국,KOR,KOR,인천광역시,부평구,,부개동,,부개로,11,500-1,2021-12-23 15:49:18,"레져,체육||구기||테니스장",False
23387,23388,1745423,대림아파트테니스장,1차연수대림이편한세상아파트테니스장,Daelim Apartment Tennis Court,Parks and Outdoors,Tennis Court,126.69507848203986,37.42076475062095,대한민국,KOR,KOR,인천광역시,연수구,,연수동,,원인재로,300,532,2020-03-26 16:41:43,"레져,체육||구기||테니스장",False
24006,24007,1745507,경남1차아파트테니스장,,Gyeongnam 1st Apartment Tennis Court,Parks and Outdoors,Tennis Court,126.7114032258218,37.50328901771586,대한민국,KOR,KOR,인천광역시,부평구,,산곡동,,안남로222번길,27,142-3,2017-09-29 11:11:11,"레져,체육||구기||테니스장",False
27137,27138,1745487,경남4차아파트테니스장,,Gyeongnam 4th apartment tennis court,Parks and Outdoors,Tennis Court,126.70865781559236,37.500318123870095,대한민국,KOR,KOR,인천광역시,부평구,,산곡동,,안남로206번길,18,274-5,2017-10-16 16:14:57,"레져,체육||구기||테니스장",False
28042,28043,1746411,당하풍림아이원2차아파트테니스장,2차당하풍림아이원아파트테니스장,Dangha Poonglim I-One 2nd Apartment Tennis Court,Parks and Outdoors,Tennis Court,126.67668303118894,37.59588235251116,대한민국,KOR,KOR,인천광역시,서구,,마전동,,원당대로685번길,30,1053-1,2019-11-25 23:00:11,"레져,체육||구기||테니스장",False
29492,29493,20100491,오류동신동아아파트테니스장,,Oryu-dong Sindong-a Apartment Tennis Court,Parks and Outdoors,Tennis Court,126.73483400372064,37.580373995322944,대한민국,KOR,KOR,인천광역시,계양구,,오류동,,황어로115번길,12,180,2021-12-23 15:49:18,"레져,체육||구기||테니스장",False
29856,29857,3711788,서창2지구LH휴먼시아1단지아파트테니스장,서창2지구엘에이치휴먼시아1단지아파트테니스장,Seochang District 2 LH Humansia Complex 1 Apartment Tennis Court,Parks and Outdoors,Tennis Court,126.74159281417197,37.42987169120647,대한민국,KOR,KOR,인천광역시,남동구,,서창동,,서창남순환로,124-14,636,2021-12-23 15:49:18,"레져,체육||구기||테니스장",False
30156,30157,1746908,인천검단아이파크아파트테니스장,,Incheon Geomdan I'Park Apartment Tennis Court,Parks and Outdoors,Tennis Court,126.66420018058488,37.60171208513399,대한민국,KOR,KOR,인천광역시,서구,,마전동,,완정로92번길,28,998-1,2018-07-24 8:08:08,"레져,체육||구기||테니스장",False
36666,36667,5596933,연안월디테니스족구장,연안월디족구장,Coastal Woldi Tennis Stadium,Parks and Outdoors,Tennis Court,126.59709040038584,37.44643869998444,대한민국,KOR,KOR,인천광역시,중구,,항동7가,,,,82-29,2022-05-01 12:37:48,"레져,체육||구기||테니스장",False
38724,38725,2618569,한국남동발전영흥에너지타운테니스장,남동발전영흥에너지타운테니스장,Korea South-East Power Yeongheung Energy Town Tennis Court,Parks and Outdoors,Tennis Court,126.4525237999998,37.24938029999971,대한민국,KOR,KOR,인천광역시,옹진군,,영흥면,외리,영흥남로369번길,22,680,2018-08-16 9:30:30,"레져,체육||구기||테니스장",False
41437,41438,20195299,연수현대1차아파트테니스장,,Yeonsu Hyundai 1st Apartment Tennis Court,Parks and Outdoors,Tennis Court,126.67487016376133,37.403273712702365,대한민국,KOR,KOR,인천광역시,연수구,,동춘동,,원인재로,56,928,2021-12-23 15:49:18,"레져,체육||구기||테니스장",False
41539,41540,1745330,인천지방중소벤처기업청테니스장,,Incheon Regional Small and Medium Venture Business Administration Tennis Court,Parks and Outdoors,Tennis Court,126.69898059999996,37.40953459999976,대한민국,KOR,KOR,인천광역시,남동구,,논현동,,은봉로,82,445-1,2017-09-29 7:07:07,"레져,체육||구기||테니스장",False
41956,41957,3642721,테니스장,,tennis court,Parks and Outdoors,Tennis Court,126.4779467996437,37.492473599873534,대한민국,KOR,KOR,인천광역시,중구,,운서동,,영종해안북로1050번길,78-19,2860-7,2022-05-01 12:37:48,"레져,체육||구기||테니스장",False
43439,43440,20099986,간석래미안자이아파트테니스장,,Ganseok Raemian Zai Apartment Tennis Court,Parks and Outdoors,Tennis Court,126.71174351254288,37.45822718362099,대한민국,KOR,KOR,인천광역시,남동구,,간석동,,남동대로,860,939-1,2022-05-01 12:37:48,"레져,체육||구기||테니스장",False
43688,43689,5719684,부개주공3단지아파트테니스장,3단지부개주공아파트테니스장,Bugae Jugong Complex 3 Apartment Tennis Court,Parks and Outdoors,Tennis Court,126.73682679999996,37.5008790999998,대한민국,KOR,KOR,인천광역시,부평구,,부개동,,길주남로,144,498-5,2021-12-23 15:49:18,"레져,체육||구기||테니스장",False
46789,46790,20195303,연수한양1차아파트테니스장,,Yeonsu Hanyang 1st Apartment Tennis Court,Parks and Outdoors,Tennis Court,126.67959525881902,37.40831769841692,대한민국,KOR,KOR,인천광역시,연수구,,동춘동,,원인재로,124,925,2021-12-23 15:49:18,"레져,체육||구기||테니스장",False
47200,47201,1746322,부개주공6단지아파트테니스장,6단지부개주공아파트테니스장,Bugae Jugong Complex 6 Apartment Tennis Court,Parks and Outdoors,Tennis Court,126.74293467640896,37.49986271858511,대한민국,KOR,KOR,인천광역시,부평구,,부개동,,부개로,12,501-1,2021-12-23 15:49:18,"레져,체육||구기||테니스장",False
50756,50757,1745073,갈산타운아파트테니스장,1단지갈산주공아파트테니스장,Galsan Town Apartment Tennis Court,Parks and Outdoors,Tennis Court,126.73136045891297,37.512458074824906,대한민국,KOR,KOR,인천광역시,부평구,,갈산동,,굴포로,81,359,2021-12-23 15:49:18,"레져,체육||구기||테니스장",False
51078,51079,3555672,영종복합청사테니스장,,Yeongjong Complex Tennis Court,Parks and Outdoors,Tennis Court,126.53079879999984,37.49366859999975,대한민국,KOR,KOR,인천광역시,중구,,운남동,,운남서로,100-1,1511,2019-08-22 19:39:08,"레져,체육||구기||테니스장",False
51710,51711,20195294,연수한양2차아파트테니스장,,Yeonsu Hanyang 2nd Apartment Tennis Court,Parks and Outdoors,Tennis Court,126.67247801638383,37.40407304050555,대한민국,KOR,KOR,인천광역시,연수구,,동춘동,,원인재로,59,932,2021-12-23 15:49:18,"레져,체육||구기||테니스장",False
52153,52154,1746551,학익동풍림아이원아파트테니스장, ,Hakik-dong Poongrim I-One Apartment Tennis Court,Parks and Outdoors,Tennis Court,126.66153307930288,37.44031859556847,대한민국,KOR,KOR,인천광역시,미추홀구,,학익동,,매소홀로,340,721,2018-08-16 15:59:59,"레져,체육||구기||테니스장",False
53358,53359,1747817,인천계양경찰서테니스장,,Incheon Gyeyang Police Station Tennis Court,Parks and Outdoors,Tennis Court,126.73582189999996,37.53714959999982,대한민국,KOR,KOR,인천광역시,계양구,,계산동,,장제로,774,1078-4,2018-04-06 9:30:30,"레져,체육||구기||테니스장",False
54795,54796,5696108,펀펀테니스,펀펀테니스교실,Fun Fun Tennis,Parks and Outdoors,Tennis Court,126.66810339999996,37.63349889999986,대한민국,KOR,KOR,인천광역시,서구,,대곡동,,두밀로,136,326,2022-08-16 16:52:33,"레져,체육||구기||테니스장",False
54904,54905,27184825,록테니스아카데미 부평점,,Rock Tennis Academy Bupyeong Branch,Parks and Outdoors,Tennis Court,126.70830194507096,37.51040475428589,대한민국,KOR,KOR,인천광역시,부평구,,청천동,,안남로305번길,16,192-8,2022-08-24 14:41:06,"레져,체육||구기||테니스장",False
55461,55462,3711849,서창2지구LH휴먼시아1단지아파트테니스장,서창2지구엘에이치휴먼시아1단지아파트테니스장,Seochang District 2 LH Humansia Complex 1 Apartment Tennis Court,Parks and Outdoors,Tennis Court,126.74305063873896,37.43148957415448,대한민국,KOR,KOR,인천광역시,남동구,,서창동,,서창남순환로,124-14,636,2021-12-23 15:49:18,"레져,체육||구기||테니스장",False
57297,57298,1745531,만수주공6단지아파트테니스장,,Mansu Jugong Complex 6 Apartment Tennis Court,Parks and Outdoors,Tennis Court,126.73686012383496,37.46023589622399,대한민국,KOR,KOR,인천광역시,남동구,,만수동,,백범로124번길,127,17,2021-12-23 15:49:18,"레져,체육||구기||테니스장",False
57445,57446,1746516,동남아파트테니스장,,Southeast Asia Part Tennis Court,Parks and Outdoors,Tennis Court,126.66790940715595,37.40287576146349,대한민국,KOR,KOR,인천광역시,연수구,,동춘동,,먼우금로,19,943,2021-12-23 15:49:18,"레져,체육||구기||테니스장",False
59986,59987,1745203,유원아파트테니스장,,Yuwon Apartment Tennis Court,Parks and Outdoors,Tennis Court,126.64244802960162,37.45563060050985,대한민국,KOR,KOR,인천광역시,미추홀구,,용현동,,낙섬중로,102,557-1,2018-07-30 19:19:18,"레져,체육||구기||테니스장",False
60560,60561,1745822,신흥현대아이파크아파트테니스장,,Shinheung Hyundai I'Park Apartment Tennis Court,Parks and Outdoors,Tennis Court,126.63273006655588,37.45572730493801,대한민국,KOR,KOR,인천광역시,중구,,신흥동3가,,인항로,30,7-235,2021-12-23 15:49:18,"레져,체육||구기||테니스장",False
60920,60921,1747473,동아풍림아파트테니스장,,Donga Poonglim Apartment Tennis Court,Parks and Outdoors,Tennis Court,126.66263484905296,37.44227320520599,대한민국,KOR,KOR,인천광역시,미추홀구,,학익동,,소성로,120,719,2021-12-23 15:49:18,"레져,체육||구기||테니스장",False
62881,62882,3940735,새아침공원테니스장,,New Morning Park Tennis Court,Parks and Outdoors,Tennis Court,126.66041499999994,37.39244829999976,대한민국,KOR,KOR,인천광역시,연수구,,송도동,,,,2-1,2022-07-19 20:20:05,"레져,체육||구기||테니스장",False
64981,64982,1745755,대한적십자사 인천지사테니스장,,Korean Red Cross Incheon Branch Tennis Court,Parks and Outdoors,Tennis Court,126.69028129999988,37.41928319999976,대한민국,KOR,KOR,인천광역시,연수구,,연수동,,함박뫼로,220,581,2019-03-11 10:44:23,"레져,체육||구기||테니스장",False
65324,65325,1747637,연수영남아파트테니스장,,Yeonsu Yeongnam Apartment Tennis Court,Parks and Outdoors,Tennis Court,126.6832784928342,37.41971790868516,대한민국,KOR,KOR,인천광역시,연수구,,연수동,,새말로,111,577,2017-10-26 13:39:43,"레져,체육||구기||테니스장",False
68385,68386,20100524,까치마을태화아파트테니스장,,Kachi Village Taehwa Apartment Tennis Court,Parks and Outdoors,Tennis Court,126.74018057556265,37.53007218427072,대한민국,KOR,KOR,인천광역시,계양구,,작전동,,효서로,393,915-1,2021-12-23 15:49:18,"레져,체육||구기||테니스장",False
70429,70430,1745670,부평동아1단지아파트테니스장,,Bupyeong Donga Apartment Complex 1 Tennis Court,Parks and Outdoors,Tennis Court,126.71678596332896,37.4950634535703,대한민국,KOR,KOR,인천광역시,부평구,,부평동,,부평문화로,37,70-5,2021-12-23 15:49:18,"레져,체육||구기||테니스장",False
71554,71555,1747307,태평샹베르1차아파트테니스장,,Taepyeong Chambert 1st Apartment Tennis Court,Parks and Outdoors,Tennis Court,126.65284398854821,37.55940673450976,대한민국,KOR,KOR,인천광역시,서구,,경서동,,도요지로,15,722-1,2017-09-29 11:11:11,"레져,체육||구기||테니스장",False
72389,72390,26985948,부성우성아파트테니스장,,Buseong Woosung Apartment Tennis Court,Parks and Outdoors,Tennis Court,126.71573936043148,37.50254928690586,대한민국,KOR,KOR,인천광역시,부평구,,산곡동,,부영로,165,294-35,2022-05-01 12:37:48,"레져,체육||구기||테니스장",False
74269,74270,1745682,부평동아2단지아파트테니스장,,Bupyeong Donga Apartment Complex 2 Tennis Court,Parks and Outdoors,Tennis Court,126.71699294632896,37.4983518187785,대한민국,KOR,KOR,인천광역시,부평구,,부평동,,부흥로,246,70-125,2021-12-23 15:49:18,"레져,체육||구기||테니스장",False
76466,76467,6348650,산곡현대5차아파트테니스장,5차산곡현대아파트테니스장,Sangok Hyundai 5th Apartment Tennis Court,Parks and Outdoors,Tennis Court,126.71146617206688,37.5063787995441,대한민국,KOR,KOR,인천광역시,부평구,,청천동,,,,336-2,2021-12-23 15:49:18,"레져,체육||구기||테니스장",False
77001,77002,20195300,연수대우삼환아파트테니스장,,Yeonsu Daewoo Samhwan Apartment Tennis Court,Parks and Outdoors,Tennis Court,126.67935670948155,37.40493679604932,대한민국,KOR,KOR,인천광역시,연수구,,동춘동,,원인재로,88,925-7,2021-12-23 15:49:18,"레져,체육||구기||테니스장",False
78707,78708,80388,인천시립가좌테니스장,인천가좌테니스장,Incheon Municipal Gajwa Tennis Court,Parks and Outdoors,Tennis Court,126.67721529999996,37.475590899999794,대한민국,KOR,KOR,인천광역시,서구,,가좌동,,가좌로11번길,7,606-3,2022-05-01 12:37:48,"레져,체육||구기||테니스장",False
79802,79803,1746195,부평현대1단지아파트테니스장,1지구부평현대아파트테니스장,Bupyeong Hyundai Complex 1 Apartment Tennis Court,Parks and Outdoors,Tennis Court,126.70925550928294,37.49108818079301,대한민국,KOR,KOR,인천광역시,부평구,,산곡동,,경원대로,1269,307,2021-12-23 15:49:18,"레져,체육||구기||테니스장",False
80998,80999,1679442,정보통신산업진흥원송도사무소테니스장,,Information and Communication Industry Promotion Agency Songdo Office Tennis Court,Parks and Outdoors,Tennis Court,126.64101549999992,37.37592879999976,대한민국,KOR,KOR,인천광역시,연수구,,송도동,,벤처로,82,11-13,2017-10-26 18:27:18,"레져,체육||구기||테니스장",False
81615,81616,1745305,인천광역시인재개발원테니스장,인천인재개발원테니스장,Incheon Metropolitan City Human Resources Development Center Tennis Court,Parks and Outdoors,Tennis Court,126.67998049999994,37.54115399999982,대한민국,KOR,KOR,인천광역시,서구,,심곡동,,심곡로,98,산63-2,2018-07-24 9:30:30,"레져,체육||구기||테니스장",False
81973,81974,5473594,미추홀퍼스트테니스장,,Michuhol First Tennis Court,Parks and Outdoors,Tennis Court,126.64344876936472,37.45762464584816,대한민국,KOR,KOR,인천광역시,미추홀구,,용현동,,,,680-7,2018-12-11 15:04:18,"레져,체육||구기||테니스장",False
83378,83379,27371890,달빛공원테니스장,,Moonlight Park Tennis Court,Parks and Outdoors,Tennis Court,126.65537579999985,37.39753949999972,대한민국,KOR,KOR,인천광역시,연수구,,송도동,,,,1,2022-07-13 13:54:25,"레져,체육||구기||테니스장",False
84796,84797,1746931,금곡동동남자연아파트테니스장,,Geumgok-dong Namyeon Apartment Tennis Court,Parks and Outdoors,Tennis Court,126.65105896037684,37.6047322313202,대한민국,KOR,KOR,인천광역시,서구,,금곡동,,완정로,242,722-2,2018-07-24 8:08:08,"레져,체육||구기||테니스장",False
84961,84962,4909003,인천논현푸르지오아파트테니스장,,Incheon Nonhyeon Prugio Apartment Tennis Court,Parks and Outdoors,Tennis Court,126.73941805104464,37.40326905146309,대한민국,KOR,KOR,인천광역시,남동구,,논현동,,포구로,40,810,2018-06-18 9:59:59,"레져,체육||구기||테니스장",False
88244,88245,3711787,서창2지구LH휴먼시아1단지아파트테니스장,서창2지구엘에이치휴먼시아1단지아파트테니스장,Seochang District 2 LH Humansia Complex 1 Apartment Tennis Court,Parks and Outdoors,Tennis Court,126.74403119544296,37.43021361481237,대한민국,KOR,KOR,인천광역시,남동구,,서창동,,서창남순환로,124-14,636,2021-12-23 15:49:18,"레져,체육||구기||테니스장",False
91485,91486,20195302,연수대우삼환아파트테니스장,,Yeonsu Daewoo Samhwan Apartment Tennis Court,Parks and Outdoors,Tennis Court,126.68023756708196,37.40579983125309,대한민국,KOR,KOR,인천광역시,연수구,,동춘동,,원인재로,88,925-7,2021-12-23 15:49:18,"레져,체육||구기||테니스장",False
91800,91801,1746361,무지개마을아파트테니스장,,Rainbow Village Apartment Tennis Court,Parks and Outdoors,Tennis Court,126.67225994606844,37.40175409276552,대한민국,KOR,KOR,인천광역시,연수구,,동춘동,,원인재로,14,931,2019-06-20 18:00:02,"레져,체육||구기||테니스장",False
91803,91804,1745154,대한상공회의소 인천인력개발원테니스장,상공회의소인천인력개발원테니스장,Korea Chamber of Commerce and Industry Incheon Human Resources Development Center Tennis Court,Parks and Outdoors,Tennis Court,126.69157969999956,37.40864730000009,대한민국,KOR,KOR,인천광역시,남동구,,고잔동,,남동서로205번길,32,625,2022-05-01 12:37:48,"레져,체육||구기||테니스장",False
95689,95690,1747646,유천아파트테니스장,,Yucheon Apartment Tennis Court,Parks and Outdoors,Tennis Court,126.68476486320245,37.42242886859949,대한민국,KOR,KOR,인천광역시,연수구,,연수동,,먼우금로,302,534,2017-10-26 12:07:06,"레져,체육||구기||테니스장",False
98462,98463,1746023,경남3차아파트테니스장,,Gyeongnam 3rd Apartment Tennis Court,Parks and Outdoors,Tennis Court,126.70644440163073,37.501842512640366,대한민국,KOR,KOR,인천광역시,부평구,,산곡동,,마장로272번길,89,145-7,2017-09-29 11:11:11,"레져,체육||구기||테니스장",False
98676,98677,1745694,만수신동아아파트테니스장,,Mansu Sindonga Apartment Tennis Court,Parks and Outdoors,Tennis Court,126.737551087837,37.467351334578886,대한민국,KOR,KOR,인천광역시,남동구,,만수동,,만수로111번길,38,5-426,2019-11-08 23:07:03,"레져,체육||구기||테니스장",False
99929,99930,1747404,인천광역시남부교육지원청테니스장,인천시남부교육지원청테니스장,Incheon Metropolitan City Nambu Office of Education Tennis Court,Parks and Outdoors,Tennis Court,126.62143869999991,37.4751416999998,대한민국,KOR,KOR,인천광역시,중구,,송학동1가,,자유공원남로,17,11-1,2018-07-24 9:30:30,"레져,체육||구기||테니스장",False
104810,104811,1746302,현대2단지아파트테니스장,2단지현대아파트테니스장,Hyundai 2nd Apartment Tennis Court,Parks and Outdoors,Tennis Court,126.71039451721396,37.4914034826621,대한민국,KOR,KOR,인천광역시,부평구,,산곡동,,안남로,91,311-126,2021-12-23 15:49:18,"레져,체육||구기||테니스장",False
105638,105639,1746414,당하태평샹베르아파트테니스장,태평샹베르아파트테니스장,Dangha Taipyeong Chambert Apartment Tennis Court,Parks and Outdoors,Tennis Court,126.67829991848188,37.58573158182944,대한민국,KOR,KOR,인천광역시,서구,,당하동,,독정로25번길,26-6,820-1,2018-08-03 9:59:59,"레져,체육||구기||테니스장",False
106351,106352,6223277,강화군실내테니스장,강화군테니스장,Ganghwa-gun Indoor Tennis Court,Parks and Outdoors,Tennis Court,126.50762696303788,37.72823456169378,대한민국,KOR,KOR,인천광역시,강화군,,선원면,신정리,고식이길,177,29,2019-08-13 2:52:29,"레져,체육||구기||테니스장",False
106567,106568,2858362,인천지방법원테니스장,,Incheon District Court Tennis Court,Parks and Outdoors,Tennis Court,126.66651929999993,37.44343609999978,대한민국,KOR,KOR,인천광역시,미추홀구,,학익동,,소성로163번길,17,278-2,2018-08-11 9:09:09,"레져,체육||구기||테니스장",False
106773,106774,1747260,연수주공3단지아파트테니스장,,Yeonsu Jugong Apartment Complex 3 Tennis Court,Parks and Outdoors,Tennis Court,126.68365913609192,37.415419713019176,대한민국,KOR,KOR,인천광역시,연수구,,연수동,,새말로,154,578-2,2021-12-23 15:49:18,"레져,체육||구기||테니스장",False
107809,107810,1745147,인천공단소방서테니스장,,Incheon Industrial Complex Fire Station Tennis Court,Parks and Outdoors,Tennis Court,126.6936925999999,37.40806639999976,대한민국,KOR,KOR,인천광역시,남동구,,고잔동,,남동서로,208,633,2018-11-27 19:32:06,"레져,체육||구기||테니스장",False
109057,109058,1745860,부평대림아파트테니스장,,Bupyeong Daelim Apartment Tennis Court,Parks and Outdoors,Tennis Court,126.7187356316042,37.502139841207146,대한민국,KOR,KOR,인천광역시,부평구,,부평동,,부영로,196,64-20,2017-10-23 16:05:05,"레져,체육||구기||테니스장",False
109231,109232,27179142,최프로 테니스아카데미,,Choi Pro Tennis Academy,Parks and Outdoors,Tennis Court,126.6892689582479,37.46077626472756,대한민국,KOR,KOR,인천광역시,미추홀구,,주안동,,경원대로,873,988-2,2022-05-01 12:37:48,"레져,체육||구기||테니스장",False
109849,109850,995515,상록수테니스장,,Sangnoksu Tennis Court,Parks and Outdoors,Tennis Court,126.4287999999836,37.73481799957639,대한민국,KOR,KOR,인천광역시,강화군,,내가면,고천리,,,30-26,2022-05-01 12:37:48,"레져,체육||구기||테니스장",False
110052,110053,5845309,스타디움센트럴시티아파트테니스장,,Dowon Station Seohee Star Hill Cruise City Tennis Court,Parks and Outdoors,Tennis Court,126.64426599715814,37.46586677946927,대한민국,KOR,KOR,인천광역시,미추홀구,,숭의동,,참외전로,268,462,2022-05-01 12:37:48,"레져,체육||구기||테니스장",False
111407,111408,1747527,한양아파트테니스장,,Hanyang Apartment Tennis Court,Parks and Outdoors,Tennis Court,126.69975440735608,37.50320403937301,대한민국,KOR,KOR,인천광역시,부평구,,산곡동,,마장로,287,182,2017-10-16 16:33:25,"레져,체육||구기||테니스장",False
117231,117232,1745189,인천연수경남아파트테니스장,,Incheon Yeonsu Gyeongnam Apartment Tennis Court,Parks and Outdoors,Tennis Court,126.69440086450388,37.42107495012854,대한민국,KOR,KOR,인천광역시,연수구,,연수동,,원인재로,310,532,2017-10-26 13:37:19,"레져,체육||구기||테니스장",False
120033,120034,1745975,라이프비취맨션3차아파트테니스장,비취맨션아파트테니스장,Life Beach Mansion 3rd Apartment Tennis Court,Parks and Outdoors,Tennis Court,126.6070652003242,37.451213312544446,대한민국,KOR,KOR,인천광역시,중구,,항동7가,,축항대로86번길,47,27-107,2018-08-23 17:25:41,"레져,체육||구기||테니스장",False
120291,120292,2858359,인천지방검찰청테니스장,인천지검테니스장,Incheon District Prosecutors' Office Tennis Court,Parks and Outdoors,Tennis Court,126.66841719999996,37.44360429999978,대한민국,KOR,KOR,인천광역시,미추홀구,,학익동,,소성로163번길,49,278-1,2018-08-11 9:09:09,"레져,체육||구기||테니스장",False
121371,121372,27157591,씨사이드파크테니스장,,Seaside Park Tennis Court,Parks and Outdoors,Tennis Court,126.55754756980184,37.47850824923791,대한민국,KOR,KOR,인천광역시,중구,,운남동,,영종대로,842-58,1640-1,2022-08-08 10:29:42,"레져,체육||구기||테니스장",False
123297,123298,1746450,푸른마을삼부아파트테니스장,삼부아파트테니스장,Blue Village Sambu Apartment Tennis Court,Parks and Outdoors,Tennis Court,126.742159012954,37.50197492258312,대한민국,KOR,KOR,인천광역시,부평구,,부개동,,부개로,58,499-2,2021-12-23 15:49:18,"레져,체육||구기||테니스장",False
123813,123814,3711848,서창2지구LH휴먼시아1단지아파트테니스장,서창2지구엘에이치휴먼시아1단지아파트테니스장,Seochang District 2 LH Humansia Complex 1 Apartment Tennis Court,Parks and Outdoors,Tennis Court,126.74012265193898,37.42946825552749,대한민국,KOR,KOR,인천광역시,남동구,,서창동,,서창남순환로,124-14,636,2021-12-23 15:49:18,"레져,체육||구기||테니스장",False
124590,124591,1746550,학익동풍림아이원아파트테니스장,,Hakik-dong Poongrim I-One Apartment Tennis Court,Parks and Outdoors,Tennis Court,126.65978774072808,37.4401269862465,대한민국,KOR,KOR,인천광역시,미추홀구,,학익동,,매소홀로,340,721,2018-07-30 19:19:18,"레져,체육||구기||테니스장",False
124865,124866,1745223,한화꿈에그린아파트테니스장,,Hanwha Dream Green Apartment Tennis Court,Parks and Outdoors,Tennis Court,126.649791897797,37.467995133568245,대한민국,KOR,KOR,인천광역시,미추홀구,,숭의동,,석정로126번길,23,86-1,2018-07-30 19:19:18,"레져,체육||구기||테니스장",False
125295,125296,53290,고인돌클럽,,dolmen club,Parks and Outdoors,Tennis Court,126.52222339999987,37.747364199999886,대한민국,KOR,KOR,인천광역시,강화군,,강화읍,용정리,해안북로,155,6-8,2017-12-12 11:11:11,"레져,체육||구기||테니스장",False
126119,126120,1747653,태산아파트테니스장,,Taesan Apartment Tennis Court,Parks and Outdoors,Tennis Court,126.6831936814328,37.42113632261678,대한민국,KOR,KOR,인천광역시,연수구,,연수동,,먼우금로,282,576,2017-09-29 11:11:11,"레져,체육||구기||테니스장",False
126965,126966,20099964,논현주공2단지아파트테니스장,,Nonhyeon Jugong Complex 2 Apartment Tennis Court,Parks and Outdoors,Tennis Court,126.71080179051236,37.410986298564765,대한민국,KOR,KOR,인천광역시,남동구,,논현동,,함박뫼로,439,563-3,2021-12-23 15:49:18,"레져,체육||구기||테니스장",False
127293,127294,1747048,연수우성1차아파트테니스장,,Yeonsu Woosung 1st Apartment Tennis Court,Parks and Outdoors,Tennis Court,126.68129914551092,37.40970547353108,대한민국,KOR,KOR,인천광역시,연수구,,연수동,,청능대로,175,635,2021-12-23 15:49:18,"레져,체육||구기||테니스장",False
127783,127784,20144240,연수주공2단지아파트테니스장, ,Yeonsu Jugong Complex 2 Apartment Tennis Court,Parks and Outdoors,Tennis Court,126.69323847716684,37.421397840931405,대한민국,KOR,KOR,인천광역시,연수구,,연수동,,원인재로,315,533,2021-12-23 15:49:18,"레져,체육||구기||테니스장",False
129376,129377,5715547,인천실내테니스탁구,인천실내탁구,Incheon Indoor Tennis Table Tennis,Parks and Outdoors,Tennis Court,126.66645414028288,37.42522993082244,대한민국,KOR,KOR,인천광역시,연수구,,청학동,,비류대로294번길,16,568-1,2022-06-29 11:25:35,"레져,체육||구기||테니스장",False
133538,133539,5550460,청라휴먼시아아파트테니스장,청라아파트테니스장,Cheongna Humansia Apartment Tennis Court,Parks and Outdoors,Tennis Court,126.64812280034292,37.527841014819806,대한민국,KOR,KOR,인천광역시,서구,,청라동,,청라커낼로,232,184-1,2019-08-08 23:05:35,"레져,체육||구기||테니스장",False
136159,136160,5679340,늘솔길공원테니스장,,Neulsolgil Park Tennis Court,Parks and Outdoors,Tennis Court,126.72023679969172,37.387143100687695,대한민국,KOR,KOR,인천광역시,남동구,,논현동,,에코중앙로,91,762-3,2022-09-06 15:18:26,"레져,체육||구기||테니스장",False
138110,138111,833112,강화테니스클럽,,Ganghwa Tennis Club,Parks and Outdoors,Tennis Court,126.52042979999987,37.74506459999991,대한민국,KOR,KOR,인천광역시,강화군,,강화읍,용정리,해안북로,113,산64-3,2017-03-02 12:00:00,"레져,체육||구기||테니스장",False
138246,138247,1745639,송현동부센트레빌아파트테니스장,,Songhyeon Dongbu Centerville Apartment Tennis Court,Parks and Outdoors,Tennis Court,126.63493451687287,37.48273156863985,대한민국,KOR,KOR,인천광역시,동구,,송현동,,화수로,38,66-26,2018-06-18 9:59:59,"레져,체육||구기||테니스장",False
142541,142542,1746744,검단대림이편한세상아파트테니스장,,Geomdan Daerim Easy World Apartment Tennis Court,Parks and Outdoors,Tennis Court,126.65467532339495,37.59889097495165,대한민국,KOR,KOR,인천광역시,서구,,왕길동,,검단로,446,661-1,2021-12-23 15:49:18,"레져,체육||구기||테니스장",False
147020,147021,1746036,금호이수마운트밸리아파트테니스장,이수마운트밸리아파트테니스장,Kumho Isu Mount Valley Apartment Tennis Court,Parks and Outdoors,Tennis Court,126.70603574296196,37.50293948156241,대한민국,KOR,KOR,인천광역시,부평구,,산곡동,,원적로,344,507,2021-12-23 15:49:18,"레져,체육||구기||테니스장",False
147058,147059,20741163,인천글로벌캠퍼스테니스장,,Incheon Global Campus Tennis Court,Parks and Outdoors,Tennis Court,126.66602426613196,37.374022962646656,대한민국,KOR,KOR,인천광역시,연수구,,송도동,,송도문화로,119-6,187,2022-05-01 12:37:48,"레져,체육||구기||테니스장",False
