,OID_,id,name,name_alias,name_eng,category,subcategory,lon,lat,country,country_code,language_code,sd,sgg,sgg_sub,emd,ri,street,number_st,number_jb,update_date,dwnm,result
57318,57319,5368056,리얼원샷사격장 인천제물포점,,Real One-Shot Shooting Range Incheon Jemulpo,Parks and Outdoors,Shooting Range,126.65555992529688,37.46701775551316,대한민국,KOR,KOR,인천광역시,미추홀구,,도화동,,석정로150번길,67,80-118,2022-05-01 12:37:48,"레져,체육||사격,궁도||사격장",False
59708,59709,27183969,에듀건 인천논현점,,Edugun Incheon Nonhyeon Branch,Parks and Outdoors,Shooting Range,126.72209340239192,37.401360672731755,대한민국,KOR,KOR,인천광역시,남동구,,논현동,,논고개로123번길,35,632-1,2022-05-01 12:37:48,"레져,체육||사격,궁도||사격장",False
84021,84022,4341556,Fun풍선콜크다트사격장,,Fun inflatable cork dart shooting range,Parks and Outdoors,Shooting Range,126.59637812761687,37.47255521552366,대한민국,KOR,KOR,인천광역시,중구,,북성동1가,,월미문화로,67,98-62,2022-05-01 12:37:48,"레져,체육||사격,궁도||사격장",False
93076,93077,6226649,방탄유리사격장 인하대점,,Bulletproof Glass Shooting Range Inha University,Parks and Outdoors,Shooting Range,126.65733511347088,37.45217690232637,대한민국,KOR,KOR,인천광역시,미추홀구,,용현동,,인하로77번길,21,194-30,2019-11-14 0:00:00,"레져,체육||사격,궁도||사격장",False
97520,97521,4346631,유람선오락&사격장,유람선오락엔사격장,Cruise ship entertainment & shooting range,Parks and Outdoors,Shooting Range,126.59774749999984,37.47510229999968,대한민국,KOR,KOR,인천광역시,중구,,북성동1가,,월미문화로,37-1,98-338,2022-08-12 13:15:03,"레져,체육||사격,궁도||사격장",False
140119,140120,4346623,문화사격장,,cultural shooting range,Parks and Outdoors,Shooting Range,126.59742735471784,37.47453970383329,대한민국,KOR,KOR,인천광역시,중구,,북성동1가,,월미문화로,43-1,98-341,2022-08-12 13:15:03,"레져,체육||사격,궁도||사격장",False
