,OID_,id,name,name_alias,name_eng,category,subcategory,lon,lat,country,country_code,language_code,sd,sgg,sgg_sub,emd,ri,street,number_st,number_jb,update_date,dwnm,result
13809,13810,2606912,계산수영장,계산동자연풀장,calculation pool,Parks and Outdoors,Swimming Pool,126.7124222004559,37.54412570126231,대한민국,KOR,KOR,인천광역시,계양구,,계산동,,경명대로972번길,18,산55-1,2022-08-24 14:41:06,"레져,체육||수상,해양||수영장||수영장-일반",False
14037,14038,1255977,남동수영장,,southeast swimming pool,Parks and Outdoors,Swimming Pool,126.71557769999995,37.39850479999978,대한민국,KOR,KOR,인천광역시,남동구,,고잔동,,논현고잔로,173,975-1,2022-07-05 16:31:26,"레져,체육||수상,해양||수영장||수영장-일반",False
42145,42146,20154539,경인교대 부설초 수영장,경인교대 부설초등학교 수영장,Gyeongin National University of Education  Affiliated Elementary School Swimming Pool,Parks and Outdoors,Swimming Pool,126.7127328994609,37.53759440096561,대한민국,KOR,KOR,인천광역시,계양구,,효성동,,안남로,612,산19-1,2022-08-18 12:00:50,"레져,체육||수상,해양||수영장||수영장-일반",False
88590,88591,6454590,블루라군 컨벤시아점,,Blue Lagoon Convensia,Parks and Outdoors,Swimming Pool,126.64506389999994,37.38839649999976,대한민국,KOR,KOR,인천광역시,연수구,,송도동,,센트럴로,123,6-1,2022-09-06 15:18:26,"레져,체육||수상,해양||수영장||수영장-일반",False
105185,105186,2736030,문학박태환수영장,박태환수영장,Munhak Park Tae-hwan Swimming Pool,Parks and Outdoors,Swimming Pool,126.6959544999999,37.434613599999786,대한민국,KOR,KOR,인천광역시,미추홀구,,문학동,,매소홀로,618,482,2022-05-01 12:37:48,"레져,체육||수상,해양||수영장||수영장-일반",False
123314,123315,5367726,올림픽기념국민생활관수영장,,Olympic commemorative dormitory swimming pool,Parks and Outdoors,Swimming Pool,126.71874369987088,37.45652880009308,대한민국,KOR,KOR,인천광역시,남동구,,구월동,,구월로,251,1246,2022-05-01 12:37:48,"레져,체육||수상,해양||수영장||수영장-일반",False
136244,136245,3168185,동남스포피아수영장,,Southeast Popia Pool,Parks and Outdoors,Swimming Pool,126.67517819985788,37.42315790117335,대한민국,KOR,KOR,인천광역시,연수구,,연수동,,새말로,27,536,2022-08-16 16:52:33,"레져,체육||수상,해양||수영장||수영장-일반",False
