,OID_,id,name,name_alias,name_eng,category,subcategory,lon,lat,country,country_code,language_code,sd,sgg,sgg_sub,emd,ri,street,number_st,number_jb,update_date,dwnm,result
883,884,4008891,매료스테이호텔,매료스테이HOTEL,Maeryo Stay Hotel,Travel and Transport,Hotel,126.4386248817126,37.51780540447053,대한민국,KOR,KOR,인천광역시,옹진군,,북도면,신도리,신도로,37,524-1,2020-01-14 23:21:05,숙박||호텔||호텔-일반,False
904,905,3643077,아트호텔,아트1호점모텔,Art Hotel,Travel and Transport,Hotel,126.72827278589092,37.491996573624895,대한민국,KOR,KOR,인천광역시,부평구,,부평동,,대정로90번길,6,565-2,2022-08-16 16:52:33,숙박||호텔||호텔-일반,False
1170,1171,4344079,프리미어스호텔,,Premier's Hotel,Travel and Transport,Hotel,126.59780755889386,37.47407009391144,대한민국,KOR,KOR,인천광역시,중구,,북성동1가,,월미로260번길,12,98-367,2022-08-12 13:15:03,숙박||호텔||2성,False
1533,1534,6230122,호텔옐로우,HOTEL옐로우,Hotel Yellow,Travel and Transport,Hotel,126.59853346318684,37.475593843018856,대한민국,KOR,KOR,인천광역시,중구,,북성동1가,,월미로234번길,10,98-446,2022-05-01 12:37:48,숙박||호텔||1성,False
3876,3877,183315,호텔써클,써클호텔,hotel circle,Travel and Transport,Hotel,126.63524076263084,37.45533508605836,대한민국,KOR,KOR,인천광역시,미추홀구,,용현동,,토금중로3번길,28,628-11,2022-08-16 16:52:33,숙박||호텔||호텔-일반,False
5420,5421,20716188,호텔 소울하다 인천점,,Hotel Soulhada Incheon Branch,Travel and Transport,Hotel,126.73686947532198,37.535788570747215,대한민국,KOR,KOR,인천광역시,계양구,,계산동,,계양문화로,58,1081-9,2022-08-24 14:41:06,숙박||호텔||호텔-일반,False
5933,5934,27240125,워커힐환승호텔,워커힐환승호텔,Walkerhill Transit Hotel,Travel and Transport,Hotel,126.45380478466808,37.450396370650665,대한민국,KOR,KOR,인천광역시,중구,,운서동,,공항로,272,2840,2022-05-01 12:37:48,숙박||호텔||호텔-일반,False
7452,7453,713772,호텔 에버리치,HOTEL 에버리치,hotel everrich,Travel and Transport,Hotel,126.47432750009985,37.73492500065859,대한민국,KOR,KOR,인천광역시,강화군,,강화읍,남산리,화성길50번길,43,439-16,2022-08-30 9:43:30,숙박||호텔||3성,False
8443,8444,5765391,비씨인천공항레지던스호텔,,BC Incheon Airport Residence Hotel,Travel and Transport,Hotel,126.50926800032671,37.48257800078274,대한민국,KOR,KOR,인천광역시,중구,,운서동,,영종대로327번길,12,2924,2022-05-01 12:37:48,숙박||레지던스||레지던스-일반,False
8977,8978,6232545,더웰오피스텔,,The Well Officetel,Travel and Transport,Hotel,126.7083729956599,37.466016138120686,대한민국,KOR,KOR,인천광역시,남동구,,간석동,,남동대로,936,214-28,2022-05-01 12:37:48,숙박||레지던스||코업레지던스,False
9317,9318,27449158,호텔 여기어때 주안점,,The main point of Hotel Yeogiuhtte,Travel and Transport,Hotel,126.6826213584114,37.461707979058495,대한민국,KOR,KOR,인천광역시,미추홀구,,주안동,,미추홀대로722번길,40,154-1,2022-08-12 13:15:03,숙박||호텔||호텔-일반,False
9584,9585,20483955,호텔루미,,Hotel Rumi,Travel and Transport,Hotel,126.66887774210895,37.50696974238751,대한민국,KOR,KOR,인천광역시,서구,,석남동,,길주로63번길,3,526-12,2022-05-01 12:37:48,숙박||호텔||호텔-일반,False
10513,10514,5707891,딘관광호텔,HOTEL딘,Dean Tourist Hotel,Travel and Transport,Hotel,126.60252914036384,37.45381571758756,대한민국,KOR,KOR,인천광역시,중구,,항동7가,,연안부두로43번길,12,58-128,2022-08-18 12:00:50,숙박||호텔||2성,False
10722,10723,27455828,호텔세븐스텝 인천부평점,,Hotel Seven Step Incheon Bupyeong,Travel and Transport,Hotel,126.73090179999996,37.49371939999981,대한민국,KOR,KOR,인천광역시,부평구,,부평동,,장제로92번길,13,443-2,2022-08-16 16:52:33,숙박||호텔||호텔-일반,False
11328,11329,4021256,라마다 인천 호텔,라마다 인천 HOTEL,Ramada Incheon Hotel,Travel and Transport,Hotel,126.73544479365898,37.40028884381067,대한민국,KOR,KOR,인천광역시,남동구,,논현동,,소래역로,36,677-6,2022-08-16 16:52:33,숙박||호텔||호텔-일반,False
12277,12278,5675942,호텔반월 구월동점,HOTEL아시아드,Hotel Banwol Guwol-dong,Travel and Transport,Hotel,126.70938419999992,37.440774499999776,대한민국,KOR,KOR,인천광역시,남동구,,구월동,,선수촌공원로17번길,6,1543-1,2022-08-30 9:43:30,숙박||호텔||호텔-일반,False
13368,13369,4457270,호텔소프라 인천청라,HOTEL소프라 인천청라,Hotel Sopra Incheon Cheongna,Travel and Transport,Hotel,126.6742954045049,37.5444182919977,대한민국,KOR,KOR,인천광역시,서구,,심곡동,,서곶로301번길,21,246-2,2022-08-16 16:52:33,숙박||호텔||3성,False
14236,14237,725347,하버뷰호텔,하버뷰HOTEL,Harbor View Hotel,Travel and Transport,Hotel,126.60094258949584,37.47740402905887,대한민국,KOR,KOR,인천광역시,중구,,북성동1가,,월미로,199,98-77,2022-08-16 16:52:33,숙박||호텔||호텔-일반,False
14886,14887,4351700,비욘드호텔,WHOTEL,Beyond Hotel,Travel and Transport,Hotel,126.67465159999992,37.5443995999998,대한민국,KOR,KOR,인천광역시,서구,,심곡동,,서곶로301번길,19,246-3,2022-08-16 16:52:33,숙박||호텔||호텔-일반,False
16282,16283,3846928,호텔홀딩스,,Hotel Holdings,Travel and Transport,Hotel,126.64745813279293,37.36738132217796,대한민국,KOR,KOR,인천광역시,연수구,,송도동,,송도미래로,30,214,2022-05-01 12:37:48,숙박||호텔||호텔-일반,False
16365,16366,27392905,부띠끄호텔,,boutique hotel,Travel and Transport,Hotel,126.69839759999996,37.59316199999985,대한민국,KOR,KOR,인천광역시,서구,,당하동,,원당대로,874,1028-16,2021-08-02 10:24:50,숙박||호텔||호텔-일반,False
19547,19548,988371,퀸호텔,퀸HOTEL,Queen Hotel,Travel and Transport,Hotel,126.4917466195877,37.49451046653645,대한민국,KOR,KOR,인천광역시,중구,,운서동,,신도시남로150번길,10,2801-5,2022-05-01 12:37:48,숙박||호텔||호텔-일반,False
19645,19646,1251994,테마호텔,호텔테마,theme hotel,Travel and Transport,Hotel,126.65094608335087,37.41875113280764,대한민국,KOR,KOR,인천광역시,연수구,,옥련동,,인권로9번길,9,549,2022-08-18 12:00:50,숙박||호텔||호텔-일반,False
20024,20025,27392933,블루오션레지던스호텔2차,,Blue Ocean Residence Hotel 2,Travel and Transport,Hotel,126.56216729999989,37.4860502999998,대한민국,KOR,KOR,인천광역시,중구,,중산동,,영종대로,893,1873-17,2022-09-06 15:18:26,숙박||호텔||호텔-일반,False
22651,22652,5368472,문라이트호텔,,Moonlight Hotel,Travel and Transport,Hotel,126.72072441981692,37.491804164759486,대한민국,KOR,KOR,인천광역시,부평구,,부평동,,경원대로1367번길,9,341-19,2022-08-24 14:41:06,숙박||호텔||호텔-일반,False
23680,23681,20483927,돈키호텔,,Donkey Hotel,Travel and Transport,Hotel,126.67294048539696,37.50730152690701,대한민국,KOR,KOR,인천광역시,서구,,석남동,,옻우물로,11,510-4,2022-08-16 16:52:33,숙박||호텔||호텔-일반,False
24208,24209,3671019,라트리호텔,라트리HOTEL,La Tree Hotel,Travel and Transport,Hotel,126.7034068000449,37.44554950051606,대한민국,KOR,KOR,인천광역시,남동구,,구월동,,인하로507번길,50,1460-2,2022-08-16 16:52:33,숙박||호텔||1성,False
24945,24946,26964792,더레스트호텔,,The Rest Hotel,Travel and Transport,Hotel,126.37731893954172,37.44403475191078,대한민국,KOR,KOR,인천광역시,중구,,을왕동,,용유서로,283,703-41,2022-05-01 12:37:48,숙박||호텔||호텔-일반,False
28062,28063,58045,카리스호텔,카리스HOTEL,Charis Hotel,Travel and Transport,Hotel,126.722719900064,37.52640730087822,대한민국,KOR,KOR,인천광역시,계양구,,작전동,,계양대로,28,428-2,2022-08-18 12:00:50,숙박||호텔||3성,False
29410,29411,1753211,오라카이 송도파크 호텔,오라카이 송도파크 HOTEL,Orakai Songdo Park Hotel,Travel and Transport,Hotel,126.64086349960068,37.38818660121327,대한민국,KOR,KOR,인천광역시,연수구,,송도동,,테크노파크로,151,93-1,2022-08-24 14:41:06,숙박||호텔||4성,False
30163,30164,5426354,호텔라르시티,,Hotel L'Art City,Travel and Transport,Hotel,126.70903652291588,37.401862051533854,대한민국,KOR,KOR,인천광역시,남동구,,논현동,,호구포로,209,647-6,2022-08-16 16:52:33,숙박||호텔||호텔-일반,False
30214,30215,3645463,베니키아월미도더블리스호텔,,Benikea Wolmido Double Bliss Hotel,Travel and Transport,Hotel,126.59755729999986,37.47280519999967,대한민국,KOR,KOR,인천광역시,중구,,북성동1가,,월미로,266,98-533,2022-08-12 13:15:03,숙박||호텔||호텔-일반,False
30869,30870,6262738,필리스,,Phyllis,Travel and Transport,Hotel,126.49092901438968,37.493414588935146,대한민국,KOR,KOR,인천광역시,중구,,운서동,,신도시남로142번길,6,2803-1,2020-01-14 23:41:07,숙박||호텔||호텔-일반,False
33082,33083,1036116,관광호텔준,관광HOTEL준,tourist hotel,Travel and Transport,Hotel,126.49251771397871,37.494435576983335,대한민국,KOR,KOR,인천광역시,중구,,운서동,,신도시남로150번길,18,2805-2,2022-08-18 12:00:50,숙박||호텔||1성,False
33700,33701,5897271,호텔스카이파크인천송도,HOTEL스카이파크 인천송도,Hotel Skypark Incheon Songdo,Travel and Transport,Hotel,126.63871260000484,37.38459149999693,대한민국,KOR,KOR,인천광역시,연수구,,송도동,,컨벤시아대로,233,10-2,2022-08-24 14:41:06,숙박||호텔||호텔-일반,False
33838,33839,3934990,그랜드팰리스호텔,그랜드팰리스HOTEL,Grand Palace Hotel,Travel and Transport,Hotel,126.70920989958891,37.40206740061827,대한민국,KOR,KOR,인천광역시,남동구,,논현동,,호구포로,211,647-5,2022-09-06 15:18:26,숙박||호텔||호텔-일반,False
34423,34424,27392753,더스테이송도,,The Stay Songdo,Travel and Transport,Hotel,126.62896279999993,37.406039099999774,대한민국,KOR,KOR,인천광역시,연수구,,송도동,,아트센터대로168번길,100,29-1,2022-08-02 16:47:12,숙박||호텔||호텔-일반,False
36446,36447,6059893,스카이마크505오피스텔,스카이마크오공오오피스텔,Skymark 505 Officetel,Travel and Transport,Hotel,126.5607132070888,37.48856684162328,대한민국,KOR,KOR,인천광역시,중구,,중산동,,자연대로,32,1886-18,2022-05-01 12:37:48,숙박||레지던스||코업레지던스,False
39217,39218,4919600,골든튤립 인천공항 호텔&스위트,,Golden Tulip Incheon Airport Hotel&Suites,Travel and Transport,Hotel,126.49240004207068,37.49190784710074,대한민국,KOR,KOR,인천광역시,중구,,운서동,,흰바위로59번길,8,2807-4,2022-06-07 17:23:36,숙박||호텔||호텔-일반,False
39516,39517,822767,호텔 오션뷰,HOTEL 오션뷰,Hotel Ocean View,Travel and Transport,Hotel,126.37869249350545,37.44201274930306,대한민국,KOR,KOR,인천광역시,중구,,을왕동,,선녀바위로55번길,13,678-53,2022-08-24 14:41:06,숙박||호텔||2성,False
39620,39621,5545884,인천공항호텔,,Incheon Airport Hotel,Travel and Transport,Hotel,126.4891207631187,37.494496590036334,대한민국,KOR,KOR,인천광역시,중구,,운서동,,신도시남로149번길,11,2790-4,2022-08-18 12:00:50,숙박||호텔||1성,False
40871,40872,19983579,운서역더타임오피스텔,더타임오피스텔,Unseo Station The Time Officetel,Travel and Transport,Hotel,126.49901590071669,37.490089723879166,대한민국,KOR,KOR,인천광역시,중구,,운서동,,영종대로196번길,25,3098-5,2022-05-01 12:37:48,숙박||레지던스||코업레지던스,False
40948,40949,4396546,파라다이스시티,,Paradise City,Travel and Transport,Hotel,126.45573209988582,37.43729490115029,대한민국,KOR,KOR,인천광역시,중구,,운서동,,영종해안남로321번길,186,2874,2022-09-06 15:18:26,숙박||호텔||5성,False
41141,41142,1255844,베스트웨스턴 하버파크호텔,베스트웨스턴 하버파크HOTEL,Best Western Harbor Park Hotel,Travel and Transport,Hotel,126.61961699960284,37.47212000133887,대한민국,KOR,KOR,인천광역시,중구,,항동3가,,제물량로,217,5,2022-09-06 15:18:26,숙박||호텔||4성,False
41487,41488,3807931,로얄엠포리움호텔,로얄엠포리움HOTEL,Royal Emporium Hotel,Travel and Transport,Hotel,126.57821090305382,37.49190329240727,대한민국,KOR,KOR,인천광역시,중구,,중산동,,은하수로,35,1951-4,2022-05-01 12:37:48,숙박||호텔||호텔-일반,False
43401,43402,3585868,유승테라폴리스,테라폴리스,Yooseung Terrapolis,Travel and Transport,Hotel,126.70922248736488,37.40083032540326,대한민국,KOR,KOR,인천광역시,남동구,,논현동,,논현로46번길,51,642-1,2022-07-19 20:20:05,숙박||레지던스||코업레지던스,False
43825,43826,27392926,브릿지호텔앤드리조트,,Bridge Hotel & Resort,Travel and Transport,Hotel,126.63873639999994,37.38456939999976,대한민국,KOR,KOR,인천광역시,연수구,,송도동,,컨벤시아대로,233,10-2,2020-03-03 16:33:25,숙박||호텔||호텔-일반,False
45733,45734,27392759,더케이호텔,,The K Hotel,Travel and Transport,Hotel,126.60000459999992,37.45327539999978,대한민국,KOR,KOR,인천광역시,중구,,항동7가,,연안부두로55번길,4-3,87-17,2022-08-12 13:15:03,숙박||호텔||호텔-일반,False
46630,46631,4339826,갤럭시관광호텔,갤럭시호텔,Galaxy Tourist Hotel,Travel and Transport,Hotel,126.59913099726084,37.47699411826376,대한민국,KOR,KOR,인천광역시,중구,,북성동1가,,월미문화로,9,98-578,2022-05-01 12:37:48,숙박||호텔||호텔-일반,False
47141,47142,27443565,제이앤비호텔,,J&B Hotel,Travel and Transport,Hotel,124.69553859996832,37.97413489999926,대한민국,KOR,KOR,인천광역시,옹진군,,백령면,진촌리,백령로,485,1700-1,2022-08-30 9:43:30,숙박||호텔||호텔-일반,False
47360,47361,5938553,영종 웰메이드시티,웰메이드시티,Yeongjong Wellmade City,Travel and Transport,Hotel,126.5642530633188,37.48817892004745,대한민국,KOR,KOR,인천광역시,중구,,중산동,,하늘별빛로65번길,7-11,1886-4,2022-05-01 12:37:48,숙박||레지던스||코업레지던스,False
48397,48398,27392778,데이앤나잇 호텔,,Day and Night Hotel,Travel and Transport,Hotel,126.68113459999996,37.460911599999775,대한민국,KOR,KOR,인천광역시,미추홀구,,주안동,,석바위로,72,172-1,2022-07-19 20:20:05,숙박||호텔||호텔-일반,False
48684,48685,5856019,호텔ORA,호텔ORA,Hotel ORA,Travel and Transport,Hotel,126.41782248391756,37.454151995799286,대한민국,KOR,KOR,인천광역시,중구,,남북동,,공항서로,345,100-34,2022-08-16 16:52:33,숙박||호텔||2성,False
48944,48945,3421672,호텔아마레,HOTEL아마레,Hotel Amare,Travel and Transport,Hotel,126.65093329990584,37.41703100064316,대한민국,KOR,KOR,인천광역시,연수구,,옥련동,,대암로,3,552-5,2022-08-16 16:52:33,숙박||호텔||호텔-일반,False
49340,49341,4887635,펜타스타호텔,,pentastar hotel,Travel and Transport,Hotel,126.63178087342884,37.59550720785382,대한민국,KOR,KOR,인천광역시,서구,,오류동,,오류로14번길,23,1743-3,2022-08-16 16:52:33,숙박||호텔||2성,False
51036,51037,27444007,호텔 브리즈,,Hotel Breeze,Travel and Transport,Hotel,126.65816199999993,37.601282899999845,대한민국,KOR,KOR,인천광역시,서구,,왕길동,,완정로117번길,47,665-2,2022-08-12 13:15:03,숙박||호텔||호텔-일반,False
52955,52956,27392984,송도 더노벰버스테이 인 랜드마크,,Songdo The Noveverstay Inn Landmark,Travel and Transport,Hotel,126.62797329999992,37.40529319999977,대한민국,KOR,KOR,인천광역시,연수구,,송도동,,아트센터대로168번길,101,29-2,2022-08-24 14:41:06,숙박||호텔||호텔-일반,False
53059,53060,27447423,호텔모닝캄,,Hotel Morning Calm,Travel and Transport,Hotel,126.65230899999996,37.41910289999977,대한민국,KOR,KOR,인천광역시,연수구,,옥련동,,능허대로179번길,63,538-4,2022-08-12 13:15:03,숙박||호텔||호텔-일반,False
53209,53210,4322655,엠플레이스 호텔,,M'Place Hotel,Travel and Transport,Hotel,126.70340059984488,37.44573880123256,대한민국,KOR,KOR,인천광역시,남동구,,구월동,,인하로507번길,56,1460-1,2022-08-16 16:52:33,숙박||호텔||2성,False
54968,54969,797904,호텔 여기어때 서인천점,모텔테크노,Hotel Here How About Seoincheon Branch,Travel and Transport,Hotel,126.67327808673728,37.54526457397629,대한민국,KOR,KOR,인천광역시,서구,,심곡동,,탁옥로33번길,13,242-12,2022-05-17 11:39:44,숙박||호텔||호텔-일반,False
55178,55179,4581721,리버관광호텔,,River Tourist Hotel,Travel and Transport,Hotel,126.73587219961895,37.5358986007249,대한민국,KOR,KOR,인천광역시,계양구,,계산동,,계양문화로53번길,6,1076-4,2022-08-16 16:52:33,숙박||호텔||2성,False
55201,55202,27192892,호텔레전드,,Hotel Legend,Travel and Transport,Hotel,126.49609719819468,37.49141554181615,대한민국,KOR,KOR,인천광역시,중구,,운서동,,햇내로13번길,14,3091-11,2022-08-12 13:15:03,숙박||호텔||호텔-일반,False
55222,55223,693196,호텔파크우드,,Hotel Parkwood,Travel and Transport,Hotel,126.42183212736556,37.42633408760388,대한민국,KOR,KOR,인천광역시,중구,,덕교동,,마시란로,34,128-12,2022-08-18 12:00:50,숙박||호텔||2성,False
56391,56392,27161775,인스파이어 엔터테인먼트 리조트(2023년예정),,Inspire Entertainment Resort (planned in 2023),Travel and Transport,Hotel,126.3757359999986,37.465255799999355,대한민국,KOR,KOR,인천광역시,중구,,운서동,,용유로,700,2955,2022-05-01 12:37:48,숙박||호텔||호텔-일반,False
57139,57140,3554400,호텔네이버,HOTEL네이버,Hotel Naver,Travel and Transport,Hotel,126.59959914016784,37.474122518357945,대한민국,KOR,KOR,인천광역시,중구,,북성동1가,,월미로243번길,5,98-310,2022-05-01 12:37:48,숙박||호텔||1성,False
57380,57381,636788,캐피탈관광호텔,캐피탈관광HOTEL,Capital Tourist Hotel,Travel and Transport,Hotel,126.71447280018587,37.54319190065912,대한민국,KOR,KOR,인천광역시,계양구,,계산동,,경명대로972번길,5-14,763-7,2022-08-18 12:00:50,숙박||호텔||2성,False
59915,59916,459516,씨월드관광호텔,호텔씨월드,Sea World Tourist Hotel,Travel and Transport,Hotel,126.36931749143343,37.46443605687838,대한민국,KOR,KOR,인천광역시,중구,,을왕동,,용유서로479번길,50-7,877-10,2022-08-18 12:00:50,숙박||호텔||1성,False
60410,60411,124391,호텔 화이트캐슬,화이트캐슬MOTEL,Hotel White Castle,Travel and Transport,Hotel,126.72898199999996,37.4938364999998,대한민국,KOR,KOR,인천광역시,부평구,,부평동,,장제로91번길,16,526-3,2022-08-18 12:00:50,숙박||호텔||호텔-일반,False
61426,61427,2683127,경원재 앰배서더 인천,,Gyeongwonjae Ambassador Incheon,Travel and Transport,Hotel,126.63753390552591,37.39193708927978,대한민국,KOR,KOR,인천광역시,연수구,,송도동,,테크노파크로,200,24-11,2022-09-06 15:18:26,숙박||호텔||5성,False
61601,61602,3693691,그랜드하얏트인천웨스트타워,그랜드하얏트 웨스트타워,Grand Hyatt Incheon West Tower,Travel and Transport,Hotel,126.45615620011682,37.439945400997374,대한민국,KOR,KOR,인천광역시,중구,,운서동,,영종해안남로321번길,190,2850-8,2022-08-16 16:52:33,숙박||호텔||5성,False
63454,63455,27392978,소마호텔,,Soma Hotel,Travel and Transport,Hotel,126.68281219999996,37.458780199999794,대한민국,KOR,KOR,인천광역시,미추홀구,,주안동,,주안중로,4-1,81-28,2022-08-24 14:41:06,숙박||호텔||호텔-일반,False
63554,63555,4783180,버터플라이시티오피스텔,,Butterfly City Officetel,Travel and Transport,Hotel,126.4929625440704,37.49253204676614,대한민국,KOR,KOR,인천광역시,중구,,운서동,,흰바위로59번길,8,2807-4,2022-05-01 12:37:48,숙박||레지던스||코업레지던스,False
63555,63556,3437792,호텔나폴리,나폴리호텔,Hotel Naples,Travel and Transport,Hotel,126.37434891467244,37.44834357319877,대한민국,KOR,KOR,인천광역시,중구,,을왕동,,용유서로,340,756-1,2022-08-16 16:52:33,숙박||호텔||호텔-일반,False
64614,64615,26957770,호텔식스,,Six Hotel,Travel and Transport,Hotel,126.68211119999992,37.46222079999978,대한민국,KOR,KOR,인천광역시,미추홀구,,주안동,,주안중로43번길,11,148-5,2022-05-18 11:21:23,숙박||호텔||호텔-일반,False
65114,65115,97939,베스트웨스턴인천에어포트호텔,베스트웨스턴인천에어포트HOTEL,Best Western Incheon Airport Hotel,Travel and Transport,Hotel,126.45955319999965,37.4383983999994,대한민국,KOR,KOR,인천광역시,중구,,운서동,,공항로424번길,48-27,2850-4,2022-08-18 12:00:50,숙박||호텔||4성,False
65470,65471,27443332,토요코인호텔 인천부평점,,Toyoko Inn Incheon Bupyeong,Travel and Transport,Hotel,126.72206879999996,37.490444699999806,대한민국,KOR,KOR,인천광역시,부평구,,부평동,,광장로,10,534-29,2022-08-12 13:15:03,숙박||호텔||호텔-일반,False
67865,67866,577950,호텔 에어스테이,,Hotel Airstay,Travel and Transport,Hotel,126.48968909584984,37.49450775524371,대한민국,KOR,KOR,인천광역시,중구,,운서동,,신도시남로149번길,5,2798-2,2022-08-16 16:52:33,숙박||호텔||호텔-일반,False
68772,68773,5708930,풀문호텔,풀문HOTEL,Full Moon Hotel,Travel and Transport,Hotel,126.59903878311285,37.47669284762908,대한민국,KOR,KOR,인천광역시,중구,,북성동1가,,월미로218번길,6,98-216,2022-09-06 15:18:26,숙박||호텔||1성,False
69109,69110,832584,포시즌호텔,포시즌HOTEL,Four Seasons Hotel,Travel and Transport,Hotel,126.67319539141197,37.54556807500203,대한민국,KOR,KOR,인천광역시,서구,,심곡동,,탁옥로33번길,15,242-13,2022-09-06 15:18:26,숙박||호텔||1성,False
69488,69489,5362684,하워드존슨호텔 인천 에어포트,,Howard Johnson Hotel Incheon Airport,Travel and Transport,Hotel,126.49173029389054,37.49351007027446,대한민국,KOR,KOR,인천광역시,중구,,운서동,,신도시남로142번길,6,2803-1,2022-08-12 13:15:03,숙박||호텔||호텔-일반,False
69588,69589,5784326,파라다이스시티아트파라디소,,Paradise City Art Paradiso,Travel and Transport,Hotel,126.45781869999983,37.43700849999978,대한민국,KOR,KOR,인천광역시,중구,,운서동,,영종해안남로321번길,186,2874,2022-07-19 20:20:05,숙박||호텔||호텔-일반,False
69675,69676,20204283,힐스테이트송도스테이에디션(2024년6월예정),,Hillstate Songdo Stay Edition (planned for June 2024),Travel and Transport,Hotel,126.63302432139584,37.39934748145354,대한민국,KOR,KOR,인천광역시,연수구,,송도동,,,,29-12,2022-05-01 12:37:48,숙박||레지던스||코업레지던스,False
70182,70183,5686399,세븐호텔,세븐HOTEL,Seven Hotel,Travel and Transport,Hotel,126.62447160315082,37.471105549238686,대한민국,KOR,KOR,인천광역시,중구,,중앙동4가,,신포로23번길,3,2-9,2022-09-06 15:18:26,숙박||호텔||호텔-일반,False
71374,71375,6005836,해경오루체오피스텔,,Haekyung Oruce Officetel,Travel and Transport,Hotel,126.6758935908949,37.508476134759896,대한민국,KOR,KOR,인천광역시,서구,,석남동,,가남로,297,496-12,2022-05-01 12:37:48,숙박||레지던스||코업레지던스,False
71628,71629,4005346,다이아몬드호텔,다이아몬드HOTEL,diamond hotel,Travel and Transport,Hotel,126.59980600044784,37.47538660074497,대한민국,KOR,KOR,인천광역시,중구,,북성동1가,,월미로,229,98-238,2022-08-12 13:15:03,숙박||호텔||2성,False
71915,71916,20027114,파이호텔,호텔파이,Pi Hotel,Travel and Transport,Hotel,126.71171250036991,37.464342900910886,대한민국,KOR,KOR,인천광역시,남동구,,간석동,,석촌로46번길,47,169-3,2022-08-18 12:00:50,숙박||호텔||호텔-일반,False
71939,71940,5998090,해경스테이1차오피스텔,1차해경스테이오피스텔,Haekyung Stay 1st Officetel,Travel and Transport,Hotel,126.6717781571259,37.507510021339904,대한민국,KOR,KOR,인천광역시,서구,,석남동,,칠천왕로,12,511-12,2022-05-01 12:37:48,숙박||레지던스||코업레지던스,False
72127,72128,741425,호텔 썸,느낌표HOTEL,Hotel some,Travel and Transport,Hotel,126.68761413698093,37.45926218777687,대한민국,KOR,KOR,인천광역시,미추홀구,,주안동,,경인로425번길,26,1002-3,2022-05-18 11:21:23,숙박||호텔||호텔-일반,False
72903,72904,27427763,위코스테이 영종,,Wicostay Yeongjong,Travel and Transport,Hotel,126.57918209999988,37.4927713999998,대한민국,KOR,KOR,인천광역시,중구,,중산동,,영종진광장로,10,1947-5,2022-09-06 15:18:26,숙박||호텔||호텔-일반,False
73857,73858,192267,베스트웨스턴 인천로얄호텔,베스트웨스턴 인천로얄HOTEL,Best Western Incheon Royal Hotel,Travel and Transport,Hotel,126.70967250027287,37.465503200852176,대한민국,KOR,KOR,인천광역시,남동구,,간석동,,백범로,367,173-2,2022-09-06 15:18:26,숙박||호텔||4성,False
76187,76188,3610636,센트럴프라자 호텔,센트럴프라자HOTEL,Central Plaza Hotel,Travel and Transport,Hotel,126.70240420034592,37.452362901119166,대한민국,KOR,KOR,인천광역시,남동구,,구월동,,예술로204번길,15,1131-7,2022-05-01 12:37:48,숙박||호텔||2성,False
77088,77089,4348466,하비비호텔,하비비HOTEL,Habibi Hotel,Travel and Transport,Hotel,126.73562197599996,37.40101158356677,대한민국,KOR,KOR,인천광역시,남동구,,논현동,,앵고개로934번길,33,676-10,2022-08-24 14:41:06,숙박||호텔||호텔-일반,False
77310,77311,3249044,호텔 휴 인천에어포트,,Hotel Huincheon Airport,Travel and Transport,Hotel,126.4610255999998,37.438745099999785,대한민국,KOR,KOR,인천광역시,중구,,운서동,,공항로424번길,60,2850-5,2022-08-08 10:29:42,숙박||호텔||호텔-일반,False
77524,77525,27393010,스테이25호텔,,Stay 25 Hotel,Travel and Transport,Hotel,126.73652329999997,37.400416099999774,대한민국,KOR,KOR,인천광역시,남동구,,논현동,,앵고개로948번길,54,676-6,2022-08-12 13:15:03,숙박||호텔||호텔-일반,False
82511,82512,19250919,카리스호텔별관,카리스HOTEL별관,Charis Hotel Annex,Travel and Transport,Hotel,126.72266385310019,37.526593977353755,대한민국,KOR,KOR,인천광역시,계양구,,작전동,,계양대로,32,428-1,2020-12-02 0:00:00,숙박||호텔||호텔-일반,False
82640,82641,20201077,호텔어썸,HOTEL어썸,Hotel Awesome,Travel and Transport,Hotel,126.67294449562596,37.50791125782901,대한민국,KOR,KOR,인천광역시,서구,,석남동,,옻우물로,17,510-21,2021-12-23 15:49:18,숙박||호텔||호텔-일반,False
83867,83868,998211,인천비치호텔,,Incheon Beach Hotel,Travel and Transport,Hotel,126.37178799999946,37.45105099999959,대한민국,KOR,KOR,인천광역시,중구,,을왕동,,용유서로,373-1,773-2,2022-08-08 10:29:42,숙박||호텔||호텔-일반,False
84061,84062,5362882,웨스턴그레이스호텔,,Western Grace Hotel,Travel and Transport,Hotel,126.58146472029078,37.490293577374366,대한민국,KOR,KOR,인천광역시,중구,,중산동,,은하수로29번길,36,1955-1,2022-05-01 12:37:48,숙박||호텔||호텔-일반,False
84584,84585,5898813,데이즈호텔 앤 스위트 인천에어포트,데이즈호텔&스위트인천에어포트,Days Hotel N Suites Incheon Airport,Travel and Transport,Hotel,126.49095427564332,37.49349438194331,대한민국,KOR,KOR,인천광역시,중구,,운서동,,신도시남로142번길,6,2803-1,2022-05-01 12:37:48,숙박||호텔||호텔-일반,False
85229,85230,3021395,더 호텔 영종,더 HOTEL 영종,The Hotel Youngjong,Travel and Transport,Hotel,126.4917714656547,37.49493142801305,대한민국,KOR,KOR,인천광역시,중구,,운서동,,영종대로,114,2800-3,2022-08-16 16:52:33,숙박||호텔||호텔-일반,False
86451,86452,299441,라마다송도호텔,라마다송도HOTEL,Ramada Songdo Hotel,Travel and Transport,Hotel,126.65541249999896,37.41420320000288,대한민국,KOR,KOR,인천광역시,연수구,,동춘동,,능허대로267번길,29,812-1,2022-09-06 15:18:26,숙박||호텔||3성,False
88486,88487,27454907,초이스 관광호텔,,Choice Tourist Hotel,Travel and Transport,Hotel,126.67358899999996,37.54482099999982,대한민국,KOR,KOR,인천광역시,서구,,심곡동,,서곶로301번길,28,245,2022-08-16 16:52:33,숙박||호텔||호텔-일반,False
89451,89452,3686740,오크우드프리미어 인천,,Oakwood Premier Incheon,Travel and Transport,Hotel,126.64450509999996,37.38921909999967,대한민국,KOR,KOR,인천광역시,연수구,,송도동,,컨벤시아대로,165,6-10,2022-08-16 16:52:33,숙박||호텔||호텔-일반,False
89994,89995,3938085,이코노미호텔 인천부평점,,Economy Hotel Incheon Bupyeong,Travel and Transport,Hotel,126.72624743210092,37.5185675759546,대한민국,KOR,KOR,인천광역시,부평구,,갈산동,,부평대로296번길,88-6,168-10,2022-09-06 15:18:26,숙박||호텔||호텔-일반,False
90200,90201,27392736,달빛스테이,,Moonlight Stay,Travel and Transport,Hotel,126.62896279999993,37.406039099999774,대한민국,KOR,KOR,인천광역시,연수구,,송도동,,아트센터대로168번길,100,29-1,2022-08-18 12:00:50,숙박||호텔||호텔-일반,False
90457,90458,1272121,아마레 관광호텔,AMARE호텔,Amare Tourist Hotel,Travel and Transport,Hotel,126.73557680031092,37.53266720098752,대한민국,KOR,KOR,인천광역시,계양구,,작전동,,장제로730번길,14,905-4,2022-08-16 16:52:33,숙박||호텔||1성,False
90471,90472,671637,어썸호텔,모텔바이킹,Awesome Hotel,Travel and Transport,Hotel,126.60062642053283,37.45350056724972,대한민국,KOR,KOR,인천광역시,중구,,항동7가,,연안부두로55번길,7,58-118,2022-08-18 12:00:50,숙박||호텔||호텔-일반,False
90635,90636,20438184,연화문호텔을왕,,Yeonhwamun Hotel Eulwang,Travel and Transport,Hotel,126.37631820223476,37.446359612184885,대한민국,KOR,KOR,인천광역시,중구,,을왕동,,용유서로304번길,12,749,2022-09-06 15:18:26,숙박||호텔||호텔-일반,False
90646,90647,1070312,SKY호텔,호텔스카이,SKY Hotel,Travel and Transport,Hotel,126.48867363506572,37.494528291503634,대한민국,KOR,KOR,인천광역시,중구,,운서동,,신도시남로149번길,15,2790-2,2020-01-14 23:38:56,숙박||호텔||호텔-일반,False
91927,91928,27082479,블루프로그 호텔,,Blue Frog Hotel,Travel and Transport,Hotel,126.3721033940482,37.44959118248734,대한민국,KOR,KOR,인천광역시,중구,,을왕동,,을왕로58번길,9,763-34,2022-08-24 14:41:06,숙박||호텔||호텔-일반,False
92413,92414,20064883,인천에어포트오션사이드호텔,인천에어포트오션사이드HOTEL,Incheon Airport Oceanside Hotel,Travel and Transport,Hotel,126.42118606824954,37.42663308038679,대한민국,KOR,KOR,인천광역시,중구,,덕교동,,마시란로,40,128-17,2022-09-06 15:18:26,숙박||호텔||1성,False
92897,92898,3927482,송도오네스타,오네스타,Songdo Onesta,Travel and Transport,Hotel,126.6567147999539,37.38095730057964,대한민국,KOR,KOR,인천광역시,연수구,,송도동,,송도국제대로,157,168-2,2022-08-16 16:52:33,숙박||레지던스||코업레지던스,False
93899,93900,5427875,호텔498,,Hotel 498,Travel and Transport,Hotel,126.67609624924488,37.41740899343356,대한민국,KOR,KOR,인천광역시,연수구,,청학동,,용담로85번길,24,498-15,2022-08-16 16:52:33,숙박||호텔||2성,False
93938,93939,672056,쁠랑호텔,쁠랑호텔,Plang Hotel,Travel and Transport,Hotel,126.72725730642692,37.4919677173249,대한민국,KOR,KOR,인천광역시,부평구,,부평동,,대정로90번길,30,586-1,2022-08-24 14:41:06,숙박||호텔||호텔-일반,False
94018,94019,27392995,슈페리어 해밀호텔,,Superior Hamil Hotel,Travel and Transport,Hotel,126.56190459999988,37.486769099999805,대한민국,KOR,KOR,인천광역시,중구,,중산동,,,,1873-13,2019-03-14 13:10:49,숙박||호텔||호텔-일반,False
94183,94184,2799771,호텔시크릿,HOTEL시크릿,Hotel Secret,Travel and Transport,Hotel,126.60069891381183,37.474541321074256,대한민국,KOR,KOR,인천광역시,중구,,북성동1가,,월미로233번길,11,98-212,2022-05-01 12:37:48,숙박||호텔||1성,False
94814,94815,4713639,골드코스트호텔 인천,,Gold Coast Hotel Incheon,Travel and Transport,Hotel,126.70797630164589,37.40244301136416,대한민국,KOR,KOR,인천광역시,남동구,,논현동,,논현로26번길,46,645-8,2022-05-01 12:37:48,숙박||호텔||호텔-일반,False
96109,96110,27069051,이룸호텔,,Eroom Hotel,Travel and Transport,Hotel,126.63458285364584,37.455171724413454,대한민국,KOR,KOR,인천광역시,미추홀구,,용현동,,토금중로3번길,17,628-5,2022-05-01 12:37:48,숙박||호텔||호텔-일반,False
98401,98402,4988268,보우호텔,,Bow Hotel,Travel and Transport,Hotel,126.73549830050096,37.535967901215216,대한민국,KOR,KOR,인천광역시,계양구,,계산동,,계양문화로59번길,9,1076-2,2022-08-12 13:15:03,숙박||호텔||2성,False
99412,99413,3934318,루브관광호텔,,Lube Tourist Hotel,Travel and Transport,Hotel,126.73605846674997,37.39953332929787,대한민국,KOR,KOR,인천광역시,남동구,,논현동,,소래역로,22,679,2022-09-06 15:18:26,숙박||호텔||호텔-일반,False
100696,100697,1679439,쉐라톤 그랜드 인천 호텔,쉐라톤 그랜드 인천 HOTEL,Sheraton Grand Incheon Hotel,Travel and Transport,Hotel,126.6453915995868,37.39023570090224,대한민국,KOR,KOR,인천광역시,연수구,,송도동,,컨벤시아대로,153,6-9,2022-06-07 17:23:36,숙박||호텔||5성,False
100713,100714,27096005,호텔투어 인천공항 호텔&스위트,,Hotel Tour Incheon Airport Hotel & Suites,Travel and Transport,Hotel,126.49284135665552,37.49237409520872,대한민국,KOR,KOR,인천광역시,중구,,운서동,,흰바위로59번길,8,2807-4,2022-09-06 15:18:26,숙박||호텔||호텔-일반,False
101837,101838,6402611,인천공항영종골든호텔,,Incheon Airport Yeongjong Golden Hotel,Travel and Transport,Hotel,126.49277403139168,37.49230053155405,대한민국,KOR,KOR,인천광역시,중구,,운서동,,흰바위로59번길,8,2807-4,2020-05-14 23:00:43,숙박||호텔||호텔-일반,False
102610,102611,27392931,블루오션레지던스호텔,,Blue Ocean Residence Hotel,Travel and Transport,Hotel,126.5634915999999,37.4873723999998,대한민국,KOR,KOR,인천광역시,중구,,중산동,,영종대로,911,1886-7,2022-09-06 15:18:26,숙박||호텔||호텔-일반,False
103298,103299,2598714,송도센트럴파크호텔,송도센트럴파크HOTEL,Songdo Central Park Hotel,Travel and Transport,Hotel,126.63759232123284,37.39063870245434,대한민국,KOR,KOR,인천광역시,연수구,,송도동,,테크노파크로,193,38,2022-08-12 13:15:03,숙박||호텔||호텔-일반,False
103868,103869,27448102,호텔 레인보우,,Hotel Rainbow,Travel and Transport,Hotel,126.67883329999992,37.46045209999978,대한민국,KOR,KOR,인천광역시,미추홀구,,주안동,,경인로349번길,37,203-5,2022-08-16 16:52:33,숙박||호텔||호텔-일반,False
103958,103959,3656721,폴로호텔,,Polo Hotel,Travel and Transport,Hotel,126.73519979995996,37.40094250072014,대한민국,KOR,KOR,인천광역시,남동구,,논현동,,앵고개로934번길,30,677-3,2022-08-16 16:52:33,숙박||호텔||2성,False
104405,104406,3644552,SJ 디자인 호텔,SJ 디자인 HOTEL,SJ Design Hotel,Travel and Transport,Hotel,126.73639080037697,37.399502600753074,대한민국,KOR,KOR,인천광역시,남동구,,논현동,,소래역로,26-16,679-1,2022-08-12 13:15:03,숙박||호텔||호텔-일반,False
105352,105353,3966170,에어릴렉스호텔,에어릴렉스HOTEL,Air Relax Hotel,Travel and Transport,Hotel,126.48942446184068,37.49458572805773,대한민국,KOR,KOR,인천광역시,중구,,운서동,,신도시남로149번길,7,2798-1,2022-08-12 13:15:03,숙박||호텔||호텔-일반,False
106788,106789,5598790,영종지엘플렉스1,지엘플렉스1,Yeongjong GL Flex 1,Travel and Transport,Hotel,126.49952154435871,37.49060080717744,대한민국,KOR,KOR,인천광역시,중구,,운서동,,영종대로196번길,19,3098-1,2022-05-01 12:37:48,숙박||레지던스||코업레지던스,False
107042,107043,27190684,호텔벨루스,,Hotel Bellus,Travel and Transport,Hotel,126.72410599999988,37.49758299999974,대한민국,KOR,KOR,인천광역시,부평구,,부평동,,부흥로294번길,19,374-3,2022-05-01 12:37:48,숙박||호텔||호텔-일반,False
107594,107595,4022682,인천 에어텔,,Incheon Airtel,Travel and Transport,Hotel,126.48992084167868,37.49450476174314,대한민국,KOR,KOR,인천광역시,중구,,운서동,,신도시남로149번길,3,2798-3,2022-08-12 13:15:03,숙박||호텔||호텔-일반,False
110864,110865,3644044,홀리데이인 인천 송도,,Holiday Inn Incheon Songdo,Travel and Transport,Hotel,126.63289049999769,37.393181899997074,대한민국,KOR,KOR,인천광역시,연수구,,송도동,,인천타워대로,251,33-1,2022-08-26 9:52:19,숙박||호텔||4성,False
112180,112181,20422210,영종랜드마크블루오션3차오피스텔(2022년12월예정),3차영종랜드마크블루오션오피스텔,Yeongjong Landmark Blue Ocean 3rd Officetel (planned in December 2022),Travel and Transport,Hotel,126.5630534337598,37.487002709348175,대한민국,KOR,KOR,인천광역시,중구,,중산동,,,,1886-11,2022-05-01 12:37:48,숙박||레지던스||코업레지던스,False
113399,113400,27392583,에어스카이 호텔 인천,,Air Sky Hotel Incheon,Travel and Transport,Hotel,126.58048929999988,37.49079839999981,대한민국,KOR,KOR,인천광역시,중구,,중산동,,은하수로29번길,31,1952-4,2022-08-30 9:43:30,숙박||호텔||호텔-일반,False
113868,113869,960803,블리츠 호텔,,Blitz Hotel,Travel and Transport,Hotel,126.68358379999992,37.4606117999998,대한민국,KOR,KOR,인천광역시,미추홀구,,주안동,,석바위로96번길,6,85-20,2022-08-18 12:00:50,숙박||호텔||호텔-일반,False
116270,116271,5726232,인천행복마을,,Incheon Happy Village,Travel and Transport,Hotel,126.53999589573988,37.515505054482105,대한민국,KOR,KOR,인천광역시,중구,,운북동,,백운로186번길,151-19,1257-122,2022-09-22 0:00:00,숙박||호텔||호텔-일반,False
117030,117031,5660696,월미도 해월관광호텔,해월관광HOTEL,Wolmido Haewol Tourist Hotel,Travel and Transport,Hotel,126.59800769369184,37.47361651847096,대한민국,KOR,KOR,인천광역시,중구,,북성동1가,,월미로260번길,8,98-366,2022-09-06 15:18:26,숙박||호텔||2성,False
117801,117802,3674381,그랜드하얏트 인천이스트타워,그랜드하얏트 이스트타워,Grand Hyatt Incheon East Tower,Travel and Transport,Hotel,126.45754050009585,37.44052940111628,대한민국,KOR,KOR,인천광역시,중구,,운서동,,영종해안남로321번길,208,2850-1,2022-05-01 12:37:48,숙박||호텔||5성,False
117825,117826,27427895,인천 ST 179 HOTEL,St. 179 호텔,Incheon ST 179 HOTEL,Travel and Transport,Hotel,126.6825527609099,37.45952117835927,대한민국,KOR,KOR,인천광역시,미추홀구,,주안동,,주안중로,13,179-11,2022-09-06 15:18:26,숙박||호텔||호텔-일반,False
117834,117835,3249911,호텔 휴 로프트,인천공항HOTEL휴,Hotel Hue Loft,Travel and Transport,Hotel,126.4206761507218,37.425891156026765,대한민국,KOR,KOR,인천광역시,중구,,덕교동,,마시란로,51-29,128-64,2022-08-24 14:41:06,숙박||호텔||호텔-일반,False
118535,118536,27392575,3&4호텔,3&4호텔,3&4 Hotel,Travel and Transport,Hotel,126.6729668588688,37.50829944269401,대한민국,KOR,KOR,인천광역시,서구,,석남동,,옻우물로,21,509-16,2022-05-25 10:44:51,숙박||호텔||호텔-일반,False
119203,119204,624410,이츠호텔,,Its Hotel,Travel and Transport,Hotel,126.60237681032784,37.453645495400046,대한민국,KOR,KOR,인천광역시,중구,,항동7가,,연안부두로53번길,15,58-131,2022-05-01 12:37:48,숙박||호텔||1성,False
119439,119440,4343209,스텔라마리스호텔,,Stellamaris Hotel,Travel and Transport,Hotel,126.60043805012184,37.47701244524476,대한민국,KOR,KOR,인천광역시,중구,,북성동1가,,반달로3번길,16,98-24,2022-08-16 16:52:33,숙박||호텔||1성,False
119518,119519,5210628,송도랜드마크푸르지오시티,,Songdo Landmark Prugio City,Travel and Transport,Hotel,126.62780998546393,37.40502029769648,대한민국,KOR,KOR,인천광역시,연수구,,송도동,,아트센터대로168번길,101,29-2,2022-05-01 12:37:48,숙박||레지던스||코업레지던스,False
120516,120517,6223748,더시티뷰오피스텔,,The City View Officetel,Travel and Transport,Hotel,126.72202499305492,37.49084090983999,대한민국,KOR,KOR,인천광역시,부평구,,부평동,,광장로4번길,14,534-3,2022-05-01 12:37:48,숙박||레지던스||코업레지던스,False
121545,121546,20782442,센트럴시티오피스텔,센트럴시티오피스텔,Central City Officetel,Travel and Transport,Hotel,126.4995705999997,37.489835899999434,대한민국,KOR,KOR,인천광역시,중구,,운서동,,영종대로196번길,15-30,3098-4,2022-05-01 12:37:48,숙박||레지던스||코업레지던스,False
122772,122773,20024930,인천스테이호텔,인천스테이HOTEL,Incheon Stay Hotel,Travel and Transport,Hotel,126.64958655001688,37.419299097591065,대한민국,KOR,KOR,인천광역시,연수구,,옥련동,,능허대로,181,547-15,2022-08-16 16:52:33,숙박||호텔||호텔-일반,False
124917,124918,5948198,에스엠호텔,,SM Hotel,Travel and Transport,Hotel,126.5546258457288,37.51006614951866,대한민국,KOR,KOR,인천광역시,중구,,중산동,,영종순환로169번길,115,1129-12,2021-12-23 15:49:18,숙박||호텔||호텔-일반,False
125106,125107,27392667,골든호텔,,Golden Hotel,Travel and Transport,Hotel,126.70867219999992,37.46554669999978,대한민국,KOR,KOR,인천광역시,남동구,,간석동,,석촌로,57,212-1,2022-09-06 15:18:26,숙박||호텔||호텔-일반,False
125304,125305,27392979,소마호텔,,Soma Hotel,Travel and Transport,Hotel,126.68288189999993,37.458775399999794,대한민국,KOR,KOR,인천광역시,미추홀구,,주안동,,주안중로,4-1,81-28,2020-09-17 23:24:41,숙박||호텔||호텔-일반,False
126558,126559,5698709,V3호텔,V3HOTEL,V3 Hotel,Travel and Transport,Hotel,126.70965341662088,37.464937038362976,대한민국,KOR,KOR,인천광역시,남동구,,간석동,,남동대로922번길,25,174-3,2022-08-16 16:52:33,숙박||호텔||호텔-일반,False
128458,128459,27091521,센트로호텔,,Centro Hotel,Travel and Transport,Hotel,126.60206565592686,37.45404385312136,대한민국,KOR,KOR,인천광역시,중구,,항동7가,,연안부두로43번길,8,58-14,2022-08-16 16:52:33,숙박||호텔||호텔-일반,False
130463,130464,27390193,호텔크루즈,,hotel cruise,Travel and Transport,Hotel,126.72671399999896,37.490257399934286,대한민국,KOR,KOR,인천광역시,부평구,,부평동,,광장로24번길,41-4,182-20,2022-07-19 20:20:05,숙박||호텔||호텔-일반,False
130674,130675,3762421,네스트호텔,네스트HOTEL,Nest Hotel,Travel and Transport,Hotel,126.42802426348528,37.42489667397072,대한민국,KOR,KOR,인천광역시,중구,,운서동,,,,2877-1,2022-09-06 15:18:26,숙박||호텔||5성,False
130925,130926,1257099,그랜드호텔,,Grand Hotel,Travel and Transport,Hotel,126.62879961725884,37.45501144644916,대한민국,KOR,KOR,인천광역시,중구,,신흥동3가,,서해대로,314,29,2020-01-14 23:37:43,숙박||호텔||호텔-일반,False
131665,131666,199213,Boutique노리터호텔,Boutique노리터HOTEL,Boutique Nolitor Hotel,Travel and Transport,Hotel,126.72599714994492,37.491727776543485,대한민국,KOR,KOR,인천광역시,부평구,,부평동,,시장로12번길,28,159-13,2022-08-16 16:52:33,숙박||호텔||호텔-일반,False
134462,134463,1263256,파타야호텔,파타야HOTEL,Pattaya Hotel,Travel and Transport,Hotel,126.67315568629488,37.54452282296951,대한민국,KOR,KOR,인천광역시,서구,,심곡동,,탁옥로33번길,5,242-9,2022-08-16 16:52:33,숙박||호텔||호텔-일반,False
136020,136021,6211988,호텔월미도,HOTEL월미도,Hotel Wolmido,Travel and Transport,Hotel,126.59682687786086,37.472430812107675,대한민국,KOR,KOR,인천광역시,중구,,북성동1가,,월미로,274,98-63,2022-08-12 13:15:03,숙박||호텔||호텔-일반,False
136575,136576,6002228,골드스타호텔,,Gold Star Hotel,Travel and Transport,Hotel,126.11932511864048,37.2219146574763,대한민국,KOR,KOR,인천광역시,옹진군,,덕적면,서포리,덕적남로606번안길,22,163,2022-08-12 13:15:03,숙박||호텔||호텔-일반,False
136917,136918,1855038,프레시아관광호텔,프레시아호텔,Presia Tourist Hotel,Travel and Transport,Hotel,126.4909347997647,37.63204490106927,대한민국,KOR,KOR,인천광역시,강화군,,길상면,온수리,전등사로,41,654-1,2022-08-18 12:00:50,숙박||호텔||2성,False
138065,138066,2595004,인천 프린스 관광호텔,,Incheon Prince Tourist Hotel,Travel and Transport,Hotel,126.38917685551576,37.4496651465282,대한민국,KOR,KOR,인천광역시,중구,,을왕동,,용유서로172번길,22,255,2022-08-18 12:00:50,숙박||호텔||호텔-일반,False
139015,139016,27036085,호텔더브라운,,Hotel the Brown,Travel and Transport,Hotel,126.67186745090967,37.507925377218136,대한민국,KOR,KOR,인천광역시,서구,,석남동,,칠천왕로,18,511-10,2022-06-15 11:04:55,숙박||호텔||호텔-일반,False
139060,139061,27392829,메시티 송도더프라우점,,Mesity Songdo The Frau Branch,Travel and Transport,Hotel,126.65069419999995,37.400008299999776,대한민국,KOR,KOR,인천광역시,연수구,,송도동,,컨벤시아대로42번길,20,15-10,2022-08-08 10:29:42,숙박||호텔||호텔-일반,False
139288,139289,20059252,호텔 디자이너스 인천,,Hotel Designers Incheon,Travel and Transport,Hotel,126.7071115002919,37.45096420061368,대한민국,KOR,KOR,인천광역시,남동구,,구월동,,남동대로765번길,8,1144-8,2022-09-06 15:18:26,숙박||호텔||2성,False
139510,139511,3769544,베니키아호텔 월미도 바다의별,베니키아HOTEL월미도바다의별,Benikea Hotel Wolmido Star of the Sea,Travel and Transport,Hotel,126.59849026461583,37.474380377514365,대한민국,KOR,KOR,인천광역시,중구,,북성동1가,,월미로242번길,7-2,98-326,2022-05-01 12:37:48,숙박||호텔||호텔-일반,False
139614,139615,5926761,송도한라 웨스턴파크,,Songdo Halla Western Park,Travel and Transport,Hotel,126.62927436171393,37.40519531351297,대한민국,KOR,KOR,인천광역시,연수구,,송도동,,아트센터대로168번길,100,29-1,2022-07-19 20:20:05,숙박||레지던스||코업레지던스,False
140525,140526,1023362,호텔레이,HOTEL레이,Hotel Ray,Travel and Transport,Hotel,126.37179085806449,37.449589954024056,대한민국,KOR,KOR,인천광역시,중구,,을왕동,,을왕로58번길,7,763-35,2022-08-16 16:52:33,숙박||호텔||1성,False
140706,140707,3754159,W호텔,WHOTEL,W Hotel,Travel and Transport,Hotel,126.60012209967584,37.477115101348566,대한민국,KOR,KOR,인천광역시,중구,,북성동1가,,월미로,211,98-81,2022-05-24 13:48:55,숙박||호텔||호텔-일반,False
141090,141091,20432064,헤이든영종,,Hayden Youngjong,Travel and Transport,Hotel,126.5777124443828,37.49198733140176,대한민국,KOR,KOR,인천광역시,중구,,중산동,,은하수로43번길,9,1951-2,2022-05-01 12:37:48,숙박||레지던스||코업레지던스,False
142821,142822,4338335,송도레지던스,,Songdo Residence,Travel and Transport,Hotel,126.64961778746488,37.419033636852056,대한민국,KOR,KOR,인천광역시,연수구,,옥련동,,능허대로,183,547-13,2022-09-22 0:00:00,숙박||호텔||호텔-일반,False
143452,143453,714807,위너스호텔,위너스HOTEL,Winners Hotel,Travel and Transport,Hotel,126.36868111049746,37.46128340317846,대한민국,KOR,KOR,인천광역시,중구,,을왕동,,왕산로,40,891,2022-05-01 12:37:48,숙박||호텔||2성,False
144340,144341,27400738,에이치에비뉴 호텔 소래포구점,,H Avenue Hotel Soraepogu,Travel and Transport,Hotel,126.73595859999998,37.40149679999976,대한민국,KOR,KOR,인천광역시,남동구,,논현동,,소래역로46번길,28,676-2,2022-09-06 15:18:26,숙박||호텔||호텔-일반,False
144720,144721,3965984,호텔월,HOTEL월,hotel wall,Travel and Transport,Hotel,126.73555931935894,37.40146186595525,대한민국,KOR,KOR,인천광역시,남동구,,논현동,,소래역로46번길,20,676-1,2022-08-16 16:52:33,숙박||호텔||호텔-일반,False
145165,145166,20422211,영종랜드마크블루오션4차오피스텔(2023년5월예정),4차영종랜드마크블루오션오피스텔,Yeongjong Landmark Blue Ocean 4th Officetel (planned in May 2023),Travel and Transport,Hotel,126.5624679211678,37.48644283599976,대한민국,KOR,KOR,인천광역시,중구,,중산동,,,,1873-14,2022-05-01 12:37:48,숙박||레지던스||코업레지던스,False
145413,145414,27172981,인천리베라베리움호텔,,Incheon Rivera Verium Hotel,Travel and Transport,Hotel,126.56134179999988,37.4852540999998,대한민국,KOR,KOR,인천광역시,중구,,중산동,,영종대로,881,1873-20,2022-08-24 14:41:06,숙박||호텔||호텔-일반,False
145595,145596,4337467,호텔카카오,HOTEL카카오,Hotel Cacao,Travel and Transport,Hotel,126.73646500010796,37.40071430056896,대한민국,KOR,KOR,인천광역시,남동구,,논현동,,앵고개로948번길,48,676-5,2022-05-01 12:37:48,숙박||호텔||1성,False
145641,145642,27392768,더휴식 아늑호텔 부평지점,,The Rest Cozy Hotel Bupyeong Branch,Travel and Transport,Hotel,126.72706579999988,37.492006799999785,대한민국,KOR,KOR,인천광역시,부평구,,부평동,,경원대로1417번길,18-8,587-1,2022-08-26 9:52:19,숙박||호텔||호텔-일반,False
145895,145896,3665551,SG관광호텔,,SG Tourist Hotel,Travel and Transport,Hotel,126.67461119999994,37.54507919999983,대한민국,KOR,KOR,인천광역시,서구,,심곡동,,탁옥로51번길,13-9,245-3,2022-08-16 16:52:33,숙박||호텔||호텔-일반,False
146497,146498,505600,호텔소마,소마호텔,Hotel Soma,Travel and Transport,Hotel,126.68280449999988,37.45877769999977,대한민국,KOR,KOR,인천광역시,미추홀구,,주안동,,주안중로,4-1,81-28,2022-09-22 0:00:00,숙박||호텔||호텔-일반,False
