,OID_,id,name,name_alias,name_eng,category,subcategory,lon,lat,country,country_code,language_code,sd,sgg,sgg_sub,emd,ri,street,number_st,number_jb,update_date,dwnm,result
6063,6064,5724040,인천광역시택시가족쉼터,인천택시가족쉼터,Incheon Taxi Family Rest Area,Travel and Transport,Rest Area,126.7132926696799,37.40123839928596,대한민국,KOR,KOR,인천광역시,남동구,,논현동,,논현고잔로,211-60,640-6,2019-11-14 23:28:20,"도로,교통||도로시설||휴게소||일반휴게소",False
18801,18802,1272821,강화휴게소만남의광장,강화만남의광장,Ganghwa Rest Area Meeting Plaza,Travel and Transport,Rest Area,126.51876162998184,37.7370653184336,대한민국,KOR,KOR,인천광역시,강화군,,강화읍,갑곳리,강화대로,96,1076-6,2022-08-16 16:52:33,"도로,교통||도로시설||기타도로시설||국도,지방도휴게소",False
27899,27900,5896803,인천대공원사계절썰매장매점, ,Incheon Dae Park Four Season Sledding Slope Snack Bar,Travel and Transport,Rest Area,126.75196319957594,37.458594699584566,대한민국,KOR,KOR,인천광역시,남동구,,장수동,,무네미로,238,301,2022-05-01 12:37:48,"도로,교통||도로시설||휴게소||일반휴게소",False
56821,56822,5860950,연못휴게소,연못휴게소,rest area,Travel and Transport,Rest Area,126.76249813279072,37.45822022571706,대한민국,KOR,KOR,인천광역시,남동구,,장수동,,무네미로,238,188,2022-08-08 10:29:42,"도로,교통||도로시설||휴게소||일반휴게소",False
58020,58021,20474630,소원바위휴게소,,sowonbawiRest Area,Travel and Transport,Rest Area,126.39473001913876,37.63933582952476,대한민국,KOR,KOR,인천광역시,강화군,,화도면,내리,해안남로2903번길,33,1741-3,2022-05-01 12:37:48,"도로,교통||도로시설||휴게소||휴게소-일반",False
62578,62579,20483241,이화이웃사랑협동조합,,Ihwa iussalangCooperative,Travel and Transport,Rest Area,126.73695269999996,37.59070019999985,대한민국,KOR,KOR,인천광역시,계양구,,이화동,,이화남로,122,250-1,2022-05-01 12:37:48,"도로,교통||도로시설||휴게소||일반휴게소",False
73407,73408,5674097,갈매기휴게소,,Galmaegi Rest Area,Travel and Transport,Rest Area,126.4371300293516,37.52896897468423,대한민국,KOR,KOR,인천광역시,옹진군,,북도면,신도리,신도로,259,789-9,2022-05-01 12:37:48,"도로,교통||도로시설||휴게소||일반휴게소",False
110426,110427,3658160,영종대교휴게소,영종대교기념관(구),Yeongjong Bridge Rest Area,Travel and Transport,Rest Area,126.60706996999993,37.55387443999983,대한민국,KOR,KOR,인천광역시,서구,,청라동,,정서진남로,25,산1-1,2022-05-01 12:37:48,"도로,교통||도로시설||휴게소||고속도로휴게소",False
136257,136258,3452866,건평해안휴게소,건평휴게소,Geonpyeong Beach Rest Area,Travel and Transport,Rest Area,126.40230690328553,37.67734649625326,대한민국,KOR,KOR,인천광역시,강화군,,양도면,건평리,해안서로,508,751-1,2022-05-01 12:37:48,"도로,교통||도로시설||휴게소||일반휴게소",False
