,OID_,id,name,name_alias,name_eng,category,subcategory,lon,lat,country,country_code,language_code,sd,sgg,sgg_sub,emd,ri,street,number_st,number_jb,update_date,dwnm,result
14488,14489,27246056,배달의 마라탕,,Delivery Marathon,Food,Southeast Asian Food,126.6950224199999,37.447712949999776,대한민국,KOR,KOR,인천광역시,남동구,,구월동,,문화서로23번길,19,1381-5,2022-05-01 12:37:48,음식||아시아음식||아시아음식-일반,False
40752,40753,27245866,하노이 응우엔 쌀국수 & 숯불구이,,Hanoi Nguyen Rice Noodles & Charcoal Grill,Food,Southeast Asian Food,126.6475438922076,37.3905175280922,대한민국,KOR,KOR,인천광역시,연수구,,송도동,,해돋이로,107,4-1,2022-05-01 12:37:48,음식||아시아음식||아시아음식-일반,False
65726,65727,27247259,포호아 쌀국수와 돈까스,,Po Hoa Rice Noodles and Pork Cutlet,Food,Southeast Asian Food,126.6790513599999,37.458044799999776,대한민국,KOR,KOR,인천광역시,미추홀구,,주안동,,경인로354번길,10-4,505-24,2022-05-01 12:37:48,음식||아시아음식||아시아음식-일반,False
83554,83555,20450509,팬아시아익스프레스 롯데백화점인천점,,PANASIA,Food,Southeast Asian Food,126.70156600986988,37.44205929961156,대한민국,KOR,KOR,인천광역시,미추홀구,,관교동,,연남로,35,15,2022-05-01 12:37:48,음식||아시아음식||퓨전음식||프랜차이즈||팬아시아,False
127324,127325,27255642,마라장룡마라탕샹궈,,Mara Janglong Marathon Tang Xiangguo,Food,Southeast Asian Food,126.67275214004827,37.519431295602274,대한민국,KOR,KOR,인천광역시,서구,,신현동,,가정로,387,302-1,2022-05-01 12:37:48,음식||아시아음식||아시아음식-일반,False
