,OID_,id,name,name_alias,name_eng,category,subcategory,lon,lat,country,country_code,language_code,sd,sgg,sgg_sub,emd,ri,street,number_st,number_jb,update_date,dwnm,result
258,259,3127193,소라다방,,Sorad Room,Food,Coffee Shop,126.66697014147388,37.513559021513686,대한민국,KOR,KOR,인천광역시,서구,,석남동,,율도로,44-1,179-79,2022-08-16 16:52:33,"음식||카페,디저트||다방",False
368,369,6203909,연다방,,open tea room,Food,Coffee Shop,126.73239531258692,37.45308533250867,대한민국,KOR,KOR,인천광역시,남동구,,만수동,,하촌로59번길,15,973-18,2019-11-14 0:00:00,"음식||카페,디저트||다방",False
1158,1159,6212340,선다방,,coffee shop,Food,Coffee Shop,126.6730231679829,37.45207634735886,대한민국,KOR,KOR,인천광역시,미추홀구,,주안동,,인주대로,329,1417-64,2019-11-14 23:30:26,"음식||카페,디저트||다방",False
1169,1170,5667228,청탑다방,,Cheongtap Coffee Shop,Food,Coffee Shop,126.69104750300592,37.450884762730574,대한민국,KOR,KOR,인천광역시,미추홀구,,주안동,,인주대로,489,1561-22,2021-12-23 15:49:18,"음식||카페,디저트||다방",False
1207,1208,20763036,정다방,,Jeong coffee shop,Food,Coffee Shop,126.73732958822998,37.44515565731378,대한민국,KOR,KOR,인천광역시,남동구,,만수동,,장승로,42-1,1088-16,2022-05-18 1:20:07,"음식||카페,디저트||다방",False
1258,1259,6215623,원다방,,Won coffee shop,Food,Coffee Shop,126.7070483028679,37.447509540821365,대한민국,KOR,KOR,인천광역시,남동구,,구월동,,남동대로,729,1155-2,2021-12-23 15:49:18,"음식||카페,디저트||다방",False
1322,1323,6223757,호수다방,,lake coffee shop,Food,Coffee Shop,126.6720453570709,37.49711365959477,대한민국,KOR,KOR,인천광역시,서구,,가좌동,,가정로,140,114-86,2022-08-24 14:41:06,"음식||카페,디저트||다방",False
1755,1756,27181822,카페어테인,,Caffeine,Food,Coffee Shop,126.69409293578758,37.44661461057167,대한민국,KOR,KOR,인천광역시,남동구,,구월동,,문화서로3번길,27,1394-2,2022-08-12 13:15:03,"음식||카페,디저트||카페-일반",False
1802,1803,27225014,우일다방,,Wooil coffee shop,Food,Coffee Shop,126.70112204647988,37.46840458002988,대한민국,KOR,KOR,인천광역시,부평구,,십정동,,백범로,452-1,414-2,2022-05-01 12:37:48,"음식||카페,디저트||다방",False
1988,1989,5712887,카페르라팡,,Caffe Lapin,Food,Coffee Shop,126.65960280026988,37.466472500739776,대한민국,KOR,KOR,인천광역시,미추홀구,,도화동,,경인로,151,642-7,2022-08-30 9:43:30,"음식||카페,디저트||카페-일반",False
2399,2400,27219918,휘카페,,Whi Café,Food,Coffee Shop,126.67821062282188,37.45883279443285,대한민국,KOR,KOR,인천광역시,미추홀구,,주안동,,,,195-2,2022-09-06 15:18:26,"음식||카페,디저트||커피전문점||프랜차이즈||휘카페",False
2765,2766,27185457,카페베리트,,caffe berry,Food,Coffee Shop,126.62871750757343,37.53342974340251,대한민국,KOR,KOR,인천광역시,서구,,청라동,,청라한내로100번길,8-16,96-3,2022-08-12 13:15:03,"음식||카페,디저트||카페-일반",False
3116,3117,5455856,흙다방,,mud coffee shop,Food,Coffee Shop,126.61898786393483,37.47848174994628,대한민국,KOR,KOR,인천광역시,중구,,송월동2가,,동화마을길,6,6-9,2022-05-18 1:18:35,"음식||카페,디저트||다방",False
5280,5281,3107533,복음다방,,Gospel Cafe,Food,Coffee Shop,126.64229499999993,37.47527299999978,대한민국,KOR,KOR,인천광역시,동구,,송림동,,송림로,67-1,56-19,2022-05-01 12:37:48,"음식||카페,디저트||다방",False
6465,6466,4341776,코나카페인천연수점,,Kona Caffeine Natural Softener,Food,Coffee Shop,126.67970649803574,37.41935007688052,대한민국,KOR,KOR,인천광역시,연수구,,연수동,,먼우금로,256,575-9,2022-08-12 13:15:03,"음식||카페,디저트||커피전문점||카페-일반",False
7366,7367,20203048,부일다방,,Buil Coffee Shop,Food,Coffee Shop,126.69221524831096,37.45853197497439,대한민국,KOR,KOR,인천광역시,미추홀구,,주안동,,경인로,470-1,1586-12,2021-12-23 15:49:18,"음식||카페,디저트||다방",False
7999,8000,3133495,태양다방,,sun coffee shop,Food,Coffee Shop,126.67235897914192,37.51066699956739,대한민국,KOR,KOR,인천광역시,서구,,석남동,,가정로,289,479-11,2020-01-14 0:00:00,"음식||카페,디저트||다방",False
8105,8106,3130289,미랑다방,,mirang coffee shop,Food,Coffee Shop,126.67408499999993,37.54211199999981,대한민국,KOR,KOR,인천광역시,서구,,심곡동,,심곡로,40,257-18,2021-12-23 15:49:18,"음식||카페,디저트||다방",False
8274,8275,4355049,카페코뺑,Copain,Café koppeng,Food,Coffee Shop,126.6562628831229,37.5388525566008,대한민국,KOR,KOR,인천광역시,서구,,청라동,,청라에메랄드로,153,123-9,2022-08-16 16:52:33,"음식||카페,디저트||커피전문점||카페-일반",False
8531,8532,20485206,우정다방,,Friendship Cafe,Food,Coffee Shop,126.719134860481,37.45139232938648,대한민국,KOR,KOR,인천광역시,남동구,,구월동,,호구포로,774,1272-7,2022-08-24 14:41:06,"음식||카페,디저트||다방",False
10016,10017,27227582,현다방,,Hyun coffee shop,Food,Coffee Shop,126.6955925611755,37.445893398059525,대한민국,KOR,KOR,인천광역시,남동구,,구월동,,문화서로,6,1395-7,2022-05-01 12:37:48,"음식||카페,디저트||다방",False
10446,10447,3122434,피앙세다방,,Fiance Coffee Shop,Food,Coffee Shop,126.71882441232188,37.52785960616092,대한민국,KOR,KOR,인천광역시,계양구,,효성동,,효서로,206,195-23,2019-11-14 0:00:00,"음식||카페,디저트||다방",False
11564,11565,3744677,카페베네 인천검단사거리점,,Caffe Bene Incheon Geomdan Sageori Branch,Food,Coffee Shop,126.65640147985089,37.602805865232206,대한민국,KOR,KOR,인천광역시,서구,,마전동,,완정로,180,909-8,2022-08-16 16:52:33,"음식||카페,디저트||커피전문점||프랜차이즈||카페베네",False
13097,13098,20203093,아담다방,,Adam coffee shop,Food,Coffee Shop,126.73075226436096,37.44997468325728,대한민국,KOR,KOR,인천광역시,남동구,,만수동,,하촌로19번길,5,979-2,2021-12-23 15:49:18,"음식||카페,디저트||다방",False
13522,13523,3132817,우정다방,,Friendship Cafe,Food,Coffee Shop,126.67542555267288,37.513184095606086,대한민국,KOR,KOR,인천광역시,서구,,석남동,,율도로,120,462-5,2022-08-24 14:41:06,"음식||카페,디저트||다방",False
14781,14782,20203173,주리다방,,Jurid Cafe,Food,Coffee Shop,126.68205196120296,37.425584465225086,대한민국,KOR,KOR,인천광역시,연수구,,연수동,,함박로,44-1,503-4,2021-12-23 15:49:18,"음식||카페,디저트||다방",False
15908,15909,5693259,우봉다방,,Woobon coffee shop,Food,Coffee Shop,126.67747312049988,37.460599703835065,대한민국,KOR,KOR,인천광역시,미추홀구,,주안동,,석바위로,40-2,201-14,2021-12-23 15:49:18,"음식||카페,디저트||다방",False
16138,16139,20483468,녹색다방,,green coffee shop,Food,Coffee Shop,126.67129780745894,37.503325106836606,대한민국,KOR,KOR,인천광역시,서구,,석남동,,길주로88번길,34,536-45,2022-05-01 12:37:48,"음식||카페,디저트||다방",False
16295,16296,27054381,카페이립,,caffe lip,Food,Coffee Shop,126.7222329875649,37.492597602451376,대한민국,KOR,KOR,인천광역시,부평구,,부평동,,경원대로1377번길,25,546-37,2022-08-12 13:15:03,"음식||카페,디저트||카페-일반",False
16847,16848,27118476,을왕리 불란서다방,,Eurwang-ri French Coffee Shop,Food,Coffee Shop,126.37527904889777,37.4464617654909,대한민국,KOR,KOR,인천광역시,중구,,을왕동,,용유서로,314,750-50,2022-09-06 15:18:26,"음식||카페,디저트||카페-일반",False
17169,17170,6226689,하얀다방,,white coffee shop,Food,Coffee Shop,126.7029555447619,37.46417133948397,대한민국,KOR,KOR,인천광역시,남동구,,간석동,,경인로,586,434-6,2021-12-23 15:49:18,"음식||카페,디저트||다방",False
18351,18352,26951432,커피에반하다 영종하늘초점 스마트 무인카페,,Fall in love with coffee  Yeongjong Sky Focus,Food,Coffee Shop,126.55572123309688,37.499719010375294,대한민국,KOR,KOR,인천광역시,중구,,중산동,,백운로,4,1013-1,2022-08-12 13:15:03,"음식||카페,디저트||커피전문점||프랜차이즈||커피에반하다",False
18475,18476,20185395,용다방,,Yong coffee shop,Food,Coffee Shop,126.70238286993896,37.517767092006814,대한민국,KOR,KOR,인천광역시,부평구,,청천동,,청중로,47,30-20,2021-12-23 15:49:18,"음식||카페,디저트||다방",False
19015,19016,858041,인천여관X루비살롱,대원장MOTEL,Ruby Salon,Food,Coffee Shop,126.6247462567947,37.47240394935204,대한민국,KOR,KOR,인천광역시,중구,,관동3가,,신포로35번길,17,4-27,2022-08-18 12:00:50,"음식||카페,디저트||카페-일반",False
21199,21200,20199417,여우다방,,fox coffee shop,Food,Coffee Shop,126.73944963228595,37.445047805593184,대한민국,KOR,KOR,인천광역시,남동구,,만수동,,담방로60번길,10,1028,2021-12-23 15:49:18,"음식||카페,디저트||다방",False
21262,21263,20202997,동진다방,,Dongjinbang,Food,Coffee Shop,126.63751203987292,37.46738371591479,대한민국,KOR,KOR,인천광역시,중구,,도원동,,도원로,32-1,28-104,2021-12-23 15:49:18,"음식||카페,디저트||다방",False
22062,22063,2415910,카페나의라임오렌지,,Caffena's Lime Orange,Food,Coffee Shop,126.73416159555995,37.516749759716895,대한민국,KOR,KOR,인천광역시,부평구,,삼산동,,충선로311번길,19-6,429-2,2022-08-12 13:15:03,"음식||카페,디저트||카페-일반",False
22120,22121,20185400,유정다방,,Yujeong Cafe,Food,Coffee Shop,126.72151021231592,37.54039737679921,대한민국,KOR,KOR,인천광역시,계양구,,계산동,,향교로,31,974-29,2021-12-23 15:49:18,"음식||카페,디저트||다방",False
22820,22821,20761115,만나네다방,,meet up cafe,Food,Coffee Shop,126.48584225395068,37.74615844757595,대한민국,KOR,KOR,인천광역시,강화군,,강화읍,신문리,강화대로409번길,3,2-7,2022-05-18 1:21:36,"음식||카페,디저트||다방",False
23653,23654,20015493,아성다방,,Shung Coffee Shop,Food,Coffee Shop,126.63181232330184,37.47269569043256,대한민국,KOR,KOR,인천광역시,중구,,용동,,큰우물로,8-1,93,2021-12-23 15:49:18,"음식||카페,디저트||다방",False
24125,24126,3112241,강화다방,,Ganghwa Coffee Shop,Food,Coffee Shop,126.64644969380387,37.474098661168256,대한민국,KOR,KOR,인천광역시,동구,,송림동,,동산로,74,66-31,2020-01-14 0:00:00,"음식||카페,디저트||다방",False
26959,26960,26997250,카페인중독 인천만수점,,Caffeine Addiction Incheon Million Points,Food,Coffee Shop,126.736672640086,37.44370598908707,대한민국,KOR,KOR,인천광역시,남동구,,만수동,,장승남로,39,1019-6,2022-07-05 16:31:26,"음식||카페,디저트||와플||프랜차이즈||카페인중독",False
28647,28648,5689988,별다방,,Byeol Cafe,Food,Coffee Shop,126.68097347536391,37.44820955451847,대한민국,KOR,KOR,인천광역시,미추홀구,,주안동,,인하로,295-1,1464-34,2021-12-23 15:49:18,"음식||카페,디저트||다방",False
29026,29027,20203267,호수다방,,lake coffee shop,Food,Coffee Shop,126.73200548795297,37.504093712920216,대한민국,KOR,KOR,인천광역시,부평구,,부평동,,길주남로,94,10-643,2021-12-23 15:49:18,"음식||카페,디저트||다방",False
30458,30459,27429345,수정다방,,Sujeong Cafe,Food,Coffee Shop,126.66770740409292,37.44633184590619,대한민국,KOR,KOR,인천광역시,미추홀구,,학익동,,학익소로,5,4-15,2022-08-08 10:29:42,"음식||카페,디저트||다방",False
30892,30893,6212182,조은다방,,Joeun Coffee Shop,Food,Coffee Shop,126.70361017362087,37.46479304411168,대한민국,KOR,KOR,인천광역시,남동구,,간석동,,경인로,593,270-5,2021-12-23 15:49:18,"음식||카페,디저트||다방",False
31192,31193,5669993,은다방,,Eunchabang,Food,Coffee Shop,126.7039860560959,37.51673324539141,대한민국,KOR,KOR,인천광역시,부평구,,청천동,,마장로,433,25-9,2022-08-24 14:41:06,"음식||카페,디저트||다방",False
31311,31312,20093397,쌍곰다방,,Ssang bear coffee shop,Food,Coffee Shop,126.53744829999988,37.23326989999972,대한민국,KOR,KOR,인천광역시,옹진군,,영흥면,선재리,선재로34번길,64,108-47,2019-09-20 0:00:00,"음식||카페,디저트||카페-일반",False
32649,32650,4329439,카페in,,caffeine,Food,Coffee Shop,126.7077266895469,37.46975244248108,대한민국,KOR,KOR,인천광역시,부평구,,십정동,,경인로,671,481-4,2022-08-16 16:52:33,"음식||카페,디저트||카페-일반",False
33402,33403,6207394,꽃다방,,flower shop,Food,Coffee Shop,126.72359565128092,37.45435380952548,대한민국,KOR,KOR,인천광역시,남동구,,구월동,,호구포로810번길,76,1259-1,2019-11-14 23:30:27,"음식||카페,디저트||다방",False
34544,34545,20028027,꽃다방,,flower shop,Food,Coffee Shop,126.6746003748789,37.5175794745856,대한민국,KOR,KOR,인천광역시,서구,,가정동,,원창로,225-1,507-8,2022-08-24 14:41:06,"음식||카페,디저트||다방",False
34598,34599,20475816,초원다방,,meadow coffee shop,Food,Coffee Shop,126.71855052378694,37.450495821681194,대한민국,KOR,KOR,인천광역시,남동구,,구월동,,호구포로,763,1235-2,2022-05-01 12:37:48,"음식||카페,디저트||다방",False
34863,34864,4332521,황제다방,,emperor coffee shop,Food,Coffee Shop,126.7229448444139,37.45193575630077,대한민국,KOR,KOR,인천광역시,남동구,,구월동,,구월남로,300,1302-13,2022-08-24 14:41:06,"음식||카페,디저트||다방",False
36350,36351,20761270,준다방,,jujubang,Food,Coffee Shop,126.6999267743199,37.46777005731697,대한민국,KOR,KOR,인천광역시,남동구,,간석동,,석정로,584,573-8,2022-05-18 1:18:43,"음식||카페,디저트||다방",False
37275,37276,3129018,나은다방,,better coffee shop,Food,Coffee Shop,126.6800289319019,37.49058989621457,대한민국,KOR,KOR,인천광역시,서구,,가좌동,,원적로,39,260-17,2021-12-23 15:49:18,"음식||카페,디저트||다방",False
38355,38356,2150031,은성다방,,Eunseong Coffee Shop,Food,Coffee Shop,126.48012082660168,37.6848939056242,대한민국,KOR,KOR,인천광역시,강화군,,불은면,두운리,강화동로,550-1,244-2,2022-05-01 12:37:48,"음식||카페,디저트||다방",False
38796,38797,5691375,윤군커피옥련다방,,Yungun Coffee Okryeon Coffee Shop,Food,Coffee Shop,126.6526577503179,37.42611400613116,대한민국,KOR,KOR,인천광역시,연수구,,옥련동,,청량로,217,253-1,2022-08-16 16:52:33,"음식||카페,디저트||커피전문점||카페-일반",False
39662,39663,20202418,우정다방,,Friendship Cafe,Food,Coffee Shop,126.73245551944996,37.50402301079411,대한민국,KOR,KOR,인천광역시,부평구,,부평동,,길주남로,98-2,10-654,2021-12-23 15:49:18,"음식||카페,디저트||다방",False
39941,39942,20185361,수경다방,,Sugyeong Coffee Shop,Food,Coffee Shop,126.70256359676996,37.51753499391291,대한민국,KOR,KOR,인천광역시,부평구,,청천동,,청중로,48,48-176,2021-12-23 15:49:18,"음식||카페,디저트||다방",False
40916,40917,27200067,카페베네 인천공항탑승동점,,Caffe Bene Incheon Airport Boarding-dong Branch,Food,Coffee Shop,126.44707989999962,37.45689719999961,대한민국,KOR,KOR,인천광역시,중구,,운서동,,공항로,272,2840,2022-05-01 12:37:48,"음식||카페,디저트||커피전문점||프랜차이즈||카페베네",False
41414,41415,5677888,희수다방,,Heesoo Coffee Shop,Food,Coffee Shop,126.6711374246159,37.51746149662189,대한민국,KOR,KOR,인천광역시,서구,,신현동,,원창로,196,282,2020-01-14 23:22:24,"음식||카페,디저트||다방",False
42398,42399,3121768,엄지다방,,thumb coffee shop,Food,Coffee Shop,126.65425091222193,37.45770805090899,대한민국,KOR,KOR,인천광역시,미추홀구,,용현동,,독정이로,19,492-33,2022-08-24 14:41:06,"음식||카페,디저트||다방",False
43103,43104,5684575,석영다방,,quartz coffee shop,Food,Coffee Shop,126.66643066908388,37.452782519897774,대한민국,KOR,KOR,인천광역시,미추홀구,,주안동,,인주대로,267,678-13,2019-11-14 0:00:00,"음식||카페,디저트||다방",False
45917,45918,5432635,복고다방 시리얼하우스,CerealHouse,Retro Cafe Cereal House,Food,Coffee Shop,126.48599617647568,37.73685410547702,대한민국,KOR,KOR,인천광역시,강화군,,강화읍,남산리,충렬사로,25,303-1,2022-08-16 16:52:33,"음식||카페,디저트||커피전문점||프랜차이즈||복고다방",False
46178,46179,4025422,카페베네 백령도점,,Caffe Bene Baengnyeongdo Branch,Food,Coffee Shop,124.72391299886569,37.968630499703686,대한민국,KOR,KOR,인천광역시,옹진군,,백령면,진촌리,,,2562,2022-08-04 10:04:43,"음식||카페,디저트||커피전문점||프랜차이즈||카페베네",False
46468,46469,27113351,카페 정남향,,Café Jeongnam,Food,Coffee Shop,126.53386999999972,37.6280209999997,대한민국,KOR,KOR,인천광역시,강화군,,길상면,초지리,초지로,141,1251-362,2022-09-06 15:18:26,"음식||카페,디저트||카페-일반",False
46912,46913,5693884,하얀달다방,,white moon cafe,Food,Coffee Shop,126.64548229999995,37.4639011999998,대한민국,KOR,KOR,인천광역시,미추홀구,,숭의동,,석정로50번길,21-11,160-74,2022-05-01 12:37:48,"음식||카페,디저트||카페-일반",False
47220,47221,20200847,황금다방,,golden coffee shop,Food,Coffee Shop,126.73843271497898,37.444939083257786,대한민국,KOR,KOR,인천광역시,남동구,,만수동,,장승남로47번길,32-16,1023,2021-12-23 15:49:18,"음식||카페,디저트||다방",False
47248,47249,27195002,카페베네 인천공항탑승서점,,Caffe Bene Incheon Airport Boarding Bookstore,Food,Coffee Shop,126.4430995999996,37.4549315999996,대한민국,KOR,KOR,인천광역시,중구,,운서동,,공항로,272,2840,2022-05-01 12:37:48,"음식||카페,디저트||커피전문점||프랜차이즈||카페베네",False
48594,48595,27257130,대룡다방,,Daeryong Coffee Shop,Food,Coffee Shop,126.27967049100609,37.78149254964554,대한민국,KOR,KOR,인천광역시,강화군,,교동면,대룡리,교동남로,20,458-8,2022-05-01 12:37:48,"음식||카페,디저트||다방",False
49478,49479,3119912,명성다방,,Myeongseong coffee shop,Food,Coffee Shop,126.73440718481396,37.547482455911016,대한민국,KOR,KOR,인천광역시,계양구,,임학동,,계양산로,168,34-3,2022-05-01 12:37:48,"음식||카페,디저트||다방",False
49564,49565,4359375,촌사랑산장카페,,Village Sarang Café,Food,Coffee Shop,126.42660849999977,37.65862679999987,대한민국,KOR,KOR,인천광역시,강화군,,양도면,능내리,강화남로,640,201-1,2017-12-12 11:11:11,"음식||카페,디저트||커피전문점||카페-일반",False
50058,50059,5682473,원다방,,Won coffee shop,Food,Coffee Shop,126.67612630708888,37.51782002105029,대한민국,KOR,KOR,인천광역시,서구,,가정동,,원창로239번길,4,510-7,2020-01-14 23:38:56,"음식||카페,디저트||다방",False
50299,50300,6203887,구월다방,,Guwol Coffee Shop,Food,Coffee Shop,126.72000801624893,37.453860583922975,대한민국,KOR,KOR,인천광역시,남동구,,구월동,,호구포로800번길,13,1264-33,2022-05-01 12:37:48,"음식||카페,디저트||다방",False
51088,51089,27400764,달다방 카페,,Dal Coffee Cafe,Food,Coffee Shop,126.43659289999978,37.59318219999983,대한민국,KOR,KOR,인천광역시,강화군,,화도면,동막리,해안남로1691번길,43,437-1,2022-09-06 15:18:26,"음식||카페,디저트||카페-일반",False
51160,51161,3114232,숙다방,,sleep coffee room,Food,Coffee Shop,126.64487202167285,37.478051942889856,대한민국,KOR,KOR,인천광역시,동구,,송림동,,샛골로,175,124-50,2021-12-23 15:49:18,"음식||카페,디저트||다방",False
52039,52040,27059085,카페일리오,,Caffeilio,Food,Coffee Shop,126.49515349922468,37.489404799395835,대한민국,KOR,KOR,인천광역시,중구,,운서동,,모랫말로,6-12,3114-7,2022-08-24 14:41:06,"음식||카페,디저트||카페-일반",False
52262,52263,3108206,명문다방,,prestigious coffee shop,Food,Coffee Shop,126.64339849999995,37.475688199999794,대한민국,KOR,KOR,인천광역시,동구,,송림동,,송림로,77-2,56-2,2018-08-16 9:30:30,"음식||카페,디저트||다방",False
52276,52277,3114949,전등다방,,electric light cafe,Food,Coffee Shop,126.49135299999983,37.63930799999987,대한민국,KOR,KOR,인천광역시,강화군,,길상면,온수리,온수길,29,530-1,2022-08-16 16:52:33,"음식||카페,디저트||다방",False
53177,53178,26869042,복고다방 모래내시장역점,,Retro Coffee Shop Sand Nae Market Station Branch,Food,Coffee Shop,126.7211055596144,37.45595148719149,대한민국,KOR,KOR,인천광역시,남동구,,구월동,,구월로,273,341-15,2022-06-07 17:23:36,"음식||카페,디저트||커피전문점||프랜차이즈||복고다방",False
53742,53743,20186177,선학다방,,Seonhak Cafe,Food,Coffee Shop,126.69649424557792,37.42420563029008,대한민국,KOR,KOR,인천광역시,연수구,,선학동,,학나래로,15,363-3,2021-12-23 15:49:18,"음식||카페,디저트||다방",False
54956,54957,5667404,명다방,,Myeong tea room,Food,Coffee Shop,126.67914710638487,37.46680441279457,대한민국,KOR,KOR,인천광역시,미추홀구,,주안동,,석정로,392,25-30,2022-08-24 14:41:06,"음식||카페,디저트||다방",False
55096,55097,3125991,현다방,,Hyun coffee shop,Food,Coffee Shop,126.67078625524888,37.50078055703839,대한민국,KOR,KOR,인천광역시,서구,,석남동,,석남로,82,581-20,2020-01-14 0:00:00,"음식||카페,디저트||다방",False
55658,55659,20202958,꽃잎다방,,petal coffee shop,Food,Coffee Shop,126.72483067908497,37.45457405208498,대한민국,KOR,KOR,인천광역시,남동구,,만수동,,구월말로,61,912-9,2021-12-23 15:49:18,"음식||카페,디저트||다방",False
57082,57083,27184682,카페린드,,Caffeine,Food,Coffee Shop,126.70654419017308,37.49596052459306,대한민국,KOR,KOR,인천광역시,부평구,,산곡동,,화랑북로,32-2,317-7,2022-08-12 13:15:03,"음식||카페,디저트||카페-일반",False
57557,57558,3119256,정다방,,Jeong coffee shop,Food,Coffee Shop,126.67931534353188,37.46718489003806,대한민국,KOR,KOR,인천광역시,미추홀구,,주안동,,길파로,15,14-53,2022-08-24 14:41:06,"음식||카페,디저트||다방",False
58012,58013,3107530,원다방,,Won coffee shop,Food,Coffee Shop,126.64221998826788,37.47493203080708,대한민국,KOR,KOR,인천광역시,동구,,송림동,,송림로,66,118-36,2020-01-14 0:00:00,"음식||카페,디저트||다방",False
58168,58169,6211888,홍다방,,Hong coffee shop,Food,Coffee Shop,126.65887946887987,37.60232675544573,대한민국,KOR,KOR,인천광역시,서구,,마전동,,검단로,492,979-4,2020-01-14 0:00:00,"음식||카페,디저트||다방",False
58188,58189,27254140,영아다방,,infant coffee shop,Food,Coffee Shop,126.6981421999999,37.46942919999979,대한민국,KOR,KOR,인천광역시,부평구,,십정동,,백범로,482,442-5,2022-05-01 12:37:48,"음식||카페,디저트||다방",False
59973,59974,20025594,현다방,,Hyun coffee shop,Food,Coffee Shop,126.65832833844888,37.602654901570936,대한민국,KOR,KOR,인천광역시,서구,,마전동,,검단로487번길,1,911-6,2022-08-24 14:41:06,"음식||카페,디저트||다방",False
61641,61642,5693835,등대다방,,lighthouse coffee shop,Food,Coffee Shop,126.71429267593123,37.463497382261096,대한민국,KOR,KOR,인천광역시,남동구,,간석동,,용천로,155,122-23,2022-05-01 12:37:48,"음식||카페,디저트||다방",False
62229,62230,20476971,중앙다방,,Central coffee shop,Food,Coffee Shop,126.69565180005996,37.4743406926628,대한민국,KOR,KOR,인천광역시,부평구,,십정동,,배곶로,71,323-21,2022-08-24 14:41:06,"음식||카페,디저트||다방",False
62418,62419,20483502,미소다방,,smile coffee shop,Food,Coffee Shop,126.69562804744596,37.44545086758698,대한민국,KOR,KOR,인천광역시,남동구,,구월동,,문화서로4번길,10,1398-3,2022-05-01 12:37:48,"음식||카페,디저트||다방",False
62704,62705,2157327,궁전다방,,palace cafe,Food,Coffee Shop,126.2807607999996,37.78220709999991,대한민국,KOR,KOR,인천광역시,강화군,,교동면,대룡리,대룡안길,36-1,516-16,2022-08-12 13:15:03,"음식||카페,디저트||다방",False
64031,64032,20477835,5다방,,5 coffee shop,Food,Coffee Shop,126.73123567628996,37.45598688567539,대한민국,KOR,KOR,인천광역시,남동구,,만수동,,백범로,145-1,883-7,2022-05-01 12:37:48,"음식||카페,디저트||다방",False
64608,64609,26998457,클로이구월,,cafe chloe september,Food,Coffee Shop,126.69698119999988,37.44508359999966,대한민국,KOR,KOR,인천광역시,남동구,,구월동,,문화서로4번길,35-4,1402-11,2022-08-24 14:41:06,"음식||카페,디저트||카페-일반",False
68068,68069,27182969,3TREET삼거리다방,,3TREET Samgeori Coffee Shop,Food,Coffee Shop,126.6830417721589,37.44725532219218,대한민국,KOR,KOR,인천광역시,미추홀구,,주안동,,인하로318번길,12-13,1161-108,2022-08-12 13:15:03,"음식||카페,디저트||카페-일반",False
68135,68136,20199749,석영다방,,quartz coffee shop,Food,Coffee Shop,126.68054993979096,37.4658248405756,대한민국,KOR,KOR,인천광역시,미추홀구,,주안동,,염창로,59,24-49,2021-12-23 15:49:18,"음식||카페,디저트||다방",False
68252,68253,3114894,대성다방,,Daesung coffee shop,Food,Coffee Shop,126.64492999999996,37.47654499999981,대한민국,KOR,KOR,인천광역시,동구,,송림동,,샛골로,158-2,50-27,2021-12-23 15:49:18,"음식||카페,디저트||다방",False
68847,68848,5687977,로얄다방,,Royal coffee shop,Food,Coffee Shop,126.67958790917088,37.46873843240009,대한민국,KOR,KOR,인천광역시,미추홀구,,주안동,,길파로,33,8-41,2019-11-14 0:00:00,"음식||카페,디저트||다방",False
70714,70715,20185402,은하다방,,Eunhabang,Food,Coffee Shop,126.72292389568592,37.54023604970693,대한민국,KOR,KOR,인천광역시,계양구,,계산동,,계양대로,184,956-8,2021-12-23 15:49:18,"음식||카페,디저트||다방",False
71246,71247,2594687,다인커피,,dainhof,Food,Coffee Shop,126.66666889511195,37.51329526364446,대한민국,KOR,KOR,인천광역시,서구,,석남동,,율도로42번길,4,179-59,2022-08-30 9:43:30,"음식||카페,디저트||커피전문점||카페-일반",False
71351,71352,3460547,흙다방,,mud coffee shop,Food,Coffee Shop,126.67155354384288,37.513589198051285,대한민국,KOR,KOR,인천광역시,서구,,신현동,,율도로,83,293-35,2020-01-14 23:37:52,"음식||카페,디저트||다방",False
71868,71869,4338827,달쯔커피,카페수,number of cafes,Food,Coffee Shop,126.6394172999999,37.614406799999855,대한민국,KOR,KOR,인천광역시,서구,,금곡동,,봉수대로,1607,356-8,2022-08-12 13:15:03,"음식||카페,디저트||카페-일반",False
73882,73883,4361814,카페인초지,Cafein초지,Caffeine Paper,Food,Coffee Shop,126.53048149999988,37.636399099999856,대한민국,KOR,KOR,인천광역시,강화군,,길상면,초지리,해안동로,96-25,616-23,2022-08-16 16:52:33,"음식||카페,디저트||카페-일반",False
75435,75436,3744671,카페베네 인천공항랜드서점,,Caffe Bene Incheon Airport Land Bookstore,Food,Coffee Shop,126.46138603132555,37.44053822901392,대한민국,KOR,KOR,인천광역시,중구,,운서동,,공항로424번길,47,2850,2022-05-01 12:37:48,"음식||카페,디저트||커피전문점||프랜차이즈||카페베네",False
77438,77439,5685943,카페엘린,,Caffeine,Food,Coffee Shop,126.70924339168988,37.5124933782923,대한민국,KOR,KOR,인천광역시,부평구,,청천동,,세월천로,1,191-25,2019-11-14 23:28:29,"음식||카페,디저트||커피전문점||카페-일반",False
78250,78251,2157309,교동다방,,Gyodong Coffee Shop,Food,Coffee Shop,126.2804647650672,37.782597896713625,대한민국,KOR,KOR,인천광역시,강화군,,교동면,대룡리,대룡안길54번길,44-13,944-10,2021-12-23 15:49:18,"음식||카페,디저트||다방",False
78555,78556,27242411,황금다방,,golden coffee shop,Food,Coffee Shop,126.73927902909594,37.54762823914151,대한민국,KOR,KOR,인천광역시,계양구,,병방동,,계양산로,211,316-14,2022-05-01 12:37:48,"음식||카페,디저트||다방",False
79423,79424,27501296,식스다방,,Six coffee shop,Food,Coffee Shop,126.73918726218996,37.44517986391859,대한민국,KOR,KOR,인천광역시,남동구,,만수동,,담방로60번길,5,1026-3,2022-09-06 15:18:26,"음식||카페,디저트||다방",False
81572,81573,24673916,카페이엔,,Caffeine,Food,Coffee Shop,126.7040426037629,37.44941485741148,대한민국,KOR,KOR,인천광역시,남동구,,구월동,,남동대로747번길,58,1147-1,2022-08-12 13:15:03,"음식||카페,디저트||카페-일반",False
83122,83123,3744669,카페베네 인천공항탑승서점,,Caffe Bene Incheon Airport Boarding Bookstore,Food,Coffee Shop,126.46124699981564,37.44059810076442,대한민국,KOR,KOR,인천광역시,중구,,운서동,,공항로424번길,47,2850,2021-12-23 15:49:18,"음식||카페,디저트||커피전문점||프랜차이즈||카페베네",False
83261,83262,20483462,길다방,,Gil coffee shop,Food,Coffee Shop,126.68878209162393,37.44806484051309,대한민국,KOR,KOR,인천광역시,미추홀구,,주안동,,인하로,364,1526,2022-05-01 12:37:48,"음식||카페,디저트||다방",False
83272,83273,20007390,요거프레소 인천구월아시아드점,,Yogurt Presso Incheon Guwall Asiad Branch,Food,Coffee Shop,126.71513672202391,37.44250012558568,대한민국,KOR,KOR,인천광역시,남동구,,구월동,,인하로,616,1519,2019-11-14 0:00:00,"음식||카페,디저트||커피전문점||프랜차이즈||요거프레소",False
83682,83683,4348443,카페베네 소래포구역점,,Caffe Bene Soraepogu Station,Food,Coffee Shop,126.73610209207492,37.399429065992045,대한민국,KOR,KOR,인천광역시,남동구,,논현동,,소래역로,22,679,2022-05-01 12:37:48,"음식||카페,디저트||커피전문점||프랜차이즈||카페베네",False
84120,84121,4346537,용다방,,Yong coffee shop,Food,Coffee Shop,126.72078419999994,37.49108639999981,대한민국,KOR,KOR,인천광역시,부평구,,부평동,,경원대로,1366,534-48,2022-08-16 16:52:33,"음식||카페,디저트||커피전문점||카페-일반",False
85288,85289,20476790,샛별다방,,Saetbyeol Coffee Shop,Food,Coffee Shop,126.70357445126692,37.4643274941706,대한민국,KOR,KOR,인천광역시,남동구,,간석동,,경인로,590,433-9,2022-05-01 12:37:48,"음식||카페,디저트||다방",False
86276,86277,27237202,카페베네 아라마크 국립환경과학원점,,Caffe Bene Aramark National Academy of Environmental Sciences,Food,Coffee Shop,126.6140999999998,37.59269999999982,대한민국,KOR,KOR,인천광역시,서구,,오류동,,,,1641-6,2022-05-01 12:37:48,"음식||카페,디저트||커피전문점||프랜차이즈||카페베네",False
87466,87467,3124813,황후다방,,Empress Coffee Shop,Food,Coffee Shop,126.6566683241039,37.45550125236516,대한민국,KOR,KOR,인천광역시,미추홀구,,용현동,,인주대로,178,139-1,2019-11-14 0:00:00,"음식||카페,디저트||다방",False
88430,88431,3117358,소라다방,,Sorad Room,Food,Coffee Shop,126.68938867634988,37.45461939393347,대한민국,KOR,KOR,인천광역시,미추홀구,,주안동,,경원대로,805,253-15,2022-05-01 12:37:48,"음식||카페,디저트||다방",False
88878,88879,20475780,정다방,,Jeong coffee shop,Food,Coffee Shop,126.73568478115196,37.452353213273774,대한민국,KOR,KOR,인천광역시,남동구,,만수동,,소래로,703,961-33,2022-05-01 12:37:48,"음식||카페,디저트||다방",False
90336,90337,20202957,꽃밭다방,,flower garden cafe,Food,Coffee Shop,126.736499314815,37.445385146709285,대한민국,KOR,KOR,인천광역시,남동구,,만수동,,장승로,33,1087-11,2021-12-23 15:49:18,"음식||카페,디저트||다방",False
90426,90427,20475709,J다방,,J Cafe,Food,Coffee Shop,126.73232008170496,37.45090073247319,대한민국,KOR,KOR,인천광역시,남동구,,만수동,,하촌로,34,968-7,2022-05-01 12:37:48,"음식||카페,디저트||다방",False
92838,92839,20203119,오거리다방,,Ogeori coffee shop,Food,Coffee Shop,126.63418168887392,37.47096817749838,대한민국,KOR,KOR,인천광역시,중구,,율목동,,개항로96번길,31,33,2021-12-23 15:49:18,"음식||카페,디저트||다방",False
93496,93497,3116736,수현다방,,Suhyeon Coffee Shop,Food,Coffee Shop,126.6894642307499,37.452909413023264,대한민국,KOR,KOR,인천광역시,미추홀구,,주안동,,경원대로,787,1540-18,2021-12-23 15:49:18,"음식||카페,디저트||다방",False
93838,93839,3110237,동화다방,,fairy tale coffee shop,Food,Coffee Shop,126.63096743343183,37.477675474940575,대한민국,KOR,KOR,인천광역시,동구,,화평동,,송화로,3,452-2,2022-08-24 14:41:06,"음식||카페,디저트||다방",False
96311,96312,20450512,엔제리너스스페셜티 롯데백화점 인천점,,Angel-in-us,Food,Coffee Shop,126.70086725966893,37.44206190957628,대한민국,KOR,KOR,인천광역시,미추홀구,,관교동,,연남로,35,15,2022-08-16 16:52:33,"음식||카페,디저트||커피전문점||프랜차이즈||엔제리너스",False
96424,96425,3123579,진주다방,,pearl coffee shop,Food,Coffee Shop,126.64914443672288,37.45776473598296,대한민국,KOR,KOR,인천광역시,미추홀구,,용현동,,독배로,429,473-20,2022-05-01 12:37:48,"음식||카페,디저트||다방",False
96899,96900,27227124,홍다방,,Hong coffee shop,Food,Coffee Shop,126.7033105049979,37.46990931962178,대한민국,KOR,KOR,인천광역시,부평구,,십정동,,아트센터로,22-1,467-10,2022-05-01 12:37:48,"음식||카페,디저트||다방",False
97806,97807,5455855,샘다방,,Sam coffee shop,Food,Coffee Shop,126.62190197366584,37.479504165706274,대한민국,KOR,KOR,인천광역시,중구,,송월동1가,,참외전로,16,10-12,2022-05-18 1:14:04,"음식||카페,디저트||다방",False
98432,98433,6214244,가온찜질카페,가온카페,Gaon Jjimjil Café,Food,Coffee Shop,126.62029914471081,37.47347289630656,대한민국,KOR,KOR,인천광역시,중구,,중앙동1가,,신포로23번길,95,16-1,2021-12-23 15:49:18,"음식||카페,디저트||테마카페||테마카페-일반",False
99063,99064,20185397,우정다방,,Friendship Cafe,Food,Coffee Shop,126.70484564349493,37.52036541522761,대한민국,KOR,KOR,인천광역시,부평구,,청천동,,마장로,472,9-94,2021-12-23 15:49:18,"음식||카페,디저트||다방",False
99080,99081,3114241,현대다방,,modern coffee shop,Food,Coffee Shop,126.64453083412684,37.47646706746398,대한민국,KOR,KOR,인천광역시,동구,,송림동,,샛골로,155,55-153,2020-01-14 23:41:31,"음식||카페,디저트||다방",False
99539,99540,3132205,제일다방,,Best coffee shop,Food,Coffee Shop,126.6729473458749,37.515166557788895,대한민국,KOR,KOR,인천광역시,서구,,가정동,,가정로,340-1,517-5,2022-05-01 12:37:48,"음식||카페,디저트||다방",False
99776,99777,5455860,카페립,,caffe rib,Food,Coffee Shop,126.65077485994289,37.47098067461448,대한민국,KOR,KOR,인천광역시,동구,,송림동,,박문로,1,103-8,2022-08-12 13:15:03,"음식||카페,디저트||카페-일반",False
100110,100111,4337541,영아다방,,infant coffee shop,Food,Coffee Shop,126.6727667230059,37.51117521598049,대한민국,KOR,KOR,인천광역시,서구,,석남동,,가정로,296,457-7,2021-12-23 15:49:18,"음식||카페,디저트||차||차-일반",False
100821,100822,3131566,체리다방,,Cherry coffee shop,Food,Coffee Shop,126.6753744142659,37.51755335089178,대한민국,KOR,KOR,인천광역시,서구,,가정동,,원창로,233,508-20,2020-01-14 0:00:00,"음식||카페,디저트||다방",False
106158,106159,27328142,복고다방 청라점,,Retro Cafe Cheongna Branch,Food,Coffee Shop,126.63891055919915,37.5258652248972,대한민국,KOR,KOR,인천광역시,서구,,청라동,,청라커낼로,163,173-1,2022-09-06 15:18:26,"음식||카페,디저트||카페-일반",False
106406,106407,2151469,우림다방,,Woorim Coffee Shop,Food,Coffee Shop,126.6845262154389,37.46835093269278,대한민국,KOR,KOR,인천광역시,미추홀구,,주안동,,석정로433번길,41,18-69,2019-12-09 10:51:37,"음식||카페,디저트||다방",False
106445,106446,27499797,카페인,,Caffeine,Food,Coffee Shop,126.67433599359065,37.59006694379196,대한민국,KOR,KOR,인천광역시,서구,,당하동,,서곶로,816,895-1,2022-08-30 9:43:30,"음식||카페,디저트||카페-일반",False
106647,106648,20482859,캔디다방,,Candy Cafe,Food,Coffee Shop,126.67319822071993,37.51116984463931,대한민국,KOR,KOR,인천광역시,서구,,석남동,,명가골로,15,457-27,2022-08-24 14:41:06,"음식||카페,디저트||다방",False
107917,107918,3127885,성우다방,,voice actor cafe,Food,Coffee Shop,126.6717246989259,37.493492072552094,대한민국,KOR,KOR,인천광역시,서구,,가좌동,,가정로,100,145-91,2022-08-24 14:41:06,"음식||카페,디저트||다방",False
108594,108595,6219636,민들레다방,,Dandelion tea room,Food,Coffee Shop,126.65941185095488,37.60204344032383,대한민국,KOR,KOR,인천광역시,서구,,마전동,,완정로156번길,6,980-3,2022-08-24 14:41:06,"음식||카페,디저트||다방",False
108597,108598,3121745,삼거리다방,,Samgeori coffee shop,Food,Coffee Shop,126.64916423067788,37.46601914013348,대한민국,KOR,KOR,인천광역시,미추홀구,,숭의동,,참외전로,316-1,129-78,2021-12-23 15:49:18,"음식||카페,디저트||다방",False
108830,108831,27233763,꽃잎다방,,petal coffee shop,Food,Coffee Shop,126.72992145380196,37.45401693481107,대한민국,KOR,KOR,인천광역시,남동구,,만수동,,하촌서로,59,947-19,2022-05-01 12:37:48,"음식||카페,디저트||다방",False
110409,110410,20477935,석화다방,,Seokhwa Coffee Shop,Food,Coffee Shop,126.72464211733596,37.450890725340784,대한민국,KOR,KOR,인천광역시,남동구,,구월동,,구월말로,22,1309,2022-05-01 12:37:48,"음식||카페,디저트||다방",False
110794,110795,5662168,오월에카페,,Cushlong,Food,Coffee Shop,126.6313780999999,37.39525609999976,대한민국,KOR,KOR,인천광역시,연수구,,송도동,,아트센터대로,203,83,2022-09-06 15:18:26,"음식||카페,디저트||카페-일반",False
111603,111604,27067147,카페라곰,,Caffe Lagom,Food,Coffee Shop,126.73182009999996,37.5199862999998,대한민국,KOR,KOR,인천광역시,부평구,,삼산동,,장제로381번길,12-4,222-47,2022-09-06 15:18:26,"음식||카페,디저트||카페-일반",False
112804,112805,20477933,복다방,,Bok Cafe,Food,Coffee Shop,126.72575230036796,37.452957250718285,대한민국,KOR,KOR,인천광역시,남동구,,만수동,,복개동로,58,921-9,2022-05-01 12:37:48,"음식||카페,디저트||다방",False
113507,113508,6227115,연꽃다방,,lotus coffee shop,Food,Coffee Shop,126.7185174806859,37.450244354444685,대한민국,KOR,KOR,인천광역시,남동구,,구월동,,호구포로,759-1,1235-4,2019-11-14 23:30:27,"음식||카페,디저트||다방",False
113855,113856,3744667,카페베네 인천공항여객서점,,Caffe Bene Incheon Airport Passenger Bookstore,Food,Coffee Shop,126.46127132150183,37.44050154544746,대한민국,KOR,KOR,인천광역시,중구,,운서동,,공항로424번길,47,2850,2022-05-01 12:37:48,"음식||카페,디저트||커피전문점||프랜차이즈||카페베네",False
115159,115160,20481915,은다방,,Eunchabang,Food,Coffee Shop,126.69518073101597,37.44766174787,대한민국,KOR,KOR,인천광역시,남동구,,구월동,,문화서로23번길,15,1381-6,2022-05-01 12:37:48,"음식||카페,디저트||다방",False
115507,115508,27053726,카페인중독 청라점,,Caffeine Addiction Cheongna Branch,Food,Coffee Shop,126.65214431623336,37.53269609398682,대한민국,KOR,KOR,인천광역시,서구,,청라동,,중봉대로586번길,9-19,162-19,2022-08-12 13:15:03,"음식||카페,디저트||와플||프랜차이즈||카페인중독",False
118912,118913,3104865,여로다방, ,Jero coffee shop,Food,Coffee Shop,126.48598969999983,37.7454849999999,대한민국,KOR,KOR,인천광역시,강화군,,강화읍,신문리,강화대로403번길,7,47-1,2022-08-24 14:41:06,"음식||카페,디저트||다방",False
120187,120188,5706688,벽다방,,wall coffee shop,Food,Coffee Shop,126.59653209999986,37.47094639999968,대한민국,KOR,KOR,인천광역시,중구,,북성동1가,,월미문화로,95,98-577,2022-08-12 13:15:03,"음식||카페,디저트||커피전문점||카페-일반",False
120342,120343,3132135,신현다방,,Shinhyeon Coffee Shop,Food,Coffee Shop,126.66851375862998,37.51461581493992,대한민국,KOR,KOR,인천광역시,서구,,신현동,,염곡로,335,143-21,2020-04-13 0:00:00,"음식||카페,디저트||다방",False
121115,121116,4331691,금성다방,,Geumseong Coffee Shop,Food,Coffee Shop,126.72277160086392,37.45195519491877,대한민국,KOR,KOR,인천광역시,남동구,,구월동,,구월남로,298,1302-3,2021-12-23 15:49:18,"음식||카페,디저트||다방",False
121154,121155,2597759,클래식다방,,classic coffee shop,Food,Coffee Shop,126.73254298622788,37.45208940549347,대한민국,KOR,KOR,인천광역시,남동구,,만수동,,하촌로,45,974-27,2019-11-14 23:19:30,"음식||카페,디저트||다방",False
122215,122216,6216507,민정다방,,Minjeong coffee shop,Food,Coffee Shop,126.70383794839388,37.5148366257518,대한민국,KOR,KOR,인천광역시,부평구,,청천동,,마장로409번길,4,172-29,2019-11-14 0:00:00,"음식||카페,디저트||다방",False
122702,122703,3119944,금당다방,,Geumdang Coffee Shop,Food,Coffee Shop,126.7293954820569,37.5289798374622,대한민국,KOR,KOR,인천광역시,계양구,,작전동,,주부토로,388,197-1,2019-11-14 0:00:00,"음식||카페,디저트||다방",False
122818,122819,5663645,비원다방,,Biwon Coffee Shop,Food,Coffee Shop,126.67127694597689,37.492631644184875,대한민국,KOR,KOR,인천광역시,서구,,가좌동,,가정로,89,151-30,2020-01-14 0:00:00,"음식||카페,디저트||다방",False
123388,123389,27138435,카페빈스,,Caffe Beans,Food,Coffee Shop,126.65682758202388,37.451376529954565,대한민국,KOR,KOR,인천광역시,미추홀구,,용현동,,인하로,75-1,191-2,2022-08-24 14:41:06,"음식||카페,디저트||카페-일반",False
124185,124186,4358456,봄다방,,spring coffee shop,Food,Coffee Shop,126.67427562115589,37.5420667165759,대한민국,KOR,KOR,인천광역시,서구,,심곡동,,심곡로,42,257-19,2021-12-23 15:49:18,"음식||카페,디저트||차||차-일반",False
125757,125758,4331615,구월동 카페 유별,THECOFFEE,the coffee,Food,Coffee Shop,126.6973228999999,37.44468479999977,대한민국,KOR,KOR,인천광역시,남동구,,구월동,,문화서로4번길,44,1407-10,2022-09-06 15:18:26,"음식||카페,디저트||커피전문점||카페-일반",False
126026,126027,4354233,카페빨강머리앤 인천신현점,,Cafe Red Hair Anne,Food,Coffee Shop,126.67229161185217,37.51748305444386,대한민국,KOR,KOR,인천광역시,서구,,신현동,,신현로,44,283,2022-08-12 13:15:03,"음식||카페,디저트||카페-일반",False
126595,126596,5856049,뻘다방,,mud coffee shop,Food,Coffee Shop,126.53125577773774,37.23415627584846,대한민국,KOR,KOR,인천광역시,옹진군,,영흥면,선재리,선재로,55,148-2,2022-08-24 14:41:06,"음식||카페,디저트||카페-일반",False
126933,126934,5662894,약속다방,,promise coffee shop,Food,Coffee Shop,126.68640526313648,37.46610667396312,대한민국,KOR,KOR,인천광역시,미추홀구,,주안동,,석정로456번길,3,22-49,2022-05-01 12:37:48,"음식||카페,디저트||다방",False
127165,127166,27245027,달다방,,Dal Coffee Shop,Food,Coffee Shop,126.7038695320319,37.46486206496267,대한민국,KOR,KOR,인천광역시,남동구,,간석동,,경인로,595,269-4,2022-05-01 12:37:48,"음식||카페,디저트||다방",False
128046,128047,3454544,미도다방,,Mido coffee shop,Food,Coffee Shop,126.67060073367288,37.5133849111343,대한민국,KOR,KOR,인천광역시,서구,,석남동,,신석로77번길,37-1,449-40,2020-01-14 0:00:00,"음식||카페,디저트||다방",False
128468,128469,20477829,엄지다방,,thumb coffee shop,Food,Coffee Shop,126.72976439516192,37.45539460141628,대한민국,KOR,KOR,인천광역시,남동구,,만수동,,백범로157번길,32,886-16,2022-05-01 12:37:48,"음식||카페,디저트||다방",False
128842,128843,27444344,카페인중독 인천완정점,,Caffeine Addiction Incheon Wanjeong Branch,Food,Coffee Shop,126.67238364240492,37.59212904776964,대한민국,KOR,KOR,인천광역시,서구,,당하동,,청마로51번안길,22,1082-1,2022-08-18 12:00:50,"음식||카페,디저트||와플||프랜차이즈||카페인중독",False
129522,129523,5655719,까치다방,,magpie coffee shop,Food,Coffee Shop,126.72229351021691,37.531626497948686,대한민국,KOR,KOR,인천광역시,계양구,,작전동,,계양대로89번길,1,864-28,2019-12-09 0:00:00,"음식||카페,디저트||다방",False
129594,129595,5661970,영아다방,,infant coffee shop,Food,Coffee Shop,126.6803041720929,37.45161847107816,대한민국,KOR,KOR,인천광역시,미추홀구,,주안동,,인주대로,393,1469-22,2019-11-14 23:19:19,"음식||카페,디저트||다방",False
130188,130189,5670799,녹수다방,,Noksu coffee shop,Food,Coffee Shop,126.73887734504115,37.54562927775235,대한민국,KOR,KOR,인천광역시,계양구,,임학동,,장제로,881,10-7,2022-08-26 9:52:19,"음식||카페,디저트||다방",False
130298,130299,27151884,카페베네 강화외포리점,,Caffe Bene Ganghwa Oepo Branch,Food,Coffee Shop,126.36744309330622,37.705300048264526,대한민국,KOR,KOR,인천광역시,강화군,,내가면,외포리,해안서로,1018,717-29,2022-08-12 13:15:03,"음식||카페,디저트||커피전문점||프랜차이즈||카페베네",False
131438,131439,4026255,카페베네 청학시대상가점,,Caffe Bene Cheonghak City Daesangga Store,Food,Coffee Shop,126.66873360254888,37.42147736129796,대한민국,KOR,KOR,인천광역시,연수구,,청학동,,용담로,11,451,2022-08-16 16:52:33,"음식||카페,디저트||커피전문점||프랜차이즈||카페베네",False
132362,132363,2155065,연희다방,,Yeonhui coffee shop,Food,Coffee Shop,126.67311378837988,37.44831033527037,대한민국,KOR,KOR,인천광역시,미추홀구,,주안동,,인하로,226,1419-13,2019-11-14 23:24:34,"음식||카페,디저트||다방",False
132700,132701,5706486,카페다인,까페다인,Caffeine,Food,Coffee Shop,126.73295974212594,37.453550488955976,대한민국,KOR,KOR,인천광역시,남동구,,만수동,,하촌로59번길,4-9,953-19,2022-08-24 14:41:06,"음식||카페,디저트||커피전문점||카페-일반",False
132874,132875,5455836,미정다방,,unsettled coffee shop,Food,Coffee Shop,126.63415425643284,37.471860544126976,대한민국,KOR,KOR,인천광역시,중구,,경동,,서해대로483번길,68,40-1,2021-12-23 15:49:18,"음식||카페,디저트||다방",False
136750,136751,27134020,빅다방 부평역사점,,Big Coffee Shop Bupyeong Station,Food,Coffee Shop,126.7233204996959,37.49010650121739,대한민국,KOR,KOR,인천광역시,부평구,,부평동,,광장로,16,738-21,2022-05-01 12:37:48,"음식||카페,디저트||커피전문점||프랜차이즈||빅다방",False
137206,137207,3104884,장미다방,,rose coffee shop,Food,Coffee Shop,126.48611599999984,37.74607499999991,대한민국,KOR,KOR,인천광역시,강화군,,강화읍,신문리,강화대로,405,1-14,2021-12-23 15:49:18,"음식||카페,디저트||다방",False
137930,137931,4321778,달카페,,moon,Food,Coffee Shop,126.6379665210192,37.47378009239148,대한민국,KOR,KOR,인천광역시,동구,,송림동,,송림로,25,235-13,2022-08-12 13:15:03,"음식||카페,디저트||카페-일반",False
138958,138959,6223686,용다방,,Yong coffee shop,Food,Coffee Shop,126.68786411200288,37.45991278901717,대한민국,KOR,KOR,인천광역시,미추홀구,,주안동,,석바위로,135,994-11,2019-11-14 0:00:00,"음식||카페,디저트||다방",False
139082,139083,20203232,풍전다방,,Pungjeon Coffee Shop,Food,Coffee Shop,126.67684442493194,37.45969299251401,대한민국,KOR,KOR,인천광역시,미추홀구,,주안동,,경인로325번길,22-6,199-2,2021-12-23 15:49:18,"음식||카페,디저트||다방",False
139908,139909,6211085,스토리9 인천VIP점,스토리구,Story 9,Food,Coffee Shop,126.65887690399526,37.453594140910845,대한민국,KOR,KOR,인천광역시,미추홀구,,용현동,,경인남길,106,172-18,2022-05-01 12:37:48,"음식||카페,디저트||커피전문점||카페-일반",False
140678,140679,5662821,금다방,,gold coffee shop,Food,Coffee Shop,126.70622162528988,37.47054254036336,대한민국,KOR,KOR,인천광역시,부평구,,십정동,,동암남로,24-1,484-3,2021-12-23 15:49:18,"음식||카페,디저트||다방",False
141376,141377,2858598,커피빈 인천구월동점,,Coffee Bean Incheon-gu Wol-dong,Food,Coffee Shop,126.70086325194688,37.44644470351648,대한민국,KOR,KOR,인천광역시,남동구,,구월동,,예술로,138,1456,2022-09-06 15:18:26,"음식||카페,디저트||커피전문점||프랜차이즈||커피빈",False
141500,141501,27233671,카페베네 앰코코리아송도점,,Caffe Bene Amkor Korea Songdo Branch,Food,Coffee Shop,126.65661229999992,37.36011379999973,대한민국,KOR,KOR,인천광역시,연수구,,송도동,,송도미래로,150,220,2022-05-01 12:37:48,"음식||카페,디저트||커피전문점||프랜차이즈||카페베네",False
141635,141636,3104887,궁전다방,,palace cafe,Food,Coffee Shop,126.48602699999984,37.74615399999989,대한민국,KOR,KOR,인천광역시,강화군,,강화읍,신문리,강화대로,405-2,1-8,2021-12-23 15:49:18,"음식||카페,디저트||다방",False
142375,142376,20483458,길다방,,Gil coffee shop,Food,Coffee Shop,126.67133396859094,37.513587854645024,대한민국,KOR,KOR,인천광역시,서구,,신현동,,율도로,81,293-19,2022-05-01 12:37:48,"음식||카페,디저트||다방",False
143926,143927,20482204,이브다방,,Eve coffee shop,Food,Coffee Shop,126.72725395107499,37.451916850499885,대한민국,KOR,KOR,인천광역시,남동구,,만수동,,구월남로,337,925-11,2022-05-01 12:37:48,"음식||카페,디저트||다방",False
145858,145859,4354412,원다방,,Won coffee shop,Food,Coffee Shop,126.7286927125879,37.529491829926314,대한민국,KOR,KOR,인천광역시,계양구,,작전동,,주부토로,395,871-24,2021-12-23 15:49:18,"음식||카페,디저트||다방",False
146084,146085,6226604,새싹다방,,Sprout Cafe,Food,Coffee Shop,126.69718171916088,37.44736201707537,대한민국,KOR,KOR,인천광역시,남동구,,구월동,,문화로89번길,36,1369-12,2021-12-23 15:49:18,"음식||카페,디저트||다방",False
146278,146279,6207431,영란다방,,Yeongran coffee shop,Food,Coffee Shop,126.70468642247388,37.518709402577386,대한민국,KOR,KOR,인천광역시,부평구,,청천동,,마장로,454,10-17,2019-11-14 23:30:27,"음식||카페,디저트||다방",False
