,OID_,id,name,name_alias,name_eng,category,subcategory,lon,lat,country,country_code,language_code,sd,sgg,sgg_sub,emd,ri,street,number_st,number_jb,update_date,dwnm,result
246,247,6218821,구제조아,,rescue child,Shops and Service,Clothing Store,126.69649620177591,37.42591081745916,대한민국,KOR,KOR,인천광역시,연수구,,선학동,,학나래로,55,404-2,2020-01-14 0:00:00,"쇼핑,편의||패션||구제의류",False
1227,1228,20473955,티나명품구제,,Tina luxury goods relief,Shops and Service,Clothing Store,126.66985435602292,37.49657025558052,대한민국,KOR,KOR,인천광역시,서구,,가좌동,,건지로250번길,27,139-17,2022-08-24 14:41:06,"쇼핑,편의||패션||구제의류",False
1479,1480,3127175,더비틀즈구제,THEBEATLES구제,The Beatles Rescue,Shops and Service,Clothing Store,126.67489601217092,37.54904234374151,대한민국,KOR,KOR,인천광역시,서구,,연희동,,승학로,304,689-35,2020-01-14 0:00:00,"쇼핑,편의||패션||구제의류",False
1959,1960,27219084,M.할리데이 2001아울렛 부평점,,M.Holiday 2001 Outlet Bupyeong,Shops and Service,Clothing Store,126.71044759819885,37.490551016645895,대한민국,KOR,KOR,인천광역시,부평구,,산곡동,,경원대로,1277,311-151,2022-05-01 12:37:48,"쇼핑,편의||패션||캐주얼웨어||캐주얼웨어-일반",False
1996,1997,27490512,구제2030,,Relief 2030,Shops and Service,Clothing Store,126.6862436309629,37.49183713674909,대한민국,KOR,KOR,인천광역시,서구,,가좌동,,장고개로,327,46-2,2022-08-19 9:48:28,"쇼핑,편의||패션||구제의류",False
2445,2446,27219352,클라이드 앤 뉴코아아울렛 인천점,,Clyde & New Core Outlet Incheon Branch,Shops and Service,Clothing Store,126.70070404689888,37.444027311420164,대한민국,KOR,KOR,인천광역시,남동구,,구월동,,인하로,485,1465-1,2022-05-01 12:37:48,"쇼핑,편의||패션||캐주얼웨어||캐주얼웨어-일반",False
2674,2675,5718102,루이까스텔 부평역,LOUISCASTEL부평역점,Louis Castel Bupyeong Station,Shops and Service,Clothing Store,126.7221668635376,37.49654189501745,대한민국,KOR,KOR,인천광역시,부평구,,부평동,,부평대로,57,543-3,2022-08-12 13:15:03,"쇼핑,편의||패션||스포츠의류||골프웨어||루이까스텔",False
2870,2871,27195837,레드페이스 모다아울렛인천점,,Red Face Moda Outlet Incheon,Shops and Service,Clothing Store,126.64772471015787,37.509934893689376,대한민국,KOR,KOR,인천광역시,서구,,원창동,,북항로32번안길,50,381-69,2022-05-01 12:37:48,"쇼핑,편의||패션||스포츠의류||등산,아웃도어||레드페이스",False
2934,2935,4326875,올포유 인천용현점,,All For You Incheon Yonghyeon Branch,Shops and Service,Clothing Store,126.64945501260888,37.458020021364874,대한민국,KOR,KOR,인천광역시,미추홀구,,용현동,,독배로432번길,4,459-1,2022-08-16 16:52:33,"쇼핑,편의||패션||캐주얼웨어||프랜차이즈||올포유",False
3390,3391,27173599,폴햄 뉴코아아울렛 인천논현점,,Pohlham New Core Outlet Incheon Nonhyeon Branch,Shops and Service,Clothing Store,126.72561972539592,37.40045962519866,대한민국,KOR,KOR,인천광역시,남동구,,논현동,,청능대로,596,650-1,2022-06-07 17:23:36,"쇼핑,편의||패션||캐주얼웨어||프랜차이즈||폴햄",False
3662,3663,3121646,티지패션 인천간석점,,TG Fashion Incheon Ganseok Branch,Shops and Service,Clothing Store,126.70747697609488,37.46751266911268,대한민국,KOR,KOR,인천광역시,남동구,,간석동,,백범로,396,216-10,2022-08-16 16:52:33,"쇼핑,편의||패션||종합패션||종합패션-일반",False
3708,3709,27241175,JDX 홈플러스작전점,,JDX Homeplus Operation Branch,Shops and Service,Clothing Store,126.72156249999988,37.52630829999979,대한민국,KOR,KOR,인천광역시,계양구,,작전동,,계양대로,27,448-7,2022-05-01 12:37:48,"쇼핑,편의||패션||스포츠의류||골프웨어||JDX",False
3807,3808,5661808,빅마마의류,,big Mama Clothing,Shops and Service,Clothing Store,126.67656055195188,37.467383437738974,대한민국,KOR,KOR,인천광역시,미추홀구,,주안동,,석정로,369,13-29,2021-12-23 15:49:18,"쇼핑,편의||패션||보세의류||보세의류-일반",False
4326,4327,27220913,블랙야크 모다인천점,,Black Yak Moda Incheon Branch,Shops and Service,Clothing Store,126.64772471015787,37.509934893689376,대한민국,KOR,KOR,인천광역시,서구,,원창동,,북항로32번안길,50,381-69,2022-05-01 12:37:48,"쇼핑,편의||패션||스포츠의류||등산,아웃도어||블랙야크",False
4354,4355,27128091,베이직하우스 인천연수LF점,,Basic House Incheon Yeonsu LF Branch,Shops and Service,Clothing Store,126.66902787802488,37.41864372149574,대한민국,KOR,KOR,인천광역시,연수구,,청학동,,청능대로23번길,11,455,2022-05-01 12:37:48,"쇼핑,편의||패션||캐주얼웨어||프랜차이즈||베이직하우스",False
4436,4437,6223973,명동의류,,Myeongdong Clothing,Shops and Service,Clothing Store,126.68976241571292,37.45865623829347,대한민국,KOR,KOR,인천광역시,미추홀구,,주안동,,경원대로,848,956-1,2022-05-01 12:37:48,"쇼핑,편의||패션||캐주얼웨어||캐주얼웨어-일반",False
4914,4915,6221156,조아구제,,Early relief,Shops and Service,Clothing Store,126.64195319854088,37.47484304361068,대한민국,KOR,KOR,인천광역시,동구,,송림동,,송림로,62,115-1,2022-08-24 14:41:06,"쇼핑,편의||패션||구제의류",False
4924,4925,27021635,구호 롯데백화점 인천점,,Guho Lotte Department Store Incheon Branch,Shops and Service,Clothing Store,126.70137839999995,37.442485299999774,대한민국,KOR,KOR,인천광역시,미추홀구,,관교동,,연남로,35,15,2022-06-13 10:44:13,"쇼핑,편의||패션||캐주얼웨어||프랜차이즈||구호",False
4973,4974,3677243,컬럼비아 부평아이즈빌점,COLUMBIA부평아이즈빌,Columbia Bupyeong Eyesville Branch,Shops and Service,Clothing Store,126.7035533075729,37.52178917291929,대한민국,KOR,KOR,인천광역시,부평구,,청천동,,마장로,489,386,2022-08-16 16:52:33,"쇼핑,편의||패션||스포츠의류||등산,아웃도어||컬럼비아",False
5004,5005,27036846,어울림구제,,Oullim relief,Shops and Service,Clothing Store,126.67927432845096,37.454909684435776,대한민국,KOR,KOR,인천광역시,미추홀구,,주안동,,경인로354번길,79,490-1,2022-05-01 12:37:48,"쇼핑,편의||패션||구제의류",False
5068,5069,27051498,TROUBADOUR 부평점,트루바두르 부평점,TROUBADOR Bupyeong Branch,Shops and Service,Clothing Store,126.72404536301993,37.493309323275085,대한민국,KOR,KOR,인천광역시,부평구,,부평동,,부평대로20번길,17,201-20,2022-08-12 13:15:03,"쇼핑,편의||패션||캐주얼웨어||캐주얼웨어-일반",False
5170,5171,27021342,컬럼비아 롯데백화점 인천점,,Columbia Lotte Department Store Incheon Branch,Shops and Service,Clothing Store,126.70157160999987,37.44231729999978,대한민국,KOR,KOR,인천광역시,미추홀구,,관교동,,연남로,35,15,2022-08-16 16:52:33,"쇼핑,편의||패션||스포츠의류||등산,아웃도어||컬럼비아",False
5609,5610,27021519,온앤온 롯데백화점인천점,,ON&ON Lotte Department Store Incheon,Shops and Service,Clothing Store,126.70137839999988,37.44248529999977,대한민국,KOR,KOR,인천광역시,미추홀구,,관교동,,연남로,35,15,2022-05-01 12:37:48,"쇼핑,편의||패션||캐주얼웨어||프랜차이즈||온앤온",False
5634,5635,27162794,스마트학생복 연수점,,Smart school uniform training shop,Shops and Service,Clothing Store,126.67256829999997,37.407500799999774,대한민국,KOR,KOR,인천광역시,연수구,,동춘동,,앵고개로,262,936-8,2022-05-01 12:37:48,"쇼핑,편의||패션||유니폼,단체복||교복||스마트",False
6523,6524,3676114,레드페이스 이천일부평점,REDFACE이천일부평점,Red Face 2 thousand points,Shops and Service,Clothing Store,126.7101706982679,37.49053801603027,대한민국,KOR,KOR,인천광역시,부평구,,산곡동,,경원대로,1277,311-151,2022-05-01 12:37:48,"쇼핑,편의||패션||스포츠의류||등산,아웃도어||레드페이스",False
6788,6789,3676303,아이더 부평아이즈빌점,EIDER부평아이즈빌점,Eider Bupyeong Eyesville Branch,Shops and Service,Clothing Store,126.7035533075729,37.52178917291929,대한민국,KOR,KOR,인천광역시,부평구,,청천동,,마장로,489,386,2022-08-16 16:52:33,"쇼핑,편의||패션||스포츠의류||등산,아웃도어||아이더",False
6853,6854,27215077,올포유 뉴코아아울렛 인천점,,All4U New Core Outlet Incheon Branch,Shops and Service,Clothing Store,126.70075684679388,37.44424741183226,대한민국,KOR,KOR,인천광역시,남동구,,구월동,,인하로,485,1465-1,2022-05-01 12:37:48,"쇼핑,편의||패션||캐주얼웨어||프랜차이즈||올포유",False
7051,7052,27021456,스피치오 롯데백화점인천점,,Spicio Lotte Department Store Incheon,Shops and Service,Clothing Store,126.7011629399999,37.44290134999979,대한민국,KOR,KOR,인천광역시,미추홀구,,관교동,,연남로,35,15,2022-05-01 12:37:48,"쇼핑,편의||패션||종합패션||종합패션-일반",False
7057,7058,27021619,비오비 롯데백화점 인천점,,Biobi Lotte Department Store Incheon Branch,Shops and Service,Clothing Store,126.70137839999988,37.44248529999977,대한민국,KOR,KOR,인천광역시,미추홀구,,관교동,,연남로,35,15,2022-06-29 11:25:35,"쇼핑,편의||패션||캐주얼웨어||프랜차이즈||비오비",False
7270,7271,27021564,내셔널지오그래픽 롯데백화점인천점,,National Geographic Lotte Department Store Incheon,Shops and Service,Clothing Store,126.70110444999987,37.44258140999977,대한민국,KOR,KOR,인천광역시,미추홀구,,관교동,,연남로,35,15,2022-05-01 12:37:48,"쇼핑,편의||패션||스포츠의류||등산,아웃도어||내셔널지오그래픽",False
7410,7411,27196034,토탈패션 멋쟁이,,total fashion fashion,Shops and Service,Clothing Store,126.73305091420293,37.50532635422199,대한민국,KOR,KOR,인천광역시,부평구,,부개동,,길주남로101번길,25,481-5,2022-05-01 12:37:48,"쇼핑,편의||패션||보세의류||보세의류-일반",False
7829,7830,27183445,네파 인천계양점,네파 인천계양점,Nepa Incheon Gyeyang Branch,Shops and Service,Clothing Store,126.72287853921615,37.53308956830296,대한민국,KOR,KOR,인천광역시,계양구,,작전동,,계양대로,104,854-19,2022-08-16 16:52:33,"쇼핑,편의||패션||스포츠의류||등산,아웃도어||네파",False
7911,7912,27204524,스테파니 LF스퀘어연수점,,Stephanie LF Square Yeonsu Branch,Shops and Service,Clothing Store,126.66831000035984,37.419288301420366,대한민국,KOR,KOR,인천광역시,연수구,,청학동,,용담로,14,455,2022-05-01 12:37:48,"쇼핑,편의||패션||캐주얼웨어||캐주얼웨어-일반",False
8022,8023,6403345,제이에이치패션기획,,JH Fashion Planning,Shops and Service,Clothing Store,126.70196249999992,37.451738999999804,대한민국,KOR,KOR,인천광역시,남동구,,구월동,,예술로,198,1130,2022-08-16 16:52:33,"쇼핑,편의||패션||스포츠의류||스포츠의류-일반",False
8375,8376,27213680,리트머스 2001아울렛 부평점,,Litmus 2001 Outlet Bupyeong,Shops and Service,Clothing Store,126.71048199845988,37.4905107166414,대한민국,KOR,KOR,인천광역시,부평구,,산곡동,,경원대로,1277,311-151,2022-05-01 12:37:48,"쇼핑,편의||패션||캐주얼웨어||캐주얼웨어-일반",False
8554,8555,27021323,엠에스지엠 롯데백화점인천점,,MSGM Lotte Department Store Incheon,Shops and Service,Clothing Store,126.70137839999988,37.44248529999977,대한민국,KOR,KOR,인천광역시,미추홀구,,관교동,,연남로,35,15,2022-05-01 12:37:48,"쇼핑,편의||패션||캐주얼웨어||캐주얼웨어-일반",False
8690,8691,5670906,네파 인천구월점,NEPA구월점,Napa Incheon Guwol Branch,Shops and Service,Clothing Store,126.6924410809259,37.45020582410747,대한민국,KOR,KOR,인천광역시,미추홀구,,주안동,,인주대로,502,1563-8,2022-08-12 13:15:03,"쇼핑,편의||패션||스포츠의류||등산,아웃도어||네파",False
8829,8830,27173530,영트렌드 뉴코아아울렛 인천논현점,,Young Trend New Core Outlet Incheon Nonhyeon Branch,Shops and Service,Clothing Store,126.72561972539592,37.40045962519866,대한민국,KOR,KOR,인천광역시,남동구,,논현동,,청능대로,596,650-1,2022-05-01 12:37:48,"쇼핑,편의||패션||캐주얼웨어||캐주얼웨어-일반",False
8907,8908,27219088,임페리얼 2001아울렛 부평점,,Imperial 2001 Outlet Bupyeong,Shops and Service,Clothing Store,126.71040159817588,37.490625116187886,대한민국,KOR,KOR,인천광역시,부평구,,산곡동,,경원대로,1277,311-151,2022-05-01 12:37:48,"쇼핑,편의||패션||스포츠의류||골프웨어||골프웨어-일반",False
8959,8960,27207912,아이더 인천모다점,,Eider Incheon Moda Branch,Shops and Service,Clothing Store,126.64774651039086,37.51041619390897,대한민국,KOR,KOR,인천광역시,서구,,원창동,,북항로32번안길,50,381-69,2022-05-01 12:37:48,"쇼핑,편의||패션||스포츠의류||등산,아웃도어||아이더",False
8996,8997,27216596,SAP(셔츠&팬츠) 뉴코아아울렛 인천점,,SAP (Shirt & Pants) New Core Outlet Incheon Branch,Shops and Service,Clothing Store,126.70070404689888,37.444027311420164,대한민국,KOR,KOR,인천광역시,남동구,,구월동,,인하로,485,1465-1,2022-05-01 12:37:48,"쇼핑,편의||패션||정장||정장-일반",False
9896,9897,27173537,끄레아또레 뉴코아아울렛 인천논현점,,Creatre New Core Outlet Incheon Nonhyeon Branch,Shops and Service,Clothing Store,126.72561972539592,37.40045962519866,대한민국,KOR,KOR,인천광역시,남동구,,논현동,,청능대로,596,650-1,2022-05-01 12:37:48,"쇼핑,편의||패션||캐주얼웨어||캐주얼웨어-일반",False
10562,10563,20202501,행복한구제,,happy relief,Shops and Service,Clothing Store,126.72544990818999,37.49824068266461,대한민국,KOR,KOR,인천광역시,부평구,,부평동,,부흥로,302,372-1,2022-08-24 14:41:06,"쇼핑,편의||패션||구제의류",False
10771,10772,27021298,스노우피크 롯데백화점 인천점,,Snow Peak Lotte Department Store Incheon,Shops and Service,Clothing Store,126.70137839999988,37.44248529999977,대한민국,KOR,KOR,인천광역시,미추홀구,,관교동,,연남로,35,15,2022-05-01 12:37:48,"쇼핑,편의||패션||스포츠의류||등산,아웃도어||등산,아웃도어-일반",False
10777,10778,27073297,핑 LF연수점,,Ping LF Training Center,Shops and Service,Clothing Store,126.66902787802488,37.41864372149574,대한민국,KOR,KOR,인천광역시,연수구,,청학동,,청능대로23번길,11,455,2022-05-01 12:37:48,"쇼핑,편의||패션||스포츠의류||골프웨어||골프웨어-일반",False
10799,10800,27206994,나인식스 롯데부평점,,Nine Six Lotte Bupyeong Branch,Shops and Service,Clothing Store,126.71877559115786,37.49838384246513,대한민국,KOR,KOR,인천광역시,부평구,,부평동,,부흥로,246,70-125,2022-05-01 12:37:48,"쇼핑,편의||패션||캐주얼웨어||프랜차이즈||나인식스",False
10805,10806,27207869,파크랜드 인천모다아울렛점,,Parkland Incheon Moda Outlet,Shops and Service,Clothing Store,126.64772471015787,37.509934893689376,대한민국,KOR,KOR,인천광역시,서구,,원창동,,북항로32번안길,50,381-69,2022-05-01 12:37:48,"쇼핑,편의||패션||정장||프랜차이즈||파크랜드",False
10824,10825,5692859,아이니학생복신포점,INY학생복신포점,Aini Student Clothing Store,Shops and Service,Clothing Store,126.62924085152984,37.46957238889625,대한민국,KOR,KOR,인천광역시,중구,,답동,,제물량로,132,13-4,2022-08-24 14:41:06,"쇼핑,편의||패션||유니폼,단체복||교복||교복-일반",False
11070,11071,27222909,구제옷해바라기,,salvaged sunflower,Shops and Service,Clothing Store,126.7284886853189,37.45507268810067,대한민국,KOR,KOR,인천광역시,남동구,,만수동,,구월로,340,947-1,2022-05-01 12:37:48,"쇼핑,편의||패션||구제의류",False
11125,11126,27021647,배럴 롯데백화점인천점,,Barrel Lotte Department Store Incheon,Shops and Service,Clothing Store,126.7014202699999,37.442137039999785,대한민국,KOR,KOR,인천광역시,미추홀구,,관교동,,연남로,35,15,2022-05-01 12:37:48,"쇼핑,편의||패션||스포츠의류||스포츠의류-일반",False
11616,11617,20476243,사계절구제옷,,Seasonal relief clothes,Shops and Service,Clothing Store,126.69695455355492,37.4733445287689,대한민국,KOR,KOR,인천광역시,부평구,,십정동,,배곶북로,15,302,2022-05-01 12:37:48,"쇼핑,편의||패션||구제의류",False
11702,11703,27210440,더감 부평1점,,Deugam Bupyeong 1 point,Shops and Service,Clothing Store,126.72207883901191,37.497636871074086,대한민국,KOR,KOR,인천광역시,부평구,,부평동,,부평대로,71-1,529-79,2022-05-01 12:37:48,"쇼핑,편의||패션||캐주얼웨어||프랜차이즈||더감",False
11861,11862,5683724,이런구제짱,,this scum,Shops and Service,Clothing Store,126.67140106448689,37.467240684231164,대한민국,KOR,KOR,인천광역시,미추홀구,,도화동,,석정로324번길,11,129-48,2022-08-24 14:41:06,"쇼핑,편의||패션||구제의류",False
12308,12309,4355839,지센 인천병방점,zishen 인천병방점,zishen,Shops and Service,Clothing Store,126.74073729999996,37.54799769999983,대한민국,KOR,KOR,인천광역시,계양구,,병방동,,병방시장로,81,418,2022-09-06 15:18:26,"쇼핑,편의||패션||캐주얼웨어||프랜차이즈||지센",False
12821,12822,6226721,서현패션,,Seohyun Fashion,Shops and Service,Clothing Store,126.73871915639296,37.5462327891776,대한민국,KOR,KOR,인천광역시,계양구,,임학동,,계양산로216번길,18,25-15,2022-08-24 14:41:06,"쇼핑,편의||패션||보세의류||보세의류-일반",False
12867,12868,27021758,비이커남성 롯데백화점 인천점,,Beaker Men's Lotte Department Store Incheon Branch,Shops and Service,Clothing Store,126.70137839999995,37.442485299999774,대한민국,KOR,KOR,인천광역시,미추홀구,,관교동,,연남로,35,15,2022-06-13 10:44:13,"쇼핑,편의||패션||캐주얼웨어||프랜차이즈||비이커",False
12938,12939,5678550,부평가운 유니폼,,Sub-evaluation uniforms,Shops and Service,Clothing Store,126.72475760172588,37.4967994326306,대한민국,KOR,KOR,인천광역시,부평구,,부평동,,주부토로,20-1,370-53,2022-08-18 12:00:50,"쇼핑,편의||패션||유니폼,단체복||유니폼,단체복-일반",False
13084,13085,6207416,중전마마구제,,medium warfare relief,Shops and Service,Clothing Store,126.72176063412492,37.45423958103928,대한민국,KOR,KOR,인천광역시,남동구,,구월동,,호구포로810번길,42-3,1261-11,2019-11-14 23:30:27,"쇼핑,편의||패션||구제의류",False
13136,13137,27182026,앤코코 뉴코아아울렛 인천점,,Ancoco New Core Outlet Incheon Branch,Shops and Service,Clothing Store,126.70070404689888,37.444027311420164,대한민국,KOR,KOR,인천광역시,남동구,,구월동,,인하로,485,1465-1,2022-05-01 12:37:48,"쇼핑,편의||패션||캐주얼웨어||캐주얼웨어-일반",False
13443,13444,27236480,신기패션아울렛,,Singi Fashion Outlet,Shops and Service,Clothing Store,126.67942904993691,37.44936982610497,대한민국,KOR,KOR,인천광역시,미추홀구,,주안동,,미추홀대로,581,1460-3,2022-05-01 12:37:48,"쇼핑,편의||패션||종합패션||종합패션-일반",False
14033,14034,27182937,디스커버리 인천구월점,Discovery 인천구월점,Discovery Incheon Guwol,Shops and Service,Clothing Store,126.69157943573688,37.45028673493567,대한민국,KOR,KOR,인천광역시,미추홀구,,주안동,,인주대로,494,1563-2,2022-08-16 16:52:33,"쇼핑,편의||패션||스포츠의류||등산,아웃도어||디스커버리",False
14123,14124,27198854,NII LF스퀘어인천점,,NII LF Square Incheon,Shops and Service,Clothing Store,126.66831000035984,37.419288301420366,대한민국,KOR,KOR,인천광역시,연수구,,청학동,,용담로,14,455,2022-05-01 12:37:48,"쇼핑,편의||패션||캐주얼웨어||프랜차이즈||NII",False
14326,14327,27047970,ZARA 인천 스퀘어원점,,ZARA Incheon Square One,Shops and Service,Clothing Store,126.68362479999988,37.405998199999736,대한민국,KOR,KOR,인천광역시,연수구,,동춘동,,청능대로,210,926,2022-08-30 9:43:30,"쇼핑,편의||패션||종합패션||프랜차이즈||자라",False
14632,14633,3676325,레드페이스 인천신포점,REDFACE 인천신포점,Red Face Incheon Sinpo Branch,Shops and Service,Clothing Store,126.62782822301986,37.472276598308255,대한민국,KOR,KOR,인천광역시,중구,,내동,,개항로,47,131-2,2022-08-24 14:41:06,"쇼핑,편의||패션||스포츠의류||등산,아웃도어||레드페이스",False
14705,14706,27221034,플레이키즈프로 모다인천점,,Play Kids Pro Moda Incheon,Shops and Service,Clothing Store,126.64772471015787,37.509934893689376,대한민국,KOR,KOR,인천광역시,서구,,원창동,,북항로32번안길,50,381-69,2022-05-01 12:37:48,"쇼핑,편의||패션||캐주얼웨어||캐주얼웨어-일반",False
14817,14818,5680074,어울림패션,,Oullim Fashion,Shops and Service,Clothing Store,126.72423884375392,37.4943598571784,대한민국,KOR,KOR,인천광역시,부평구,,부평동,,부평대로32번길,22,211-43,2022-05-01 12:37:48,"쇼핑,편의||패션||보세의류||보세의류-일반",False
14834,14835,27021484,나이스크랍 롯데백화점인천점,,Nice Scrap Lotte Department Store Incheon,Shops and Service,Clothing Store,126.70133383999992,37.442457489999775,대한민국,KOR,KOR,인천광역시,미추홀구,,관교동,,연남로,35,15,2022-05-01 12:37:48,"쇼핑,편의||패션||캐주얼웨어||캐주얼웨어-일반",False
14936,14937,6209345,네파 인천신포점,NEPA 인천신포점,Napa Incheon Sinpo Branch,Shops and Service,Clothing Store,126.62666281702585,37.47174645096406,대한민국,KOR,KOR,인천광역시,중구,,내동,,개항로,36,215-23,2022-08-16 16:52:33,"쇼핑,편의||패션||스포츠의류||등산,아웃도어||네파",False
15440,15441,27199969,SI LF스퀘어연수점,,SI LF Square Yeonsu Branch,Shops and Service,Clothing Store,126.66831000035984,37.419288301420366,대한민국,KOR,KOR,인천광역시,연수구,,청학동,,용담로,14,455,2022-05-01 12:37:48,"쇼핑,편의||패션||캐주얼웨어||프랜차이즈||SI",False
15531,15532,27218049,끄레아또레 뉴코아아울렛 인천점,,Creatre New Core Outlet Incheon Branch,Shops and Service,Clothing Store,126.70070404689888,37.444027311420164,대한민국,KOR,KOR,인천광역시,남동구,,구월동,,인하로,485,1465-1,2022-08-16 16:52:33,"쇼핑,편의||패션||캐주얼웨어||캐주얼웨어-일반",False
15708,15709,27021334,지프 롯데백화점인천점,,Jeep Lotte Department Store Incheon,Shops and Service,Clothing Store,126.70190098999988,37.44202511999977,대한민국,KOR,KOR,인천광역시,미추홀구,,관교동,,연남로,35,15,2022-05-01 12:37:48,"쇼핑,편의||패션||캐주얼웨어||캐주얼웨어-일반",False
17408,17409,27199217,콜핑 홈플러스간석점,,Kolping Homeplus Ganseok,Shops and Service,Clothing Store,126.68900599999988,37.469267699999776,대한민국,KOR,KOR,인천광역시,남동구,,간석동,,경원대로,971,616-3,2022-05-01 12:37:48,"쇼핑,편의||패션||스포츠의류||등산,아웃도어||콜핑",False
17536,17537,27021435,SOUP 롯데백화점인천점,,SOUP Lotte Department Store Incheon,Shops and Service,Clothing Store,126.7019569099999,37.44218570999976,대한민국,KOR,KOR,인천광역시,미추홀구,,관교동,,연남로,35,15,2022-05-01 12:37:48,"쇼핑,편의||패션||캐주얼웨어||프랜차이즈||SOUP",False
17682,17683,4326047,밀레 인천만수점,MILLET 인천만수점,Millet,Shops and Service,Clothing Store,126.73177399999996,37.4556198999998,대한민국,KOR,KOR,인천광역시,남동구,,만수동,,백범로,139,884-1,2022-08-30 9:43:30,"쇼핑,편의||패션||스포츠의류||등산,아웃도어||밀레",False
17815,17816,27215302,웰메이드 뉴코아인천점,,Wellmade New Core Incheon,Shops and Service,Clothing Store,126.70070404689888,37.444027311420164,대한민국,KOR,KOR,인천광역시,남동구,,구월동,,인하로,485,1465-1,2022-05-01 12:37:48,"쇼핑,편의||패션||캐주얼웨어||프랜차이즈||웰메이드",False
18086,18087,3677780,레드페이스 부평점,REDFACE부평점,Red Face Bupyeong,Shops and Service,Clothing Store,126.72240296837764,37.49493272241831,대한민국,KOR,KOR,인천광역시,부평구,,부평동,,부평대로,39,543-33,2022-08-24 14:41:06,"쇼핑,편의||패션||스포츠의류||등산,아웃도어||레드페이스",False
18245,18246,27224810,슈페리어 LF스퀘어 연수점,,Superior LF Square Yeonsu Branch,Shops and Service,Clothing Store,126.66902787802488,37.41864372149574,대한민국,KOR,KOR,인천광역시,연수구,,청학동,,청능대로23번길,11,455,2022-05-01 12:37:48,"쇼핑,편의||패션||스포츠의류||골프웨어||슈페리어아울렛",False
18376,18377,27213388,트루젠 작전홈플러스점,,True Gen Operation Homeplus,Shops and Service,Clothing Store,126.72156249999988,37.52630829999979,대한민국,KOR,KOR,인천광역시,계양구,,작전동,,계양대로,27,448-7,2022-05-01 12:37:48,"쇼핑,편의||패션||정장||프랜차이즈||트루젠",False
18716,18717,27021309,띠어리 롯데백화점인천점,,Theory Lotte Department Store Incheon,Shops and Service,Clothing Store,126.70077260999987,37.44267794999977,대한민국,KOR,KOR,인천광역시,미추홀구,,관교동,,연남로,35,15,2022-05-01 12:37:48,"쇼핑,편의||패션||종합패션||종합패션-일반",False
19072,19073,27021339,티리버럴 롯데백화점 인천점,,T-Liberal Lotte Department Store Incheon Branch,Shops and Service,Clothing Store,126.70137839999988,37.44248529999977,대한민국,KOR,KOR,인천광역시,미추홀구,,관교동,,연남로,35,15,2022-08-30 9:43:30,"쇼핑,편의||패션||캐주얼웨어||캐주얼웨어-일반",False
19209,19210,4332721,웨스트우드인천간석점,,Westwood Incheon Ganseok Branch,Shops and Service,Clothing Store,126.71572867438188,37.46348692032307,대한민국,KOR,KOR,인천광역시,남동구,,간석동,,백범로,312-90,41-90,2022-05-01 12:37:48,"쇼핑,편의||패션||스포츠의류||등산,아웃도어||웨스트우드",False
19665,19666,27021743,라이프워크 롯데백화점인천점,,Life Walk Lotte Department Store Incheon,Shops and Service,Clothing Store,126.70137839999988,37.44248529999977,대한민국,KOR,KOR,인천광역시,미추홀구,,관교동,,연남로,35,15,2022-05-01 12:37:48,"쇼핑,편의||패션||종합패션||종합패션-일반",False
20111,20112,27021638,몽클레르 인천 롯데백화점인천점,,Moncler Incheon Lotte Department Store Incheon Branch,Shops and Service,Clothing Store,126.70137839999988,37.44248529999977,대한민국,KOR,KOR,인천광역시,미추홀구,,관교동,,연남로,35,15,2022-05-01 12:37:48,"쇼핑,편의||패션||캐주얼웨어||프랜차이즈||몽클레르",False
20694,20695,2384778,케이투구월복합점,케이투인천구월복합점,K2 Incheon Guwol Complex,Shops and Service,Clothing Store,126.6912499382899,37.45044651811469,대한민국,KOR,KOR,인천광역시,미추홀구,,주안동,,인주대로,492,1563-1,2022-07-19 20:20:05,"쇼핑,편의||패션||스포츠의류||등산,아웃도어||K2",False
20770,20771,27220969,뉴발란스 모다인천점,,New Balance Moda Incheon,Shops and Service,Clothing Store,126.64772471015787,37.509934893689376,대한민국,KOR,KOR,인천광역시,서구,,원창동,,북항로32번안길,50,381-69,2022-05-01 12:37:48,"쇼핑,편의||패션||캐주얼웨어||캐주얼웨어-일반",False
20838,20839,27212070,TBJ 뉴코아아울렛 인천점,,TBJ New Core Outlet Incheon Branch,Shops and Service,Clothing Store,126.70070404689888,37.444027311420164,대한민국,KOR,KOR,인천광역시,남동구,,구월동,,인하로,485,1465-1,2022-05-01 12:37:48,"쇼핑,편의||패션||캐주얼웨어||프랜차이즈||TBJ",False
20928,20929,27216594,엘르골프 뉴코아아울렛 인천점,,Elle Golf New Core Outlet Incheon Branch,Shops and Service,Clothing Store,126.70070404689888,37.444027311420164,대한민국,KOR,KOR,인천광역시,남동구,,구월동,,인하로,485,1465-1,2022-05-01 12:37:48,"쇼핑,편의||패션||스포츠의류||골프웨어||골프웨어-일반",False
21426,21427,6205487,토마토구제,,Tomato Remedies,Shops and Service,Clothing Store,126.67370357537088,37.5169154638041,대한민국,KOR,KOR,인천광역시,서구,,가정동,,가경주로,40,515-10,2021-12-23 15:49:18,"쇼핑,편의||패션||구제의류",False
21571,21572,6226720,예쁜구제,,pretty relief,Shops and Service,Clothing Store,126.64763876154734,37.476953862669454,대한민국,KOR,KOR,인천광역시,동구,,송림동,,송림로,117,42-65,2022-05-01 12:37:48,"쇼핑,편의||패션||구제의류",False
21592,21593,20201538,구제의류알뜰매장,구제의류매장,Thrift clothing store,Shops and Service,Clothing Store,126.71247636918488,37.466919104747994,대한민국,KOR,KOR,인천광역시,남동구,,간석동,,간석로41번길,2,91-11,2022-05-01 12:37:48,"쇼핑,편의||패션||구제의류",False
21619,21620,27218943,행텐 2001아울렛 부평점,,Hangten 2001 Outlet Bupyeong,Shops and Service,Clothing Store,126.71038569786587,37.4905236166317,대한민국,KOR,KOR,인천광역시,부평구,,산곡동,,경원대로,1277,311-151,2022-05-01 12:37:48,"쇼핑,편의||패션||캐주얼웨어||캐주얼웨어-일반",False
21785,21786,27110521,와이드앵글 LF스퀘어 연수점,,Wide Angle LF Square Yeonsu Branch,Shops and Service,Clothing Store,126.66909857784388,37.41863522203866,대한민국,KOR,KOR,인천광역시,연수구,,청학동,,청능대로23번길,11,455,2022-05-01 12:37:48,"쇼핑,편의||패션||스포츠의류||골프웨어||와이드앵글",False
21812,21813,3675023,레드페이스이마트동인천점,REDFACE이마트동인천점,Red Face E-Mart Dongincheon Branch,Shops and Service,Clothing Store,126.62855999999992,37.4664632999998,대한민국,KOR,KOR,인천광역시,중구,,신생동,,인중로,134,38,2021-12-23 15:49:18,"쇼핑,편의||패션||스포츠의류||등산,아웃도어||레드페이스",False
22061,22062,27219259,영트렌드 2001아울렛 부평점,,Young Trend 2001 Outlet Bupyeong,Shops and Service,Clothing Store,126.71050189778788,37.490497315923776,대한민국,KOR,KOR,인천광역시,부평구,,산곡동,,경원대로,1277,311-151,2022-05-01 12:37:48,"쇼핑,편의||패션||캐주얼웨어||캐주얼웨어-일반",False
22405,22406,5694349,칸투칸 인천부평점,KANTUKAN 인천부평점,Cantucan Incheon Bupyeong,Shops and Service,Clothing Store,126.72225860147432,37.5009281048561,대한민국,KOR,KOR,인천광역시,부평구,,부평동,,부평대로,106,439-15,2022-08-16 16:52:33,"쇼핑,편의||패션||스포츠의류||등산,아웃도어||칸투칸",False
22517,22518,5678949,테이트부평아이즈빌점,TATE부평아이즈빌점,Tate Bupyeong Eyesville Branch,Shops and Service,Clothing Store,126.70308250644489,37.5217961947816,대한민국,KOR,KOR,인천광역시,부평구,,청천동,,마장로,489,386,2022-05-01 12:37:48,"쇼핑,편의||패션||캐주얼웨어||캐주얼웨어-일반",False
22586,22587,2623166,에드윈 부평점,EDWIN 부평점,Edwin Bupyeong,Shops and Service,Clothing Store,126.72412116052492,37.49400629840449,대한민국,KOR,KOR,인천광역시,부평구,,부평동,,부평문화로,72,201-33,2022-08-12 13:15:03,"쇼핑,편의||패션||캐주얼웨어||캐주얼웨어-일반",False
22949,22950,27239225,그린조이 홈플러스작전점,,Green Joy Homeplus Operation Branch,Shops and Service,Clothing Store,126.7212581999999,37.526177599999805,대한민국,KOR,KOR,인천광역시,계양구,,작전동,,계양대로,27,448-7,2022-05-01 12:37:48,"쇼핑,편의||패션||스포츠의류||골프웨어||골프웨어-일반",False
23638,23639,27231112,웨스트우드 모다아울렛인천점,,Westwood Moda Outlet Incheon,Shops and Service,Clothing Store,126.64772471015787,37.509934893689376,대한민국,KOR,KOR,인천광역시,서구,,원창동,,북항로32번안길,50,381-69,2022-05-01 12:37:48,"쇼핑,편의||패션||스포츠의류||등산,아웃도어||웨스트우드",False
23750,23751,2384788,블랙야크 인천아이즈빌점,,Black Yak Incheon Eyesville Branch,Shops and Service,Clothing Store,126.70416389999995,37.521332899999805,대한민국,KOR,KOR,인천광역시,부평구,,청천동,,마장로,489,386,2022-08-18 12:00:50,"쇼핑,편의||패션||스포츠의류||등산,아웃도어||블랙야크",False
23908,23909,27021319,타임 롯데백화점인천점,,Time Lotte Department Store Incheon,Shops and Service,Clothing Store,126.70116788999988,37.443014899999774,대한민국,KOR,KOR,인천광역시,미추홀구,,관교동,,연남로,35,15,2022-05-01 12:37:48,"쇼핑,편의||패션||종합패션||종합패션-일반",False
23939,23940,4360337,엘리트학생복 작전점,엘리트학생복작전점,elite school uniform,Shops and Service,Clothing Store,126.72261171135293,37.52607399842331,대한민국,KOR,KOR,인천광역시,계양구,,작전동,,계양대로,26,429-2,2022-05-01 12:37:48,"쇼핑,편의||패션||유니폼,단체복||교복||엘리트",False
24158,24159,4329295,파트너학생복용현점,PARTNER학생복용현점,Partner Student Taking Hyun Branch,Shops and Service,Clothing Store,126.63944439297985,37.45441339224986,대한민국,KOR,KOR,인천광역시,미추홀구,,용현동,,낙섬중로,73,623-171,2022-08-24 14:41:06,"쇼핑,편의||패션||유니폼,단체복||교복||교복-일반",False
24290,24291,3128952,프리패스학생복 부평점,프리패스부평점,Freepass Student Uniform Bupyeong,Shops and Service,Clothing Store,126.73063024560408,37.502378239855354,대한민국,KOR,KOR,인천광역시,부평구,,부평동,,장제로,187-1,143-9,2022-08-24 14:41:06,"쇼핑,편의||패션||유니폼,단체복||교복||교복-일반",False
24366,24367,27021555,닥스골프 롯데백화점인천점,,Daks Golf Lotte Department Store Incheon Branch,Shops and Service,Clothing Store,126.70121018999988,37.442349609999766,대한민국,KOR,KOR,인천광역시,미추홀구,,관교동,,연남로,35,15,2022-05-01 12:37:48,"쇼핑,편의||패션||스포츠의류||골프웨어||골프웨어-일반",False
24824,24825,27136896,아이비클럽 부평점,,Ivy Club Bupyeong,Shops and Service,Clothing Store,126.72291488114192,37.529697800085614,대한민국,KOR,KOR,인천광역시,계양구,,작전동,,계양대로,66,866,2022-05-01 12:37:48,"쇼핑,편의||패션||유니폼,단체복||교복||아이비클럽",False
24850,24851,27219362,PAT 뉴코아아울렛 인천점,,PAT New Core Outlet Incheon Branch,Shops and Service,Clothing Store,126.70070404689888,37.444027311420164,대한민국,KOR,KOR,인천광역시,남동구,,구월동,,인하로,485,1465-1,2022-05-01 12:37:48,"쇼핑,편의||패션||캐주얼웨어||프랜차이즈||PAT",False
24883,24884,6211096,라인의류잡화,라인잡화,Line clothing and miscellaneous goods,Shops and Service,Clothing Store,126.6725496731769,37.54736883041179,대한민국,KOR,KOR,인천광역시,서구,,연희동,,연희로39번길,22,746-11,2022-05-01 12:37:48,"쇼핑,편의||패션||보세의류||보세의류-일반",False
25376,25377,27212019,지프 LF스퀘어인천점,,Jeep LF Square Incheon,Shops and Service,Clothing Store,126.66902787802488,37.41864372149574,대한민국,KOR,KOR,인천광역시,연수구,,청학동,,청능대로23번길,11,455,2022-05-01 12:37:48,"쇼핑,편의||패션||캐주얼웨어||캐주얼웨어-일반",False
25387,25388,4323220,지센 인천구월점,,Jisen Incheon Guwol Branch,Shops and Service,Clothing Store,126.7213179326159,37.455246380631685,대한민국,KOR,KOR,인천광역시,남동구,,구월동,,복개서로97번길,19,1256,2022-05-01 12:37:48,"쇼핑,편의||패션||캐주얼웨어||프랜차이즈||지센",False
25478,25479,27021403,지포어 롯데백화점인천점,,Zippo Lotte Department Store Incheon,Shops and Service,Clothing Store,126.70150759659788,37.44299943442616,대한민국,KOR,KOR,인천광역시,미추홀구,,관교동,,연남로,35,15,2022-05-01 12:37:48,"쇼핑,편의||패션||스포츠의류||골프웨어||골프웨어-일반",False
25661,25662,27236828,짱구제백화점,,Changguje Department Store,Shops and Service,Clothing Store,126.65647496357391,37.46434251350528,대한민국,KOR,KOR,인천광역시,미추홀구,,숭의동,,수봉로,19-1,48-8,2022-05-01 12:37:48,"쇼핑,편의||패션||구제의류",False
26547,26548,27021520,마리떼프랑소와저버 롯데백화점 인천점,,Marite Francoise Jeber Lotte Department Store Incheon Branch,Shops and Service,Clothing Store,126.70137839999988,37.44248529999977,대한민국,KOR,KOR,인천광역시,미추홀구,,관교동,,연남로,35,15,2022-08-02 16:47:12,"쇼핑,편의||패션||캐주얼웨어||캐주얼웨어-일반",False
26586,26587,2595858,이신우 부평점,ICINOO부평점,Shin-Woo Lee  Bupyeong Branch,Shops and Service,Clothing Store,126.72302720262078,37.49484245708348,대한민국,KOR,KOR,인천광역시,부평구,,부평동,,부평대로,38,212-10,2022-08-24 14:41:06,"쇼핑,편의||패션||보세의류||보세의류-일반",False
26681,26682,20202512,구제해보세,,save me,Shops and Service,Clothing Store,126.72738582281897,37.45307508639189,대한민국,KOR,KOR,인천광역시,남동구,,만수동,,하촌서로47번길,45,923-6,2021-12-23 15:49:18,"쇼핑,편의||패션||구제의류",False
26727,26728,27189180,빈센트학생복,,vincent school uniform,Shops and Service,Clothing Store,126.67758454962193,37.46348347008647,대한민국,KOR,KOR,인천광역시,미추홀구,,주안동,,주안서로53번길,5,272-2,2022-08-24 14:41:06,"쇼핑,편의||패션||유니폼,단체복||교복||교복-일반",False
26883,26884,6204130,코지의류,,Cozy Clothing,Shops and Service,Clothing Store,126.62907076336884,37.48011653265147,대한민국,KOR,KOR,인천광역시,동구,,화평동,,화도진로,101,243,2020-01-14 0:00:00,"쇼핑,편의||패션||보세의류||보세의류-일반",False
27144,27145,27021299,빈폴골프 롯데백화점 인천점,,Beanpole Golf Lotte Department Store Incheon Branch,Shops and Service,Clothing Store,126.70137839999995,37.442485299999774,대한민국,KOR,KOR,인천광역시,미추홀구,,관교동,,연남로,35,15,2022-06-13 10:44:13,"쇼핑,편의||패션||스포츠의류||골프웨어||빈폴골프",False
27230,27231,4335480,모아패션,,more fashion,Shops and Service,Clothing Store,126.6800187989849,37.49047751030989,대한민국,KOR,KOR,인천광역시,서구,,가좌동,,원적로,37,260-18,2022-08-16 16:52:33,"쇼핑,편의||패션||보세의류||보세의류-일반",False
27360,27361,3690320,세인트스코트학생복 논현점,세인트스코트학생복논현점,St. Scott School Uniform  Nonhyeon Branch,Shops and Service,Clothing Store,126.72403649322736,37.4059561748031,대한민국,KOR,KOR,인천광역시,남동구,,논현동,,은봉로,309,593-7,2022-05-01 12:37:48,"쇼핑,편의||패션||유니폼,단체복||교복||교복-일반",False
27605,27606,20760909,나무빈티지명품구제,,wooden vintage luxury goods,Shops and Service,Clothing Store,126.65764404708789,37.454881564684875,대한민국,KOR,KOR,인천광역시,미추홀구,,용현동,,인주대로,188-16,139-19,2022-05-18 1:21:36,"쇼핑,편의||패션||구제의류",False
27657,27658,27235035,등산의류,,mountaineering clothing,Shops and Service,Clothing Store,126.75471489999995,37.45168489999979,대한민국,KOR,KOR,인천광역시,남동구,,장수동,,장자북로,42-1,777-3,2022-05-01 12:37:48,"쇼핑,편의||패션||스포츠의류||등산,아웃도어||등산,아웃도어-일반",False
28503,28504,5689741,창작토탈패션,,creative total fashion,Shops and Service,Clothing Store,126.73036176548536,37.45832785071157,대한민국,KOR,KOR,인천광역시,남동구,,만수동,,만수로,11,871-19,2022-08-30 9:43:30,"쇼핑,편의||패션||보세의류||보세의류-일반",False
28737,28738,27247381,행운 구제방,,good luck relief,Shops and Service,Clothing Store,126.70397229999988,37.51672179999981,대한민국,KOR,KOR,인천광역시,부평구,,청천동,,마장로,433,25-9,2022-05-01 12:37:48,"쇼핑,편의||패션||구제의류",False
29248,29249,2611442,코스모의류,,Cosmo Clothing,Shops and Service,Clothing Store,126.7252585137549,37.49487689454149,대한민국,KOR,KOR,인천광역시,부평구,,부평동,,부평대로36번길,42,210-21,2019-11-14 23:05:38,"쇼핑,편의||패션||보세의류||보세의류-일반",False
29252,29253,27021558,SJSJ 롯데백화점인천점,,SJSJ Lotte Department Store Incheon,Shops and Service,Clothing Store,126.70121670999988,37.442351139999765,대한민국,KOR,KOR,인천광역시,미추홀구,,관교동,,연남로,35,15,2022-05-01 12:37:48,"쇼핑,편의||패션||캐주얼웨어||프랜차이즈||SJSJ",False
29259,29260,5712111,엘르골프 인천아이즈빌점,ELLEGOLF인천아이즈빌점,Elle Golf Incheon Eyesville Branch,Shops and Service,Clothing Store,126.70335642642345,37.521269132418254,대한민국,KOR,KOR,인천광역시,부평구,,청천동,,마장로,489,386,2022-08-16 16:52:33,"쇼핑,편의||패션||스포츠의류||골프웨어||골프웨어-일반",False
29268,29269,6227216,스팍스 부평역점,,Sfax Bupyeong Station Branch,Shops and Service,Clothing Store,126.72241609635488,37.49540591797741,대한민국,KOR,KOR,인천광역시,부평구,,부평동,,부평대로,45,543-97,2021-12-23 15:49:18,"쇼핑,편의||패션||스포츠의류||골프웨어||골프웨어-일반",False
29294,29295,27138364,행텐 뉴코아아울렛 인천논현점,,Hangten New Core Outlet Incheon Nonhyeon Branch,Shops and Service,Clothing Store,126.72561972539592,37.40045962519866,대한민국,KOR,KOR,인천광역시,남동구,,논현동,,청능대로,596,650-1,2022-05-01 12:37:48,"쇼핑,편의||패션||캐주얼웨어||캐주얼웨어-일반",False
29356,29357,27495643,써니구제,,Sunny relief,Shops and Service,Clothing Store,126.72464797393596,37.4958897113033,대한민국,KOR,KOR,인천광역시,부평구,,부평동,,대정로36번길,4,204-72,2022-08-24 14:41:06,"쇼핑,편의||패션||구제의류",False
29900,29901,27021739,클럽모나코 롯데백화점인천점,,Club Monaco Lotte Department Store Incheon,Shops and Service,Clothing Store,126.7010071599999,37.442751069999765,대한민국,KOR,KOR,인천광역시,미추홀구,,관교동,,연남로,35,15,2022-05-01 12:37:48,"쇼핑,편의||패션||캐주얼웨어||프랜차이즈||클럽모나코",False
29999,30000,27221305,트레몰로 모다아울렛인천점,,Tremolo Moda Outlet Incheon,Shops and Service,Clothing Store,126.64772471015787,37.509934893689376,대한민국,KOR,KOR,인천광역시,서구,,원창동,,북항로32번안길,50,381-69,2022-05-01 12:37:48,"쇼핑,편의||패션||캐주얼웨어||캐주얼웨어-일반",False
31275,31276,6207578,샤낼패션,,Chanel Fashion,Shops and Service,Clothing Store,126.63365714101595,37.47488581975951,대한민국,KOR,KOR,인천광역시,동구,,송현동,,중앙로,61-1,100-244,2019-08-13 0:18:07,"쇼핑,편의||패션||보세의류||보세의류-일반",False
31715,31716,2603780,여성크로커다일부평아이즈빌점,,Women's Crocodile Bupyeong Eyesville Branch,Shops and Service,Clothing Store,126.70306600010692,37.5216130012905,대한민국,KOR,KOR,인천광역시,부평구,,청천동,,마장로,489,386,2022-08-24 14:41:06,"쇼핑,편의||패션||캐주얼웨어||프랜차이즈||크로커다일",False
31884,31885,4989697,산시부르학생복 검암점,,Sansibur School Uniform Geoam Branch,Shops and Service,Clothing Store,126.67668349999995,37.56568739999984,대한민국,KOR,KOR,인천광역시,서구,,검암동,,승학로,515,596-3,2022-08-16 16:52:33,"쇼핑,편의||패션||유니폼,단체복||교복||교복-일반",False
31980,31981,3675345,노스페이스롯데인천공항,NORTHFACE롯데인천공항,North Face Lotte Incheon Airport,Shops and Service,Clothing Store,126.4500973039118,37.44915603665898,대한민국,KOR,KOR,인천광역시,중구,,운서동,,공항로,272,2840,2022-06-13 10:44:13,"쇼핑,편의||패션||스포츠의류||등산,아웃도어||노스페이스",False
33183,33184,27081692,잠뱅이 부평아이즈빌점,,Jambangi Bupyeong Eyesville Branch,Shops and Service,Clothing Store,126.70383062798489,37.52182392728649,대한민국,KOR,KOR,인천광역시,부평구,,청천동,,마장로,489,386,2022-08-16 16:52:33,"쇼핑,편의||패션||캐주얼웨어||진,청바지",False
33324,33325,5691967,JDX 인천계산점,제이디엑스인천계산점,JDX Incheon Gyesan Branch,Shops and Service,Clothing Store,126.72873032195994,37.54406883992603,대한민국,KOR,KOR,인천광역시,계양구,,계산동,,주부토로,558,919,2022-08-16 16:52:33,"쇼핑,편의||패션||스포츠의류||골프웨어||JDX",False
33701,33702,5691824,헨어스 에드윈 구월점,EDWIN구월점,Hen's Edwin Guwol,Shops and Service,Clothing Store,126.72097626770191,37.45464646867786,대한민국,KOR,KOR,인천광역시,남동구,,구월동,,구월로276번길,20,1264-62,2022-08-12 13:15:03,"쇼핑,편의||패션||캐주얼웨어||캐주얼웨어-일반",False
33869,33870,27184614,지이크파렌하이트 부평아이즈빌점,,Sieg Fahrenheit Bupyeong Eyesville Branch,Shops and Service,Clothing Store,126.7043065307599,37.5217669268275,대한민국,KOR,KOR,인천광역시,부평구,,청천동,,마장로,489,386,2022-08-16 16:52:33,"쇼핑,편의||패션||캐주얼웨어||프랜차이즈||지이크파렌하이트",False
34123,34124,27219364,리바이스키즈 뉴코아아울렛 인천점,,Levi's Kids New Core Outlet Incheon Branch,Shops and Service,Clothing Store,126.70070404689888,37.444027311420164,대한민국,KOR,KOR,인천광역시,남동구,,구월동,,인하로,485,1465-1,2022-05-01 12:37:48,"쇼핑,편의||패션||캐주얼웨어||프랜차이즈||리바이스",False
34168,34169,20103719,발렌티노 신세계면세점인천공항T2점,,Valentino Shinsegae Duty Free Incheon Airport T2,Shops and Service,Clothing Store,126.4350450399998,37.46737929999979,대한민국,KOR,KOR,인천광역시,중구,,운서동,,제2터미널대로,444,2868,,"쇼핑,편의||패션||종합패션||프랜차이즈||발렌티노",False
35057,35058,27097853,레코브 모다아울렛인천점,,Recove Moda Outlet Incheon,Shops and Service,Clothing Store,126.64772471015787,37.509934893689376,대한민국,KOR,KOR,인천광역시,서구,,원창동,,북항로32번안길,50,381-69,2022-05-01 12:37:48,"쇼핑,편의||패션||캐주얼웨어||캐주얼웨어-일반",False
35208,35209,27222239,블루토탈패션,,blue total fashion,Shops and Service,Clothing Store,126.72538314903092,37.538648873419305,대한민국,KOR,KOR,인천광역시,계양구,,계산동,,계산천동로19번길,8-6,961-1,2022-05-01 12:37:48,"쇼핑,편의||패션||보세의류||보세의류-일반",False
35280,35281,27220857,조이너스 인천모다아울렛점,Joinus 인천모다점,Joiners Incheon Moda Outlet,Shops and Service,Clothing Store,126.64759809005184,37.50993519316627,대한민국,KOR,KOR,인천광역시,서구,,원창동,,북항로32번안길,50,381-69,2022-05-01 12:37:48,"쇼핑,편의||패션||정장||프랜차이즈||조이너스",False
35339,35340,27068872,루이까스텔 NC아울렛 인천,,Louis Castel NC Outlet Incheon,Shops and Service,Clothing Store,126.70070699999992,37.444021599999786,대한민국,KOR,KOR,인천광역시,남동구,,구월동,,인하로,485,1465-1,2022-05-01 12:37:48,"쇼핑,편의||패션||스포츠의류||골프웨어||루이까스텔",False
35478,35479,5697794,아웃도어상설할인매장 부평점,아웃도어매장부평점,Outdoor discount store Bupyeong,Shops and Service,Clothing Store,126.73081407762892,37.50469239987749,대한민국,KOR,KOR,인천광역시,부평구,,부평동,,장제로,213-1,10-519,2022-05-01 12:37:48,"쇼핑,편의||패션||스포츠의류||등산,아웃도어||등산,아웃도어-일반",False
35689,35690,2597187,STCO 구월복합점,에스티코 구월복합점,STCO Guwol Complex,Shops and Service,Clothing Store,126.6940893632929,37.450238069693775,대한민국,KOR,KOR,인천광역시,남동구,,구월동,,인주대로,516,1120-17,2022-08-16 16:52:33,"쇼핑,편의||패션||정장||프랜차이즈||STCO",False
36620,36621,2613307,샤트렌 부평점,,Chatren Bupyeong,Shops and Service,Clothing Store,126.72442130230844,37.49424053500866,대한민국,KOR,KOR,인천광역시,부평구,,부평동,,부평문화로,73,211-56,2022-08-16 16:52:33,"쇼핑,편의||패션||캐주얼웨어||프랜차이즈||샤트렌",False
36646,36647,5682824,동부의류타운,,Eastern Clothing Town,Shops and Service,Clothing Store,126.69558779999994,37.44132119999977,대한민국,KOR,KOR,인천광역시,미추홀구,,관교동,,주승로,247,13-11,2022-08-24 14:41:06,"쇼핑,편의||패션||보세의류||보세의류-일반",False
36822,36823,27248665,뉴발란스NC이천일부평점,,New Balance NC Icheon Bupyong,Shops and Service,Clothing Store,126.71000559999992,37.490787499999776,대한민국,KOR,KOR,인천광역시,부평구,,산곡동,,경원대로,1277,311-151,2022-05-01 12:37:48,"쇼핑,편의||패션||스포츠의류||스포츠의류-일반",False
36837,36838,27258686,엘리트 연수점,,elite training center,Shops and Service,Clothing Store,126.6779763126829,37.41727175456906,대한민국,KOR,KOR,인천광역시,연수구,,연수동,,벚꽃로,114,592,2022-08-16 16:52:33,"쇼핑,편의||패션||유니폼,단체복||교복||엘리트",False
36942,36943,27021379,질스튜어트 롯데백화점인천점,,Jill Stewart Lotte Department Store Incheon,Shops and Service,Clothing Store,126.70068491999989,37.442682239999776,대한민국,KOR,KOR,인천광역시,미추홀구,,관교동,,연남로,35,15,2022-05-01 12:37:48,"쇼핑,편의||패션||캐주얼웨어||캐주얼웨어-일반",False
37161,37162,27173224,엘리트학생복 미추홀점,,Elite school uniform Michuhol,Shops and Service,Clothing Store,126.65422749999993,37.4679154999998,대한민국,KOR,KOR,인천광역시,미추홀구,,도화동,,석정로,170-1,80-43,2022-06-07 17:23:36,"쇼핑,편의||패션||유니폼,단체복||교복||엘리트",False
37668,37669,27021286,생로랑 롯데백화점 인천점,,Saint Laurent Lotte Department Store Incheon Branch,Shops and Service,Clothing Store,126.7015252999999,37.442460799999765,대한민국,KOR,KOR,인천광역시,미추홀구,,관교동,,연남로,35,15,2022-05-09 18:01:21,"쇼핑,편의||패션||종합패션||프랜차이즈||입생로랑",False
38100,38101,4335985,코오롱스포츠 인천계양점,,Kolon Sports Incheon Gyeyang Branch,Shops and Service,Clothing Store,126.7264412904976,37.54359301844136,대한민국,KOR,KOR,인천광역시,계양구,,계산동,,경명대로,1075,928-28,2022-08-26 9:52:19,"쇼핑,편의||패션||스포츠의류||등산,아웃도어||코오롱스포츠",False
38393,38394,5668030,영광명품구제,영광구제,Yeonggwang Luxury Goods Relief,Shops and Service,Clothing Store,126.72680732742592,37.46017516864968,대한민국,KOR,KOR,인천광역시,남동구,,만수동,,백범로206번길,10,864-8,2019-11-14 0:00:00,"쇼핑,편의||패션||구제의류",False
38603,38604,27213987,크로커다일레이디 뉴코아아울렛 인천점,,Crocodile Lady New Core Outlet Incheon Branch,Shops and Service,Clothing Store,126.70070404689888,37.444027311420164,대한민국,KOR,KOR,인천광역시,남동구,,구월동,,인하로,485,1465-1,2022-06-07 17:23:36,"쇼핑,편의||패션||캐주얼웨어||프랜차이즈||크로커다일",False
39158,39159,27198932,코오롱패션 브렌우드 홈플러스간석점,,Kolon Fashion Brenwood Homeplus Ganseok,Shops and Service,Clothing Store,126.68879809999989,37.46928079999977,대한민국,KOR,KOR,인천광역시,남동구,,간석동,,경원대로,971,616-3,2022-05-01 12:37:48,"쇼핑,편의||패션||스포츠의류||등산,아웃도어||코오롱스포츠",False
39465,39466,20481593,마운티아 인천용현점,,Mountia Incheon Yonghyeon Branch,Shops and Service,Clothing Store,126.64964574803388,37.45831813279455,대한민국,KOR,KOR,인천광역시,미추홀구,,숭의동,,독배로432번길,7,293-6,2022-05-01 12:37:48,"쇼핑,편의||패션||스포츠의류||등산,아웃도어||마운티아",False
39665,39666,20468828,명품구제,,luxury goods,Shops and Service,Clothing Store,126.72197544099392,37.53253861087772,대한민국,KOR,KOR,인천광역시,계양구,,작전동,,계양대로97번길,3,864-62,2022-05-01 12:37:48,"쇼핑,편의||패션||구제의류",False
40484,40485,27021577,로에베 롯데백화점 인천점,,Loewe Lotte Department Store Incheon Branch,Shops and Service,Clothing Store,126.70137839999988,37.44248529999977,대한민국,KOR,KOR,인천광역시,미추홀구,,관교동,,연남로,35,15,2022-05-01 12:37:48,"쇼핑,편의||패션||종합패션||종합패션-일반",False
40516,40517,27451557,M토탈패션,,M Total Fashion,Shops and Service,Clothing Store,126.70599587311796,37.45386308619838,대한민국,KOR,KOR,인천광역시,남동구,,구월동,,미래로,42,1140,2022-08-12 13:15:03,"쇼핑,편의||패션||보세의류||보세의류-일반",False
40565,40566,27215536,네파 인천송림점,,Nepa Incheon Songrim Branch,Shops and Service,Clothing Store,126.64794130540888,37.48205269349896,대한민국,KOR,KOR,인천광역시,동구,,송림동,,송미로,17-8,11-113,2022-05-01 12:37:48,"쇼핑,편의||패션||스포츠의류||등산,아웃도어||네파",False
41309,41310,27402443,노스페이스 부평아이즈빌점,NORTHFACE 부평아이즈빌점,The North Face Bupyeong Eyesville Branch,Shops and Service,Clothing Store,126.70351022736294,37.52131684379669,대한민국,KOR,KOR,인천광역시,부평구,,청천동,,마장로,489,386,2022-08-16 16:52:33,"쇼핑,편의||패션||스포츠의류||등산,아웃도어||노스페이스",False
41467,41468,27021649,발렌시아가 롯데백화점인천점,,Balenciaga Lotte Department Store Incheon,Shops and Service,Clothing Store,126.70137839999988,37.44248529999977,대한민국,KOR,KOR,인천광역시,미추홀구,,관교동,,연남로,35,15,2022-05-01 12:37:48,"쇼핑,편의||패션||종합패션||프랜차이즈||발렌시아가",False
42076,42077,27021646,안다르 롯데백화점 인천점,,Andar Lotte Department Store Incheon Branch,Shops and Service,Clothing Store,126.70137839999988,37.44248529999977,대한민국,KOR,KOR,인천광역시,미추홀구,,관교동,,연남로,35,15,2022-05-01 12:37:48,"쇼핑,편의||패션||스포츠의류||스포츠의류-일반",False
42756,42757,5654576,택시의류,,taxi clothes,Shops and Service,Clothing Store,126.62920844271086,37.473109984618674,대한민국,KOR,KOR,인천광역시,중구,,내동,,,,198-1,2020-01-14 23:21:05,"쇼핑,편의||패션||보세의류||보세의류-일반",False
43016,43017,27073816,로엠걸즈 뉴코아아울렛 인천논현점,,Rom Girls New Core Outlet Incheon Nonhyeon Branch,Shops and Service,Clothing Store,126.72561972539592,37.40045962519866,대한민국,KOR,KOR,인천광역시,남동구,,논현동,,청능대로,596,650-1,2022-05-01 12:37:48,"쇼핑,편의||패션||캐주얼웨어||프랜차이즈||로엠",False
43065,43066,27081434,빈센트학생복,,vincent school uniform,Shops and Service,Clothing Store,126.67927422003687,37.41394904131685,대한민국,KOR,KOR,인천광역시,연수구,,연수동,,용담로,133,607-9,2022-05-01 12:37:48,"쇼핑,편의||패션||유니폼,단체복||교복||교복-일반",False
43951,43952,27016678,힐크릭 lf스퀘어 인천점,,Hill Creek lf Square Incheon Branch,Shops and Service,Clothing Store,126.66886355225397,37.41844984132848,대한민국,KOR,KOR,인천광역시,연수구,,청학동,,청능대로23번길,11,455,2022-06-29 11:25:35,"쇼핑,편의||패션||스포츠의류||골프웨어||힐크릭",False
44006,44007,3677792,레드페이스VPLUS연수점,THEREDFACEVPLUS연수점,Red Face VPLUS Training Center,Shops and Service,Clothing Store,126.66882897830187,37.41878442164645,대한민국,KOR,KOR,인천광역시,연수구,,청학동,,청능대로23번길,11,455,2020-01-14 23:42:28,"쇼핑,편의||패션||스포츠의류||등산,아웃도어||레드페이스",False
44263,44264,2596770,플러스파트너학생복,,Plus Partner Student Uniform,Shops and Service,Clothing Store,126.64702377329488,37.47348715989168,대한민국,KOR,KOR,인천광역시,동구,,송림동,,동산로,64,66-22,2022-05-01 12:37:48,"쇼핑,편의||패션||유니폼,단체복||교복||교복-일반",False
44267,44268,27227524,탑텐 부평 아이즈빌점,,Top 10 Bupyeong Eyesville Branch,Shops and Service,Clothing Store,126.70383262721988,37.5218299274687,대한민국,KOR,KOR,인천광역시,부평구,,청천동,,마장로,489,386,2022-08-16 16:52:33,"쇼핑,편의||패션||캐주얼웨어||캐주얼웨어-일반",False
44479,44480,2622138,캠퍼스학생복 제물포점,,campus student uniform Jemulpo,Shops and Service,Clothing Store,126.65546764468888,37.467802704609376,대한민국,KOR,KOR,인천광역시,미추홀구,,도화동,,석정로,182,80-66,2022-08-16 16:52:33,"쇼핑,편의||패션||유니폼,단체복||교복||교복-일반",False
45183,45184,27215361,디스커버리 LF스퀘어연수점,,Discovery LF Square Yeonsu Branch,Shops and Service,Clothing Store,126.6683100003699,37.41928830051907,대한민국,KOR,KOR,인천광역시,연수구,,청학동,,용담로,14,455,2022-05-01 12:37:48,"쇼핑,편의||패션||스포츠의류||등산,아웃도어||디스커버리",False
45291,45292,6216301,다비다패션,,Da Vida Fashion,Shops and Service,Clothing Store,126.67448045361996,37.51606486887011,대한민국,KOR,KOR,인천광역시,서구,,가정동,,가정로352번길,14-1,518-19,2022-08-24 14:41:06,"쇼핑,편의||패션||보세의류||보세의류-일반",False
45490,45491,4330295,JDX 인천송림점,제이디엑스인천송림점,JDX Incheon Songrim Branch,Shops and Service,Clothing Store,126.64757229999996,37.48225899999979,대한민국,KOR,KOR,인천광역시,동구,,송림동,,송미로,17-12,11-112,2022-08-16 16:52:33,"쇼핑,편의||패션||스포츠의류||골프웨어||JDX",False
45816,45817,3675888,레드페이스이마트인천점,REDFACE이마트인천점,Red Face E-Mart Incheon Branch,Shops and Service,Clothing Store,126.70129799999992,37.441361199999776,대한민국,KOR,KOR,인천광역시,미추홀구,,관교동,,연남로,35,15,2018-08-11 9:09:09,"쇼핑,편의||패션||스포츠의류||등산,아웃도어||레드페이스",False
45878,45879,27021751,코닥아웃도어 롯데백화점인천점,,Kodak Outdoor Lotte Department Store Incheon,Shops and Service,Clothing Store,126.70137839999988,37.44248529999977,대한민국,KOR,KOR,인천광역시,미추홀구,,관교동,,연남로,35,15,2022-05-01 12:37:48,"쇼핑,편의||패션||스포츠의류||등산,아웃도어||등산,아웃도어-일반",False
45934,45935,27126872,디즈니 골프 연수점,,Disney Golf Training Center,Shops and Service,Clothing Store,126.67697240232187,37.417625051810056,대한민국,KOR,KOR,인천광역시,연수구,,청학동,,벚꽃로,106,496-4,2022-08-16 16:52:33,"쇼핑,편의||패션||스포츠의류||스포츠의류-일반",False
46060,46061,20475384,앤의류&생활용품,,Ann&#39;s Clothing & Household Goods,Shops and Service,Clothing Store,126.7130887795969,37.45103296763689,대한민국,KOR,KOR,인천광역시,남동구,,구월동,,용천로17번길,19,1217,2022-05-01 12:37:48,"쇼핑,편의||패션||보세의류||보세의류-일반",False
46237,46238,27219081,뱅뱅 뉴코아아울렛 인천점,,Bang Bang New Core Outlet Incheon Branch,Shops and Service,Clothing Store,126.70070404689888,37.444027311420164,대한민국,KOR,KOR,인천광역시,남동구,,구월동,,인하로,485,1465-1,2022-05-01 12:37:48,"쇼핑,편의||패션||캐주얼웨어||프랜차이즈||뱅뱅",False
46269,46270,27113752,노스페이스 청라스퀘어점,,North Face Cheongna Square,Shops and Service,Clothing Store,126.64173028131685,37.5324392298943,대한민국,KOR,KOR,인천광역시,서구,,청라동,,청라루비로,76,155-7,2022-08-16 16:52:33,"쇼핑,편의||패션||스포츠의류||등산,아웃도어||노스페이스",False
46849,46850,4338026,나쿠상설할인매장부평점,나쿠부평점,Naku Permanent Discount Store Bupyeong,Shops and Service,Clothing Store,126.72961346242263,37.49276919008437,대한민국,KOR,KOR,인천광역시,부평구,,부평동,,장제로,81,557-6,2022-08-12 13:15:03,"쇼핑,편의||패션||스포츠의류||등산,아웃도어||등산,아웃도어-일반",False
47006,47007,5702508,명품구제최고,최고,best luxury goods,Shops and Service,Clothing Store,126.69721637631092,37.47343300199748,대한민국,KOR,KOR,인천광역시,부평구,,십정동,,배곶북로,15-3,302-16,2022-05-01 12:37:48,"쇼핑,편의||패션||구제의류",False
47061,47062,27021330,DKNY 롯데백화점인천점,,DKNY Lotte Department Store Incheon,Shops and Service,Clothing Store,126.70087010999988,37.44266954999976,대한민국,KOR,KOR,인천광역시,미추홀구,,관교동,,연남로,35,15,2022-05-01 12:37:48,"쇼핑,편의||패션||종합패션||종합패션-일반",False
47930,47931,27021410,노비스 롯데 인천터미널점,,Novice Lotte Incheon Terminal,Shops and Service,Clothing Store,126.70137839999988,37.44248529999977,대한민국,KOR,KOR,인천광역시,미추홀구,,관교동,,연남로,35,15,2022-08-19 9:48:28,"쇼핑,편의||패션||종합패션||종합패션-일반",False
48449,48450,27021718,루이비통 롯데백화점인천점,,Louis Vuitton Lotte Department Store Incheon,Shops and Service,Clothing Store,126.70097586999988,37.442663999999766,대한민국,KOR,KOR,인천광역시,미추홀구,,관교동,,연남로,35,15,2022-05-01 12:37:48,"쇼핑,편의||패션||종합패션||프랜차이즈||루이비통",False
48453,48454,27219221,크로커다일레이디 2001아울렛 부평점,,Crocodile Lady 2001 Outlet Bupyeong,Shops and Service,Clothing Store,126.71038409813688,37.49067901596537,대한민국,KOR,KOR,인천광역시,부평구,,산곡동,,경원대로,1277,311-151,2022-05-01 12:37:48,"쇼핑,편의||패션||캐주얼웨어||프랜차이즈||크로커다일",False
48807,48808,3674956,블랙야크 인천송림점,BLACKYAK 인천송림점,Black Yak Incheon Songrim Branch,Shops and Service,Clothing Store,126.64773476803484,37.48113577961757,대한민국,KOR,KOR,인천광역시,동구,,송림동,,송미로,11-3,11-124,2022-08-16 16:52:33,"쇼핑,편의||패션||스포츠의류||등산,아웃도어||블랙야크",False
48829,48830,2604297,올포유 인천구월점,ALLFORYOU 인천구월점,All For You Incheon Guwol Branch,Shops and Service,Clothing Store,126.7210009682789,37.454938869546986,대한민국,KOR,KOR,인천광역시,남동구,,구월동,,구월로276번길,20,1264-62,2022-08-16 16:52:33,"쇼핑,편의||패션||캐주얼웨어||프랜차이즈||올포유",False
48871,48872,27451531,유니구제샵,,uni relief shop,Shops and Service,Clothing Store,126.72532195433595,37.45840626454029,대한민국,KOR,KOR,인천광역시,남동구,,만수동,,구월말로,103,900-25,2022-08-12 13:15:03,"쇼핑,편의||패션||구제의류",False
49122,49123,27145425,파크랜드 모다아울렛부평점,,Parkland Moda Outlet Bupyeong,Shops and Service,Clothing Store,126.7195878999999,37.49355109999979,대한민국,KOR,KOR,인천광역시,부평구,,부평동,,부평문화로,35,70-127,2022-05-01 12:37:48,"쇼핑,편의||패션||정장||프랜차이즈||파크랜드",False
50037,50038,1261544,파크랜드 구월상설점,,Parkland September permanent store,Shops and Service,Clothing Store,126.7184642716479,37.44966971860647,대한민국,KOR,KOR,인천광역시,남동구,,구월동,,호구포로,755,1235-7,2022-08-18 12:00:50,"쇼핑,편의||패션||정장||프랜차이즈||파크랜드",False
50144,50145,3676283,밀레 인천연수점,MILLET인천연수점,Millet Incheon Yeonsu Branch,Shops and Service,Clothing Store,126.6686633783549,37.418736822126334,대한민국,KOR,KOR,인천광역시,연수구,,청학동,,청능대로23번길,11,455,2022-05-01 12:37:48,"쇼핑,편의||패션||스포츠의류||등산,아웃도어||밀레",False
50194,50195,27021494,인터메조 롯데백화점인천점,,Intermezzo Lotte Department Store Incheon,Shops and Service,Clothing Store,126.70080618999988,37.442663319999774,대한민국,KOR,KOR,인천광역시,미추홀구,,관교동,,연남로,35,15,2022-05-01 12:37:48,"쇼핑,편의||패션||캐주얼웨어||프랜차이즈||인터메조",False
50279,50280,5682487,샤트렌 인천논현점,CHATELAINE인천논현점,Chatren Incheon Nonhyeon Branch,Shops and Service,Clothing Store,126.72390066011792,37.40126992974084,대한민국,KOR,KOR,인천광역시,남동구,,논현동,,청능대로,583,631-9,2022-08-16 16:52:33,"쇼핑,편의||패션||캐주얼웨어||프랜차이즈||샤트렌",False
50891,50892,27130566,올리비아로렌상설 인천엘에프스퀘어연수점,,Olivia Lauren Permanent Incheon LF Square Yeonsu Branch,Shops and Service,Clothing Store,126.66886029036093,37.42087168524757,대한민국,KOR,KOR,인천광역시,연수구,,청학동,,용담로,12,455-1,2022-05-01 12:37:48,"쇼핑,편의||패션||캐주얼웨어||프랜차이즈||올리비아로렌",False
51072,51073,27021344,플랙진 롯데백화점 인천점,,Flaggene Lotte Department Store Incheon Branch,Shops and Service,Clothing Store,126.70137839999988,37.44248529999977,대한민국,KOR,KOR,인천광역시,미추홀구,,관교동,,연남로,35,15,2022-05-01 12:37:48,"쇼핑,편의||패션||캐주얼웨어||프랜차이즈||플랙진",False
51112,51113,27021405,PXG 롯데백화점인천점,,PXG Lotte Department Store Incheon,Shops and Service,Clothing Store,126.70156149999993,37.44222959999977,대한민국,KOR,KOR,인천광역시,미추홀구,,관교동,,연남로,35,15,2022-05-01 12:37:48,"쇼핑,편의||패션||스포츠의류||등산,아웃도어||등산,아웃도어-일반",False
51115,51116,20201235,쭈마구제,,squash,Shops and Service,Clothing Store,126.67454293678692,37.547999911990125,대한민국,KOR,KOR,인천광역시,서구,,연희동,,승학로,291-3,741-24,2021-12-23 15:49:18,"쇼핑,편의||패션||구제의류",False
51228,51229,27221004,에스크주니어 모다아울렛인천점,,ESC JUNIOR Moda Outlet Incheon Branch,Shops and Service,Clothing Store,126.64772471015787,37.509934893689376,대한민국,KOR,KOR,인천광역시,서구,,원창동,,북항로32번안길,50,381-69,2022-05-01 12:37:48,"쇼핑,편의||패션||캐주얼웨어||캐주얼웨어-일반",False
51235,51236,27219222,끄레아또레 2001아울렛 부평점,,Creatre 2001 Outlet Bupyeong Branch,Shops and Service,Clothing Store,126.7105048979139,37.490486116021984,대한민국,KOR,KOR,인천광역시,부평구,,산곡동,,경원대로,1277,311-151,2022-05-01 12:37:48,"쇼핑,편의||패션||캐주얼웨어||캐주얼웨어-일반",False
51624,51625,27221208,닉스 모다아울렛인천점,,Nyx Moda Outlet Incheon,Shops and Service,Clothing Store,126.64772471015787,37.509934893689376,대한민국,KOR,KOR,인천광역시,서구,,원창동,,북항로32번안길,50,381-69,2022-05-01 12:37:48,"쇼핑,편의||패션||캐주얼웨어||프랜차이즈||닉스",False
51903,51904,27184796,볼빅 아이즈빌,,Volvik Eyesville,Shops and Service,Clothing Store,126.70383262721988,37.5218299274687,대한민국,KOR,KOR,인천광역시,부평구,,청천동,,마장로,489,386,2022-08-16 16:52:33,"쇼핑,편의||패션||스포츠의류||스포츠의류-일반",False
51997,51998,5678959,팬텀 구월점,FANTOM 구월점,Phantom Guwol,Shops and Service,Clothing Store,126.72073630778291,37.45563014322087,대한민국,KOR,KOR,인천광역시,남동구,,구월동,,구월로,272,1264-75,2019-11-14 23:29:13,"쇼핑,편의||패션||스포츠의류||골프웨어||골프웨어-일반",False
52903,52904,27056056,네파 인천LF연수점,,Napa Incheon LF Yeonsu Branch,Shops and Service,Clothing Store,126.66831000035984,37.419288301420366,대한민국,KOR,KOR,인천광역시,연수구,,청학동,,용담로,14,455,2022-05-01 12:37:48,"쇼핑,편의||패션||스포츠의류||등산,아웃도어||네파",False
53164,53165,20185104,보스명품구제샵,보스구제샵,boss luxury relief shop,Shops and Service,Clothing Store,126.65318794604694,37.459447201411386,대한민국,KOR,KOR,인천광역시,미추홀구,,숭의동,,독정이로,41,289-1,2022-08-24 14:41:06,"쇼핑,편의||패션||구제의류",False
53320,53321,6209869,구제마켓,,old-fashioned market,Shops and Service,Clothing Store,126.72817412675391,37.54155301918211,대한민국,KOR,KOR,인천광역시,계양구,,계산동,,주부토로,529,947-10,2022-08-24 14:41:06,"쇼핑,편의||패션||구제의류",False
53867,53868,4323212,올리비아로렌 인천구월점,,Olivia Lauren Incheon Guwol Branch,Shops and Service,Clothing Store,126.7209740673739,37.454681468982365,대한민국,KOR,KOR,인천광역시,남동구,,구월동,,구월로276번길,20,1264-62,2022-08-16 16:52:33,"쇼핑,편의||패션||캐주얼웨어||프랜차이즈||올리비아로렌",False
54369,54370,4358415,K2 부평아이즈빌점,케이투부평아이즈빌점,K2 Bupyeong Eyesville Branch,Shops and Service,Clothing Store,126.70435330031792,37.522237000830295,대한민국,KOR,KOR,인천광역시,부평구,,청천동,,마장로,489,386,2022-08-16 16:52:33,"쇼핑,편의||패션||스포츠의류||등산,아웃도어||K2",False
55275,55276,6226726,명품구제,,luxury goods,Shops and Service,Clothing Store,126.68633957469892,37.42518678200056,대한민국,KOR,KOR,인천광역시,연수구,,연수동,,함박로,81-1,529-8,2021-12-23 15:49:18,"쇼핑,편의||패션||구제의류",False
55488,55489,27218047,겟유즈드 뉴코아아울렛 인천점,,GetUsed New Core Outlet Incheon Branch,Shops and Service,Clothing Store,126.70070404689888,37.444027311420164,대한민국,KOR,KOR,인천광역시,남동구,,구월동,,인하로,485,1465-1,2022-05-01 12:37:48,"쇼핑,편의||패션||캐주얼웨어||캐주얼웨어-일반",False
55507,55508,27221207,와이드앵글 모다아울렛인천점,,Wide Angle Moda Outlet Incheon,Shops and Service,Clothing Store,126.64772471015787,37.509934893689376,대한민국,KOR,KOR,인천광역시,서구,,원창동,,북항로32번안길,50,381-69,2022-05-01 12:37:48,"쇼핑,편의||패션||스포츠의류||골프웨어||와이드앵글",False
55614,55615,27086127,지오지아 뉴코아아울렛 인천점,,Geogeia New Core Outlet Incheon Branch,Shops and Service,Clothing Store,126.70075684679388,37.44424741183226,대한민국,KOR,KOR,인천광역시,남동구,,구월동,,인하로,485,1465-1,2022-05-01 12:37:48,"쇼핑,편의||패션||캐주얼웨어||프랜차이즈||지오지아",False
55698,55699,27210111,폴햄 모다인천청라점,,Polham Moda Incheon Cheongna Branch,Shops and Service,Clothing Store,126.64772471015787,37.509934893689376,대한민국,KOR,KOR,인천광역시,서구,,원창동,,북항로32번안길,50,381-69,2022-05-01 12:37:48,"쇼핑,편의||패션||캐주얼웨어||프랜차이즈||폴햄",False
55921,55922,27219102,헤드 뉴코아아울렛 인천점,,Head New Core Outlet Incheon Branch,Shops and Service,Clothing Store,126.70070404689888,37.444027311420164,대한민국,KOR,KOR,인천광역시,남동구,,구월동,,인하로,485,1465-1,2022-05-01 12:37:48,"쇼핑,편의||패션||스포츠의류||스포츠의류-일반",False
56008,56009,27204669,올젠 LF스퀘어연수점,,Olzen LF Square Yeonsu Branch,Shops and Service,Clothing Store,126.66831000035984,37.419288301420366,대한민국,KOR,KOR,인천광역시,연수구,,청학동,,용담로,14,455,2022-05-01 12:37:48,"쇼핑,편의||패션||캐주얼웨어||프랜차이즈||올젠",False
56086,56087,27221220,리트머스 모다아울렛인천점,,Litmus Moda Outlet Incheon,Shops and Service,Clothing Store,126.64772471015787,37.509934893689376,대한민국,KOR,KOR,인천광역시,서구,,원창동,,북항로32번안길,50,381-69,2022-05-01 12:37:48,"쇼핑,편의||패션||캐주얼웨어||캐주얼웨어-일반",False
56150,56151,27221209,게스 모다아울렛인천점,,Guess Moda Outlet Incheon,Shops and Service,Clothing Store,126.64772471015787,37.509934893689376,대한민국,KOR,KOR,인천광역시,서구,,원창동,,북항로32번안길,50,381-69,2022-05-01 12:37:48,"쇼핑,편의||패션||캐주얼웨어||프랜차이즈||게스",False
56267,56268,27021386,피디오클래식 롯데백화점 인천점,,Pdio Classic Lotte Department Store Incheon Branch,Shops and Service,Clothing Store,126.70137839999988,37.44248529999977,대한민국,KOR,KOR,인천광역시,미추홀구,,관교동,,연남로,35,15,2022-05-01 12:37:48,"쇼핑,편의||패션||스포츠의류||골프웨어||골프웨어-일반",False
56507,56508,27217765,란찌(Lanzi) 2001아울렛 부평점,,Lanzi 2001 Outlet Bupyeong,Shops and Service,Clothing Store,126.71048469773588,37.4905197165912,대한민국,KOR,KOR,인천광역시,부평구,,산곡동,,경원대로,1277,311-151,2022-05-01 12:37:48,"쇼핑,편의||패션||정장||정장-일반",False
56613,56614,27223947,링스 LF스퀘어 인천점,,Lynx LF Square Incheon,Shops and Service,Clothing Store,126.66902787802488,37.41864372149574,대한민국,KOR,KOR,인천광역시,연수구,,청학동,,청능대로23번길,11,455,2022-05-01 12:37:48,"쇼핑,편의||패션||스포츠의류||골프웨어||골프웨어-일반",False
56753,56754,27021352,파슨스 롯데백화점 인천점,,Parsons Lotte Department Store Incheon Branch,Shops and Service,Clothing Store,126.70113922999988,37.44274992999976,대한민국,KOR,KOR,인천광역시,미추홀구,,관교동,,연남로,35,15,2022-05-01 12:37:48,"쇼핑,편의||패션||캐주얼웨어||캐주얼웨어-일반",False
57113,57114,27219224,크로커다일 2001아울렛 부평점,,Crocodile 2001 Outlet Bupyeong,Shops and Service,Clothing Store,126.71042299813188,37.49047421621177,대한민국,KOR,KOR,인천광역시,부평구,,산곡동,,경원대로,1277,311-151,2022-05-01 12:37:48,"쇼핑,편의||패션||캐주얼웨어||프랜차이즈||크로커다일",False
57342,57343,5692661,알뜰의류매장,,thrifty clothing store,Shops and Service,Clothing Store,126.64391419107989,37.47680953438458,대한민국,KOR,KOR,인천광역시,동구,,송림동,,샛골로161번길,13-1,55-50,2022-05-18 1:18:39,"쇼핑,편의||패션||구제의류",False
57407,57408,2613303,웰메이드 부평점,WELLMADE부평점,Wellmade Bupyeong,Shops and Service,Clothing Store,126.72444312514097,37.494046376757545,대한민국,KOR,KOR,인천광역시,부평구,,부평동,,부평문화로,74,201-37,2022-08-18 12:00:50,"쇼핑,편의||패션||캐주얼웨어||프랜차이즈||웰메이드",False
57694,57695,27221120,탑텐키즈 모다아울렛인천점,,Top 10 Kids Moda Outlet Incheon,Shops and Service,Clothing Store,126.64772471015787,37.509934893689376,대한민국,KOR,KOR,인천광역시,서구,,원창동,,북항로32번안길,50,381-69,2022-05-01 12:37:48,"쇼핑,편의||패션||캐주얼웨어||캐주얼웨어-일반",False
57892,57893,5693959,PAT 부평점,피에이티부평점,PAT Bupyeong,Shops and Service,Clothing Store,126.72544098725191,37.49436917948109,대한민국,KOR,KOR,인천광역시,부평구,,부평동,,부평문화로,81-1,210-34,2022-05-01 12:37:48,"쇼핑,편의||패션||캐주얼웨어||캐주얼웨어-일반",False
58062,58063,27204278,클라이드 홈플러스간석점,,Clyde Homeplus Ganseok,Shops and Service,Clothing Store,126.68925649999989,37.470092099999775,대한민국,KOR,KOR,인천광역시,남동구,,간석동,,경원대로,971,616-3,2022-05-01 12:37:48,"쇼핑,편의||패션||캐주얼웨어||프랜차이즈||클라이드",False
58108,58109,6214471,인스쿨학생복,,in school uniform,Shops and Service,Clothing Store,126.64359558674388,37.537911365399296,대한민국,KOR,KOR,인천광역시,서구,,청라동,,청라커낼로329번길,9,146-4,2022-08-16 16:52:33,"쇼핑,편의||패션||유니폼,단체복||교복||교복-일반",False
58122,58123,4340772,크레빅 부평점,큰옷크레빅 부평점,Crevic Bupyeong,Shops and Service,Clothing Store,126.73088546317793,37.50008382062451,대한민국,KOR,KOR,인천광역시,부평구,,부평동,,장제로,162,124-21,2022-08-18 12:00:50,"쇼핑,편의||패션||캐주얼웨어||프랜차이즈||크레빅",False
58256,58257,3677788,레드페이스NC백화점큐브커낼워크점,REDFACENC백화점큐브커낼워크점,Red Face NC Department Store Cube Canal Walk,Shops and Service,Clothing Store,126.64001909996568,37.401767400762026,대한민국,KOR,KOR,인천광역시,연수구,,송도동,,아트센터대로,87,17-1,2022-05-01 12:37:48,"쇼핑,편의||패션||스포츠의류||등산,아웃도어||레드페이스",False
58823,58824,5654279,조이너스 인천신포점,Joinus인천신포점,Joiners Incheon Sinpo Branch,Shops and Service,Clothing Store,126.62622887665684,37.47143397731996,대한민국,KOR,KOR,인천광역시,중구,,신포동,,제물량로166번길,31,38-2,2022-08-12 13:15:03,"쇼핑,편의||패션||정장||프랜차이즈||조이너스",False
58903,58904,6221345,그린조이 인천구월점,GREENJOY 인천구월점,Green Joy Incheon Guwol Branch,Shops and Service,Clothing Store,126.72079223206592,37.45284770203048,대한민국,KOR,KOR,인천광역시,남동구,,구월동,,구월로276번길,62,1267-5,2022-05-01 12:37:48,"쇼핑,편의||패션||스포츠의류||골프웨어||골프웨어-일반",False
58963,58964,6209396,명동의류 검단점,,Myeongdong Clothing Geomdanjeom,Shops and Service,Clothing Store,126.65879022593089,37.60232900179194,대한민국,KOR,KOR,인천광역시,서구,,마전동,,검단로,492,979-4,2022-05-01 12:37:48,"쇼핑,편의||패션||보세의류||보세의류-일반",False
59005,59006,27216490,에코로바 2001아울렛 부평점,,Eco Lova 2001 Outlet Bupyeong Branch,Shops and Service,Clothing Store,126.71039639841788,37.49058221613577,대한민국,KOR,KOR,인천광역시,부평구,,산곡동,,경원대로,1277,311-151,2022-05-01 12:37:48,"쇼핑,편의||패션||스포츠의류||등산,아웃도어||등산,아웃도어-일반",False
59066,59067,27088296,스쿨룩스 인천서구점,,Schoollux Incheon Seo-gu,Shops and Service,Clothing Store,126.67295594505087,37.59406904576471,대한민국,KOR,KOR,인천광역시,서구,,마전동,,완정로8번길,2,1015-1,2022-08-12 13:15:03,"쇼핑,편의||패션||유니폼,단체복||교복||스쿨룩스",False
59438,59439,24599544,내셔널지오그래픽키즈 롯데백화점인천점,,National Geographic Kids Lotte Department Store Incheon Terminal,Shops and Service,Clothing Store,126.70137839999988,37.44248529999977,대한민국,KOR,KOR,인천광역시,미추홀구,,관교동,,연남로,35,15,2022-05-01 12:37:48,"쇼핑,편의||패션||스포츠의류||등산,아웃도어||내셔널지오그래픽",False
59444,59445,27215437,흄 모다아울렛인천점,,Hume Moda Outlet Incheon,Shops and Service,Clothing Store,126.64776761073487,37.510303193855584,대한민국,KOR,KOR,인천광역시,서구,,원창동,,북항로32번안길,50,381-69,2022-05-01 12:37:48,"쇼핑,편의||패션||캐주얼웨어||프랜차이즈||흄",False
59505,59506,27048131,다이나핏 부평아이즈빌점,DYNAFIT 부평아이즈빌점,Dynafit Bupyeong Eyesville Branch,Shops and Service,Clothing Store,126.70431690419788,37.52197613389029,대한민국,KOR,KOR,인천광역시,부평구,,청천동,,마장로,489,386,2022-08-16 16:52:33,"쇼핑,편의||패션||스포츠의류||스포츠의류-일반",False
59921,59922,27212048,행텐 LF스퀘어 인천점,,Hangten LF Square Incheon,Shops and Service,Clothing Store,126.66902787802488,37.41864372149574,대한민국,KOR,KOR,인천광역시,연수구,,청학동,,청능대로23번길,11,455,2022-05-01 12:37:48,"쇼핑,편의||패션||캐주얼웨어||캐주얼웨어-일반",False
59939,59940,27157456,체이스컬트 인천서구청점,CHASECULT 인천서구청점,Chase Cult Incheon Seo-gu Office,Shops and Service,Clothing Store,126.67353591711192,37.5441011253977,대한민국,KOR,KOR,인천광역시,서구,,심곡동,,탁옥로,37,246,2022-08-16 16:52:33,"쇼핑,편의||패션||캐주얼웨어||캐주얼웨어-일반",False
60468,60469,27021409,지오다노 롯데백화점 인천점,,Giordano Lotte Department Store Incheon Branch,Shops and Service,Clothing Store,126.70096379999983,37.44172029999976,대한민국,KOR,KOR,인천광역시,미추홀구,,관교동,,연남로,35,15,2022-05-01 12:37:48,"쇼핑,편의||패션||캐주얼웨어||프랜차이즈||지오다노",False
60512,60513,20065169,올포유 인천마전점,ALLFORYOU 인천마전점,All For You Incheon Majeon Branch,Shops and Service,Clothing Store,126.6717236555569,37.59530557677891,대한민국,KOR,KOR,인천광역시,서구,,마전동,,완정로,22,1002-9,2022-05-01 12:37:48,"쇼핑,편의||패션||캐주얼웨어||프랜차이즈||올포유",False
60649,60650,27021586,듀엘 롯데백화점인천점,,Duel Lotte Department Store Incheon Branch,Shops and Service,Clothing Store,126.7013649199999,37.44255711999977,대한민국,KOR,KOR,인천광역시,미추홀구,,관교동,,연남로,35,15,2022-05-01 12:37:48,"쇼핑,편의||패션||캐주얼웨어||프랜차이즈||듀엘",False
60724,60725,4361189,루이까스텔 인천작전,,Louis Castel Incheon Operation,Shops and Service,Clothing Store,126.72361719999996,37.52836769999982,대한민국,KOR,KOR,인천광역시,계양구,,작전동,,계양대로,52-1,866-32,2022-08-12 13:15:03,"쇼핑,편의||패션||스포츠의류||골프웨어||루이까스텔",False
60863,60864,27222665,GU샵 모다아울렛 인천점,,GU Shop Moda Outlet Incheon Branch,Shops and Service,Clothing Store,126.64772471015787,37.509934893689376,대한민국,KOR,KOR,인천광역시,서구,,원창동,,북항로32번안길,50,381-69,2022-05-01 12:37:48,"쇼핑,편의||패션||캐주얼웨어||프랜차이즈||GU샵",False
61095,61096,27021332,마크앤로나 롯데백화점인천점,,Mark N Lona Lotte Department Store Incheon,Shops and Service,Clothing Store,126.70145356999988,37.442111799999765,대한민국,KOR,KOR,인천광역시,미추홀구,,관교동,,연남로,35,15,2022-05-01 12:37:48,"쇼핑,편의||패션||스포츠의류||골프웨어||골프웨어-일반",False
61224,61225,27212654,하이스트학생복,,heist school uniform,Shops and Service,Clothing Store,126.54629559999988,37.493768699999805,대한민국,KOR,KOR,인천광역시,중구,,중산동,,운중로,116-19,1475-8,2022-05-01 12:37:48,"쇼핑,편의||패션||유니폼,단체복||교복||교복-일반",False
61721,61722,27221608,헤지스 LF스퀘어 인천점,,Hedges LF Square Incheon,Shops and Service,Clothing Store,126.66902787802488,37.41864372149574,대한민국,KOR,KOR,인천광역시,연수구,,청학동,,청능대로23번길,11,455,2022-05-01 12:37:48,"쇼핑,편의||패션||캐주얼웨어||프랜차이즈||해지스",False
61854,61855,27184731,SI 2001아울렛 부평점,,SI 2001 Outlet Bupyeong,Shops and Service,Clothing Store,126.7101716981909,37.49053941619598,대한민국,KOR,KOR,인천광역시,부평구,,산곡동,,경원대로,1277,311-151,2022-05-01 12:37:48,"쇼핑,편의||패션||캐주얼웨어||프랜차이즈||SI",False
61894,61895,27021318,어뉴골프 롯데백화점인천점,,Anew Golf Lotte Department Store Incheon,Shops and Service,Clothing Store,126.70137839999988,37.44248529999977,대한민국,KOR,KOR,인천광역시,미추홀구,,관교동,,연남로,35,15,2022-05-01 12:37:48,"쇼핑,편의||패션||스포츠의류||골프웨어||골프웨어-일반",False
62753,62754,27267086,인디고뱅크 뉴코아아울렛 인천점,,Indigo Bank New Core Outlet Incheon Branch,Shops and Service,Clothing Store,126.70070404689888,37.444027311420164,대한민국,KOR,KOR,인천광역시,남동구,,구월동,,인하로,485,1465-1,2022-05-13 10:36:55,"쇼핑,편의||패션||캐주얼웨어||캐주얼웨어-일반",False
62791,62792,27218134,올리브데올리브 뉴코아아울렛 인천점,,Olive the Olive New Core Outlet Incheon Branch,Shops and Service,Clothing Store,126.70070404689888,37.444027311420164,대한민국,KOR,KOR,인천광역시,남동구,,구월동,,인하로,485,1465-1,2022-05-01 12:37:48,"쇼핑,편의||패션||캐주얼웨어||프랜차이즈||올리브데올리브",False
63421,63422,27083887,KY중고명품,,KY used luxury goods,Shops and Service,Clothing Store,126.65026301172688,37.532108867307485,대한민국,KOR,KOR,인천광역시,서구,,청라동,,중봉대로,588,162-14,2022-09-06 15:18:26,"쇼핑,편의||패션||종합패션||종합패션-일반",False
63458,63459,5721090,다온명품구제,다온구제,Daon Luxury Goods Relief,Shops and Service,Clothing Store,126.70670516064088,37.47074628911746,대한민국,KOR,KOR,인천광역시,부평구,,십정동,,동암남로27번길,4,509-1,2022-05-01 12:37:48,"쇼핑,편의||패션||구제의류",False
64300,64301,3677562,코오롱스포츠 인천구월점,KOLONSPORT 인천구월점,Kolon Sports Incheon Guwol Branch,Shops and Service,Clothing Store,126.6925647618969,37.45080037740287,대한민국,KOR,KOR,인천광역시,미추홀구,,주안동,,인주대로503번길,3,1562-8,2022-05-01 12:37:48,"쇼핑,편의||패션||스포츠의류||등산,아웃도어||코오롱스포츠",False
64867,64868,27048140,콜핑 롯데마트 부평역점,,Kolping Lotte Mart Bupyeong Station Branch,Shops and Service,Clothing Store,126.7040905721839,37.505025880091594,대한민국,KOR,KOR,인천광역시,부평구,,산곡동,,마장로,296,159-52,2022-05-01 12:37:48,"쇼핑,편의||패션||스포츠의류||등산,아웃도어||콜핑",False
65042,65043,27069165,콜핑 홈플러스작전점,,Kolping Homeplus Operation Branch,Shops and Service,Clothing Store,126.72125499999991,37.526199599999806,대한민국,KOR,KOR,인천광역시,계양구,,작전동,,계양대로,27,448-7,2022-06-07 17:23:36,"쇼핑,편의||패션||스포츠의류||등산,아웃도어||콜핑",False
65461,65462,27219256,웨스트우드 2001아울렛 부평점,,Westwood 2001 Outlet Bupyeong,Shops and Service,Clothing Store,126.7103765983209,37.4905866166602,대한민국,KOR,KOR,인천광역시,부평구,,산곡동,,경원대로,1277,311-151,2022-05-01 12:37:48,"쇼핑,편의||패션||스포츠의류||등산,아웃도어||웨스트우드",False
65602,65603,1872037,블랙야크 인천계산점,,Black Yak Incheon Gyesan Branch,Shops and Service,Clothing Store,126.72876869999996,37.54366839999983,대한민국,KOR,KOR,인천광역시,계양구,,계산동,,경명대로,1095,919,2022-08-18 12:00:50,"쇼핑,편의||패션||스포츠의류||등산,아웃도어||블랙야크",False
65814,65815,27219357,샤트렌 뉴코아아울렛 인천점,,Chatren New Core Outlet Incheon Branch,Shops and Service,Clothing Store,126.70070404689888,37.444027311420164,대한민국,KOR,KOR,인천광역시,남동구,,구월동,,인하로,485,1465-1,2022-05-01 12:37:48,"쇼핑,편의||패션||캐주얼웨어||프랜차이즈||샤트렌",False
65816,65817,27501292,샤론의류,,Sharon Clothing,Shops and Service,Clothing Store,126.73356007262296,37.446952850110186,대한민국,KOR,KOR,인천광역시,남동구,,만수동,,장승로,1,1075-7,2022-09-06 15:18:26,"쇼핑,편의||패션||보세의류||보세의류-일반",False
66054,66055,27215274,마모트 인천모다점,,Marmot Incheon Moda Branch,Shops and Service,Clothing Store,126.64776761073487,37.510303193855584,대한민국,KOR,KOR,인천광역시,서구,,원창동,,북항로32번안길,50,381-69,2022-05-01 12:37:48,"쇼핑,편의||패션||스포츠의류||등산,아웃도어||등산,아웃도어-일반",False
66262,66263,3131652,협성의류,,Hyeop Garment,Shops and Service,Clothing Store,126.65892457251437,37.603182447119146,대한민국,KOR,KOR,인천광역시,서구,,마전동,,검단로487번길,10,933-5,2022-05-01 12:37:48,"쇼핑,편의||패션||유니폼,단체복||유니폼,단체복-일반",False
66539,66540,3677312,레드페이스 홈플러스간석점,REDFACE홈플러스인천간석점,Red Face Homeplus Ganseok,Shops and Service,Clothing Store,126.68951325999988,37.469766439999766,대한민국,KOR,KOR,인천광역시,남동구,,간석동,,경원대로,971,616-3,2022-05-01 12:37:48,"쇼핑,편의||패션||스포츠의류||등산,아웃도어||레드페이스",False
66620,66621,1869684,아이니학생복 서인천점,INY학생복서인천점,Aini school uniform Seoincheon Branch,Shops and Service,Clothing Store,126.67069682675265,37.52720034818282,대한민국,KOR,KOR,인천광역시,서구,,가정동,,봉오재3로,100,618-2,2022-08-12 13:15:03,"쇼핑,편의||패션||유니폼,단체복||교복||교복-일반",False
66944,66945,5708356,조이너스 부평아이즈빌점,Joinus아이즈빌점,Joiners Bupyeong Eyesville Branch,Shops and Service,Clothing Store,126.70308550036988,37.52171080124318,대한민국,KOR,KOR,인천광역시,부평구,,청천동,,마장로,489,386,2022-08-16 16:52:33,"쇼핑,편의||패션||정장||프랜차이즈||조이너스",False
67318,67319,27202160,머렐 연수브이플러스점,,Merrell Yeonsu V Plus,Shops and Service,Clothing Store,126.66902787802488,37.41864372149574,대한민국,KOR,KOR,인천광역시,연수구,,청학동,,청능대로23번길,11,455,2022-05-01 12:37:48,"쇼핑,편의||패션||스포츠의류||등산,아웃도어||머렐",False
67435,67436,27215694,캘빈클라인진 부평아이즈빌,,Calvin Klein Jeans Bupyeong Eyesville,Shops and Service,Clothing Store,126.70383262721988,37.5218299274687,대한민국,KOR,KOR,인천광역시,부평구,,청천동,,마장로,489,386,2022-05-01 12:37:48,"쇼핑,편의||패션||캐주얼웨어||프랜차이즈||캘빈클라인진",False
67509,67510,27021513,폴로랄프로렌 롯데백화점인천점,,Polo Ralph Lauren Lotte Department Store Incheon,Shops and Service,Clothing Store,126.70128741999989,37.442812409999775,대한민국,KOR,KOR,인천광역시,미추홀구,,관교동,,연남로,35,15,2022-05-01 12:37:48,"쇼핑,편의||패션||종합패션||프랜차이즈||폴로",False
68137,68138,27021501,라코스테 롯데백화점인천점,,Lacoste Lotte Department Store Incheon,Shops and Service,Clothing Store,126.70110791999988,37.44263733999976,대한민국,KOR,KOR,인천광역시,미추홀구,,관교동,,연남로,35,15,2022-05-01 12:37:48,"쇼핑,편의||패션||캐주얼웨어||프랜차이즈||라코스테",False
68164,68165,5455224,TG패션 신흥점,티지패션 신흥점,TG Fashion Shinheung Store,Shops and Service,Clothing Store,126.63418448702184,37.464651297589256,대한민국,KOR,KOR,인천광역시,중구,,신흥동3가,,인중로,75,7-228,2022-08-12 13:15:03,"쇼핑,편의||패션||정장||정장-일반",False
68635,68636,4342829,스카이학생복,,sky school uniform,Shops and Service,Clothing Store,126.72778449307692,37.53404955880202,대한민국,KOR,KOR,인천광역시,계양구,,작전동,,주부토로,447,859-4,2022-08-12 13:15:03,"쇼핑,편의||패션||유니폼,단체복||교복||교복-일반",False
68647,68648,27173347,잠뱅이 뉴코아아울렛 인천논현점,,Jambangi New Core Outlet Incheon Nonhyeon Branch,Shops and Service,Clothing Store,126.72561972539592,37.40045962519866,대한민국,KOR,KOR,인천광역시,남동구,,논현동,,청능대로,596,650-1,2022-05-01 12:37:48,"쇼핑,편의||패션||캐주얼웨어||캐주얼웨어-일반",False
68693,68694,27021522,리 롯데백화점인천점,,Lee Lotte Department Store Incheon,Shops and Service,Clothing Store,126.70137839999988,37.44248529999977,대한민국,KOR,KOR,인천광역시,미추홀구,,관교동,,연남로,35,15,2022-05-01 12:37:48,"쇼핑,편의||패션||캐주얼웨어||캐주얼웨어-일반",False
69224,69225,27021583,듀퐁 롯데백화점인천점,,Dupont Lotte Department Store Incheon,Shops and Service,Clothing Store,126.70156149999993,37.44222959999977,대한민국,KOR,KOR,인천광역시,미추홀구,,관교동,,연남로,35,15,2022-05-01 12:37:48,"쇼핑,편의||패션||정장||셔츠",False
69577,69578,20203091,신생프리티학생복,신생학생복,new pretty school uniform,Shops and Service,Clothing Store,126.64168570848892,37.46820261924689,대한민국,KOR,KOR,인천광역시,중구,,도원동,,샛골로,59,12-91,2022-08-24 14:41:06,"쇼핑,편의||패션||유니폼,단체복||교복||교복-일반",False
69611,69612,27037189,민들레구제,,Dandelion Remedies,Shops and Service,Clothing Store,126.66528905362996,37.442682418893895,대한민국,KOR,KOR,인천광역시,미추홀구,,학익동,,소성로,147,635-17,2022-05-01 12:37:48,"쇼핑,편의||패션||구제의류",False
69713,69714,27021418,카운테스마라 롯데백화점인천점,,Countesmara Lotte Department Store Incheon,Shops and Service,Clothing Store,126.70156149999993,37.44222959999977,대한민국,KOR,KOR,인천광역시,미추홀구,,관교동,,연남로,35,15,2022-05-01 12:37:48,"쇼핑,편의||패션||정장||셔츠",False
69949,69950,2595149,레드롤리팝 구월점,,Red Lollipop Guwol,Shops and Service,Clothing Store,126.7206212017729,37.453589428778365,대한민국,KOR,KOR,인천광역시,남동구,,구월동,,호구포로800번길,28,1267,2022-08-24 14:41:06,"쇼핑,편의||패션||보세의류||보세의류-일반",False
70381,70382,4005562,몽벨 LF스퀘어연수점,MONTBELL인천연수점,Montbell LF Square Yeonsu Branch,Shops and Service,Clothing Store,126.66871087873288,37.41870132193375,대한민국,KOR,KOR,인천광역시,연수구,,청학동,,청능대로23번길,11,455,2020-01-14 23:21:05,"쇼핑,편의||패션||스포츠의류||등산,아웃도어||몽벨",False
70691,70692,3676518,밀레 부평아이즈빌점,MILLET부평아이즈빌,Millet Bupyeong Eyesville Branch,Shops and Service,Clothing Store,126.7035533075729,37.52178917291929,대한민국,KOR,KOR,인천광역시,부평구,,청천동,,마장로,489,386,2022-08-16 16:52:33,"쇼핑,편의||패션||스포츠의류||등산,아웃도어||밀레",False
71096,71097,3649452,미쏘 뉴코아아울렛 인천점,missha뉴코아아울렛인천구월미샤점,Misso New Core Outlet Incheon Branch,Shops and Service,Clothing Store,126.70067444719892,37.44399781188087,대한민국,KOR,KOR,인천광역시,남동구,,구월동,,인하로,485,1465-1,2022-05-01 12:37:48,"쇼핑,편의||패션||캐주얼웨어||프랜차이즈||미쏘",False
71518,71519,27021659,잭니클라우스 롯데백화점인천점,,Jack Nicklaus Lotte Department Store Incheon,Shops and Service,Clothing Store,126.70130726999987,37.44234420999976,대한민국,KOR,KOR,인천광역시,미추홀구,,관교동,,연남로,35,15,2022-05-01 12:37:48,"쇼핑,편의||패션||스포츠의류||골프웨어||골프웨어-일반",False
71537,71538,6212215,그린조이 인천송림점,GREENJOY 인천송림점,Green Joy Incheon Songrim Branch,Shops and Service,Clothing Store,126.64785340215384,37.482110413365575,대한민국,KOR,KOR,인천광역시,동구,,송림동,,송미로,17-8,11-113,2020-01-14 23:36:43,"쇼핑,편의||패션||스포츠의류||골프웨어||골프웨어-일반",False
71684,71685,27232091,하이스쿨학생복,,high school uniform,Shops and Service,Clothing Store,126.67980269722992,37.491228919826085,대한민국,KOR,KOR,인천광역시,서구,,가좌동,,원적로47번길,5,260-4,2022-08-16 16:52:33,"쇼핑,편의||패션||유니폼,단체복||교복||교복-일반",False
71813,71814,27198498,지센 홈플러스간석점,,Jisen Homeplus Ganseok Branch,Shops and Service,Clothing Store,126.68836199999988,37.46956979999977,대한민국,KOR,KOR,인천광역시,남동구,,간석동,,경원대로,971,616-3,2022-05-01 12:37:48,"쇼핑,편의||패션||캐주얼웨어||프랜차이즈||지센",False
71824,71825,27194987,닉스 LF스퀘어연수점,,Knicks LF Square Yeonsu Branch,Shops and Service,Clothing Store,126.66831000035984,37.419288301420366,대한민국,KOR,KOR,인천광역시,연수구,,청학동,,용담로,14,455,2022-05-01 12:37:48,"쇼핑,편의||패션||캐주얼웨어||프랜차이즈||닉스",False
71932,71933,20761201,다락방의류,,attic clothing,Shops and Service,Clothing Store,126.48477876569068,37.746902379054525,대한민국,KOR,KOR,인천광역시,강화군,,강화읍,신문리,강화대로,421,139-1,2022-05-18 1:20:07,"쇼핑,편의||패션||보세의류||보세의류-일반",False
72208,72209,26996943,엔데일리 인천모래내점,,N Daily  Incheon Sandnae Store,Shops and Service,Clothing Store,126.72007550905693,37.452320118916575,대한민국,KOR,KOR,인천광역시,남동구,,구월동,,구월남로,273,1271-26,2022-05-01 12:37:48,"쇼핑,편의||패션||구제의류",False
72241,72242,27227797,보스트로 홈플러스 작전점,,Vostro Homeplus Operation Branch,Shops and Service,Clothing Store,126.65083629999984,37.44706699999976,대한민국,KOR,KOR,인천광역시,미추홀구,,용현동,,소성로,6,648,2022-05-01 12:37:48,"쇼핑,편의||패션||정장||프랜차이즈||파크랜드",False
72808,72809,4323429,노스페이스 인천송도점,THENORTHFACE인천송도점,North Face Incheon Songdo Branch,Shops and Service,Clothing Store,126.64092589999996,37.40259689999977,대한민국,KOR,KOR,인천광역시,연수구,,송도동,,아트센터대로,87,17-1,2022-08-16 16:52:33,"쇼핑,편의||패션||스포츠의류||등산,아웃도어||노스페이스",False
73004,73005,27021497,피엘라벤 롯데백화점인천점,,Fjällraven Lotte Department Store Incheon,Shops and Service,Clothing Store,126.70156122999988,37.44227621999977,대한민국,KOR,KOR,인천광역시,미추홀구,,관교동,,연남로,35,15,2022-05-01 12:37:48,"쇼핑,편의||패션||스포츠의류||등산,아웃도어||등산,아웃도어-일반",False
73401,73402,3121699,올리비아로렌논현점,,Olivia Lauren Nonhyeon,Shops and Service,Clothing Store,126.72423508157192,37.402647164119344,대한민국,KOR,KOR,인천광역시,남동구,,논현동,,논고개로136번길,6-14,613-5,2022-08-24 14:41:06,"쇼핑,편의||패션||캐주얼웨어||프랜차이즈||올리비아로렌",False
73913,73914,27021415,베네통 롯데백화점인천점,,Benetton Lotte Department Store Incheon,Shops and Service,Clothing Store,126.70129459999988,37.44242710999976,대한민국,KOR,KOR,인천광역시,미추홀구,,관교동,,연남로,35,15,2022-05-01 12:37:48,"쇼핑,편의||패션||캐주얼웨어||프랜차이즈||베네통",False
74206,74207,2605319,아이니학생복 동인천점,,Aini school uniform Dongincheon Branch,Shops and Service,Clothing Store,126.63522499945992,37.473483300222085,대한민국,KOR,KOR,인천광역시,동구,,금곡동,,화도진로7번길,20-1,1-48,2022-08-04 10:04:43,"쇼핑,편의||패션||유니폼,단체복||교복||교복-일반",False
74322,74323,27219351,NIX 뉴코아아울렛 인천점,,NIX New Core Outlet Incheon Branch,Shops and Service,Clothing Store,126.70070404689888,37.444027311420164,대한민국,KOR,KOR,인천광역시,남동구,,구월동,,인하로,485,1465-1,2022-05-01 12:37:48,"쇼핑,편의||패션||캐주얼웨어||프랜차이즈||닉스",False
74429,74430,27021571,코오롱스포츠 롯데백화점 인천점,,Kolon Sports Lotte Department Store Incheon Branch,Shops and Service,Clothing Store,126.7013183299999,37.44252300999977,대한민국,KOR,KOR,인천광역시,미추홀구,,관교동,,연남로,35,15,2022-09-06 15:18:26,"쇼핑,편의||패션||스포츠의류||등산,아웃도어||코오롱스포츠",False
74546,74547,2605340,로엠 부평점,Roem부평점,Roem Bupyeong,Shops and Service,Clothing Store,126.72380630603992,37.4942180202958,대한민국,KOR,KOR,인천광역시,부평구,,부평동,,부평문화로,67-1,211-139,2022-08-12 13:15:03,"쇼핑,편의||패션||캐주얼웨어||프랜차이즈||로엠",False
74725,74726,3677311,레드페이스홈플러스인천가좌점,REDFACE홈플러스인천가좌점,Red Face Homeplus Incheon Gajwa,Shops and Service,Clothing Store,126.6707323682579,37.497647674212686,대한민국,KOR,KOR,인천광역시,서구,,가좌동,,가정로151번길,11,118,2022-05-01 12:37:48,"쇼핑,편의||패션||스포츠의류||등산,아웃도어||레드페이스",False
74732,74733,27222702,GU샵 2001아울렛 부평점,,GU Shop 2001 Outlet Bupyeong,Shops and Service,Clothing Store,126.71047909849288,37.490705515924496,대한민국,KOR,KOR,인천광역시,부평구,,산곡동,,경원대로,1277,311-151,2022-05-01 12:37:48,"쇼핑,편의||패션||캐주얼웨어||프랜차이즈||GU샵",False
74799,74800,27189193,더 유에스 부평점,,The US Bupyeong,Shops and Service,Clothing Store,126.72445955396591,37.49396010194808,대한민국,KOR,KOR,인천광역시,부평구,,부평동,,부평문화로,74,201-37,2022-05-01 12:37:48,"쇼핑,편의||패션||종합패션||종합패션-일반",False
74863,74864,5722184,소풍구제샵,소풍구제샾,picnic relief shop,Shops and Service,Clothing Store,126.6750737917289,37.51942051333079,대한민국,KOR,KOR,인천광역시,서구,,가정동,,석곶로22번길,11,500-23,2022-05-01 12:37:48,"쇼핑,편의||패션||구제의류",False
74888,74889,27021744,데상트골프 롯데백화점인천점,,Descente Golf Lotte Department Store Incheon Branch,Shops and Service,Clothing Store,126.70156043999988,37.44221281999977,대한민국,KOR,KOR,인천광역시,미추홀구,,관교동,,연남로,35,15,2022-05-01 12:37:48,"쇼핑,편의||패션||스포츠의류||골프웨어||골프웨어-일반",False
75045,75046,5692610,구제백화점,,old department store,Shops and Service,Clothing Store,126.65646947850892,37.45544538633727,대한민국,KOR,KOR,인천광역시,미추홀구,,용현동,,인주대로174번길,4,141-29,2019-11-14 23:05:38,"쇼핑,편의||패션||구제의류",False
75594,75595,4336382,루이까스텔 홈플러스 송도,,Louis Castel Homeplus Songdo,Shops and Service,Clothing Store,126.65634559999997,37.38023189999976,대한민국,KOR,KOR,인천광역시,연수구,,송도동,,송도국제대로,165,168-3,2022-05-01 12:37:48,"쇼핑,편의||패션||스포츠의류||골프웨어||루이까스텔",False
75676,75677,27145136,왕도매구제오빠,,King's wholesale brother,Shops and Service,Clothing Store,126.68146479374776,37.45070187571196,대한민국,KOR,KOR,인천광역시,미추홀구,,주안동,,미추홀대로598번길,29,1468-12,2022-08-30 9:43:30,"쇼핑,편의||패션||구제의류",False
75714,75715,4321494,지센 인천학익상설점,Zishen인천학익상설점,Jisen Incheon Hakik Permanent Store,Shops and Service,Clothing Store,126.66177010336288,37.444350247320976,대한민국,KOR,KOR,인천광역시,미추홀구,,학익동,,소성로,107,423-3,2022-08-16 16:52:33,"쇼핑,편의||패션||캐주얼웨어||프랜차이즈||지센",False
76057,76058,27021468,입생로랑 롯데백화점인천점,,Yves Saint Laurent Lotte Department Store Incheon,Shops and Service,Clothing Store,126.70151859999989,37.44250619999977,대한민국,KOR,KOR,인천광역시,미추홀구,,관교동,,연남로,35,15,2022-05-01 12:37:48,"쇼핑,편의||패션||종합패션||프랜차이즈||입생로랑",False
76621,76622,27021420,듀베티카 롯데백화점 인천점,,Duvetica Lotte Department Store Incheon Branch,Shops and Service,Clothing Store,126.70146419999992,37.44240439999977,대한민국,KOR,KOR,인천광역시,미추홀구,,관교동,,연남로,35,15,2022-05-01 12:37:48,"쇼핑,편의||패션||수입의류||수입의류-일반",False
77428,77429,27021396,파라점퍼스 롯데백화점인천점,,Para Jumpers Lotte Department Store Incheon,Shops and Service,Clothing Store,126.70137839999988,37.44248529999977,대한민국,KOR,KOR,인천광역시,미추홀구,,관교동,,연남로,35,15,2022-05-01 12:37:48,"쇼핑,편의||패션||수입의류||프랜차이즈||파라점퍼스",False
77671,77672,5702771,미리내명품구제,미리내구제,Miri My Luxury Goods Rescue,Shops and Service,Clothing Store,126.67482028476488,37.51834981783319,대한민국,KOR,KOR,인천광역시,서구,,가정동,,원창로229번길,9,506-42,2021-12-23 15:49:18,"쇼핑,편의||패션||구제의류",False
77966,77967,26977776,팜스프링스골프 인천학익점,,Palm Springs Golf Incheon Hakik Branch,Shops and Service,Clothing Store,126.6613816523959,37.44451442711296,대한민국,KOR,KOR,인천광역시,미추홀구,,학익동,,소성로,107,423-3,2022-05-01 12:37:48,"쇼핑,편의||패션||스포츠의류||골프웨어||골프웨어-일반",False
78195,78196,27120918,잠뱅이 동인천점,,Jambangi Dongincheon Branch,Shops and Service,Clothing Store,126.63139412504684,37.476097593881455,대한민국,KOR,KOR,인천광역시,중구,,인현동,,참외전로,117-15,1-1,2022-08-16 16:52:33,"쇼핑,편의||패션||캐주얼웨어||캐주얼웨어-일반",False
78213,78214,27100719,패션153,,fashion 153,Shops and Service,Clothing Store,126.64573126005288,37.42227093928816,대한민국,KOR,KOR,인천광역시,연수구,,옥련동,,한나루로,71,462-44,2022-08-12 13:15:03,"쇼핑,편의||패션||종합패션||종합패션-일반",False
78355,78356,3674955,블랙야크 인천만수점,BLACKYAK인천만수점,Black Yak Incheon Bay,Shops and Service,Clothing Store,126.72976325745894,37.457019732034965,대한민국,KOR,KOR,인천광역시,남동구,,만수동,,백범로161번길,4,882-2,2022-08-16 16:52:33,"쇼핑,편의||패션||스포츠의류||등산,아웃도어||블랙야크",False
78582,78583,27173505,SAP 뉴코아아울렛 인천논현점,,SAP New Core Outlet Incheon Nonhyeon Branch,Shops and Service,Clothing Store,126.7256980256979,37.400619924806456,대한민국,KOR,KOR,인천광역시,남동구,,논현동,,청능대로,596,650-1,2022-05-01 12:37:48,"쇼핑,편의||패션||정장||정장-일반",False
78693,78694,27021325,캘빈클라인진 롯데백화점인천점,,Calvin Klein Gene Lotte Department Store Incheon,Shops and Service,Clothing Store,126.70150762999988,37.442047869999776,대한민국,KOR,KOR,인천광역시,미추홀구,,관교동,,연남로,35,15,2022-05-01 12:37:48,"쇼핑,편의||패션||캐주얼웨어||프랜차이즈||캘빈클라인진",False
79224,79225,1009128,세원의류전시판매장,세원의류판매장,Sewon Clothing Exhibition Center,Shops and Service,Clothing Store,126.69921128199988,37.406055731035245,대한민국,KOR,KOR,인천광역시,남동구,,논현동,,남동대로,242,444-5,2019-11-14 23:29:13,"쇼핑,편의||패션||캐주얼웨어||캐주얼웨어-일반",False
79388,79389,26875903,명품구제샵,,luxury goods shop,Shops and Service,Clothing Store,126.72697662349697,37.54416893775701,대한민국,KOR,KOR,인천광역시,계양구,,계산동,,경명대로1079번길,8,921-12,2022-05-01 12:37:48,"쇼핑,편의||패션||구제의류",False
79458,79459,27216632,지프 뉴코아아울렛 인천점,,Jeep New Core Outlet Incheon Branch,Shops and Service,Clothing Store,126.70070404689888,37.444027311420164,대한민국,KOR,KOR,인천광역시,남동구,,구월동,,인하로,485,1465-1,2022-05-01 12:37:48,"쇼핑,편의||패션||캐주얼웨어||캐주얼웨어-일반",False
79872,79873,27184800,힐크릭 부평아이즈빌점,,Hill Creek Bupyeong Eyesville Branch,Shops and Service,Clothing Store,126.70383262721988,37.5218299274687,대한민국,KOR,KOR,인천광역시,부평구,,청천동,,마장로,489,386,2022-08-12 13:15:03,"쇼핑,편의||패션||스포츠의류||골프웨어||힐크릭",False
80346,80347,4339213,스쿨룩스 인천옥련점,,Schoollux Incheon Okryeon,Shops and Service,Clothing Store,126.64371799999996,37.42609829999978,대한민국,KOR,KOR,인천광역시,연수구,,옥련동,,능허대로79번길,65,635-1,2022-05-01 12:37:48,"쇼핑,편의||패션||유니폼,단체복||교복||스쿨룩스",False
80713,80714,27069443,앤듀 2001아울렛 부평점,,Andew 2001 Outlet Bupyeong Branch,Shops and Service,Clothing Store,126.7100056497449,37.490787459492566,대한민국,KOR,KOR,인천광역시,부평구,,산곡동,,경원대로,1277,311-151,2022-05-01 12:37:48,"쇼핑,편의||패션||캐주얼웨어||프랜차이즈||앤듀",False
81041,81042,5711441,와글와글의류판매점,,Noisy clothing store,Shops and Service,Clothing Store,126.6747245160179,37.41794134385095,대한민국,KOR,KOR,인천광역시,연수구,,청학동,,청명로17번길,13,489,2021-12-23 15:49:18,"쇼핑,편의||패션||구제의류",False
81051,81052,27185002,스쿨룩스 부평점,,Schoollux Bupyeong,Shops and Service,Clothing Store,126.73354622029493,37.50727457899712,대한민국,KOR,KOR,인천광역시,부평구,,삼산동,,길주로,639,464-3,2022-08-12 13:15:03,"쇼핑,편의||패션||유니폼,단체복||교복||스쿨룩스",False
81292,81293,5660443,고이비토 인천점,Koibito인천점,Koibito Incheon Branch,Shops and Service,Clothing Store,126.70475629999996,37.449679899999786,대한민국,KOR,KOR,인천광역시,남동구,,구월동,,인주대로612번길,2,201-68,2022-08-30 9:43:30,"쇼핑,편의||패션||종합패션||프랜차이즈||고이비토",False
81373,81374,20201160,글로벌구제,,global relief,Shops and Service,Clothing Store,126.67020208557292,37.50218354117841,대한민국,KOR,KOR,인천광역시,서구,,석남동,,건지로249번길,32-3,584-46,2021-12-23 15:49:18,"쇼핑,편의||패션||보세의류||보세의류-일반",False
81464,81465,27140042,트루젠 LF스퀘어인천점,,Trugen LF Square Incheon,Shops and Service,Clothing Store,126.66831000035984,37.419288301420366,대한민국,KOR,KOR,인천광역시,연수구,,청학동,,용담로,14,455,2022-05-01 12:37:48,"쇼핑,편의||패션||정장||프랜차이즈||트루젠",False
81903,81904,3675011,레드페이스이마트계양점,REDFACE이마트계양점,Red Face E-Mart Gyeyang,Shops and Service,Clothing Store,126.73687099999997,37.53103259999982,대한민국,KOR,KOR,인천광역시,계양구,,작전동,,봉오대로,785,911-1,2021-12-23 15:49:18,"쇼핑,편의||패션||스포츠의류||등산,아웃도어||레드페이스",False
81929,81930,27021303,아크테릭스 롯데백화점 인천터미널점,,Arc'teryx Lotte Department Store Incheon Terminal,Shops and Service,Clothing Store,126.70137839999988,37.44248529999977,대한민국,KOR,KOR,인천광역시,미추홀구,,관교동,,연남로,35,15,2022-07-19 20:20:05,"쇼핑,편의||패션||스포츠의류||등산,아웃도어||등산,아웃도어-일반",False
82082,82083,26879463,라인의류,,line clothing,Shops and Service,Clothing Store,126.66553881851212,37.599527637120175,대한민국,KOR,KOR,인천광역시,서구,,마전동,,검단로540번길,59,999-1,2022-07-05 16:31:26,"쇼핑,편의||패션||보세의류||보세의류-일반",False
82345,82346,27234484,지오지아 뉴코아 인천점,,Geogeia New Core Incheon Branch,Shops and Service,Clothing Store,126.70070699999988,37.444021599999765,대한민국,KOR,KOR,인천광역시,남동구,,구월동,,인하로,485,1465-1,2022-05-01 12:37:48,"쇼핑,편의||패션||캐주얼웨어||프랜차이즈||지오지아",False
82553,82554,27209851,예츠 LF스퀘어연수점,,Yeats LF Square Yeonsu Branch,Shops and Service,Clothing Store,126.6683100003699,37.41928830051907,대한민국,KOR,KOR,인천광역시,연수구,,청학동,,용담로,14,455,2022-05-01 12:37:48,"쇼핑,편의||패션||캐주얼웨어||캐주얼웨어-일반",False
83012,83013,27219223,에드윈 2001아울렛 부평점,,Edwin 2001 Outlet Bupyeong,Shops and Service,Clothing Store,126.71046469854991,37.49053991639052,대한민국,KOR,KOR,인천광역시,부평구,,산곡동,,경원대로,1277,311-151,2022-05-01 12:37:48,"쇼핑,편의||패션||캐주얼웨어||캐주얼웨어-일반",False
83045,83046,27036949,구제나라,,old country,Shops and Service,Clothing Store,126.65055668904392,37.46474108563709,대한민국,KOR,KOR,인천광역시,미추홀구,,숭의동,,경인로70번길,10-3,195-4,2022-05-01 12:37:48,"쇼핑,편의||패션||구제의류",False
83048,83049,27021489,디아도라 롯데백화점 인천점,,Diadora Lotte Department Store Incheon Branch,Shops and Service,Clothing Store,126.70137839999988,37.44248529999977,대한민국,KOR,KOR,인천광역시,미추홀구,,관교동,,연남로,35,15,2022-05-01 12:37:48,"쇼핑,편의||패션||스포츠의류||스포츠의류-일반",False
83192,83193,27021492,타미힐피거 롯데백화점인천점,,Tommy Hilfiger Lotte Department Store Incheon,Shops and Service,Clothing Store,126.70156149999993,37.44222959999977,대한민국,KOR,KOR,인천광역시,미추홀구,,관교동,,연남로,35,15,2022-05-01 12:37:48,"쇼핑,편의||패션||캐주얼웨어||프랜차이즈||Tommy",False
83210,83211,27220908,몽벨 모다인천점,,Montbell Moda Incheon,Shops and Service,Clothing Store,126.64772471015787,37.509934893689376,대한민국,KOR,KOR,인천광역시,서구,,원창동,,북항로32번안길,50,381-69,2022-05-01 12:37:48,"쇼핑,편의||패션||스포츠의류||등산,아웃도어||몽벨",False
83219,83220,4336915,에띠임부평센터,,Etti Imbupyung Center,Shops and Service,Clothing Store,126.72289548901291,37.53418056186259,대한민국,KOR,KOR,인천광역시,계양구,,작전동,,계양대로,118,854,2019-12-09 10:50:24,"쇼핑,편의||패션||임부복||임부복-일반",False
83280,83281,27208222,베스띠벨리 2001 부평,,Besti Valley 2001 Bupyeong,Shops and Service,Clothing Store,126.71000564973788,37.490787459482384,대한민국,KOR,KOR,인천광역시,부평구,,산곡동,,경원대로,1277,311-151,2022-05-01 12:37:48,"쇼핑,편의||패션||정장||프랜차이즈||베스띠벨리",False
83420,83421,3125756,스카이학생복 산곡점,,Sky School Uniform Sangok Branch,Shops and Service,Clothing Store,126.70313892338388,37.506782949576696,대한민국,KOR,KOR,인천광역시,부평구,,산곡동,,마장로,321,88-5,2022-05-01 12:37:48,"쇼핑,편의||패션||유니폼,단체복||교복||교복-일반",False
83535,83536,27083481,비지트인뉴욕 뉴코아 인천점,,Visit in New York New Core Incheon Branch,Shops and Service,Clothing Store,126.70075684679388,37.44424741183226,대한민국,KOR,KOR,인천광역시,남동구,,구월동,,인하로,485,1465-1,2022-06-15 11:04:55,"쇼핑,편의||패션||캐주얼웨어||프랜차이즈||비지트인뉴욕",False
83577,83578,2600701,샤트렌 인천송림점,,Chatren Incheon Songrim Branch,Shops and Service,Clothing Store,126.64632499999996,37.4765416999998,대한민국,KOR,KOR,인천광역시,동구,,송림동,,송림로,107-1,50-34,2022-05-01 12:37:48,"쇼핑,편의||패션||캐주얼웨어||프랜차이즈||샤트렌",False
83895,83896,27219361,제인코트&에어워크수영복 뉴코아아울렛 인천점,,Jane Court & Airwork Swimwear New Core Outlet Incheon Branch,Shops and Service,Clothing Store,126.70070404689888,37.444027311420164,대한민국,KOR,KOR,인천광역시,남동구,,구월동,,인하로,485,1465-1,2022-05-01 12:37:48,"쇼핑,편의||패션||스포츠의류||스포츠의류-일반",False
84121,84122,27061441,앤드지 모다아울렛 부평점,,ANDG Moda Outlet Bupyeong Branch,Shops and Service,Clothing Store,126.71958789999988,37.4935506999998,대한민국,KOR,KOR,인천광역시,부평구,,부평동,,부평문화로,35,70-127,2022-05-01 12:37:48,"쇼핑,편의||패션||캐주얼웨어||캐주얼웨어-일반",False
84265,84266,27241343,밸리걸 홈플러스작전점,,Valley Girl Homeplus Operation Branch,Shops and Service,Clothing Store,126.72156249999992,37.526308299999805,대한민국,KOR,KOR,인천광역시,계양구,,작전동,,계양대로,27,448-7,2022-05-01 12:37:48,"쇼핑,편의||패션||종합패션||종합패션-일반",False
84505,84506,27021723,버커루 롯데백화점인천점,,Buckaroo Lotte Department Store Incheon Branch,Shops and Service,Clothing Store,126.70148414999989,37.44189343999977,대한민국,KOR,KOR,인천광역시,미추홀구,,관교동,,연남로,35,15,2022-05-01 12:37:48,"쇼핑,편의||패션||캐주얼웨어||진,청바지",False
85187,85188,27052418,이즈멜본 뉴코아아울렛 인천점,,Izumelbon New Core Outlet Incheon Branch,Shops and Service,Clothing Store,126.70075684679388,37.44424741183226,대한민국,KOR,KOR,인천광역시,남동구,,구월동,,인하로,485,1465-1,2022-05-01 12:37:48,"쇼핑,편의||패션||캐주얼웨어||캐주얼웨어-일반",False
85439,85440,27184818,마인드브릿지 부평아이즈빌점,,Mind Bridge Bupyeong Eyesville Branch,Shops and Service,Clothing Store,126.70381472786188,37.52180032845488,대한민국,KOR,KOR,인천광역시,부평구,,청천동,,마장로,489,386,2022-08-18 12:00:50,"쇼핑,편의||패션||캐주얼웨어||프랜차이즈||마인드브릿지",False
85555,85556,20200732,만물구제짱,,All things savior,Shops and Service,Clothing Store,126.67967511729996,37.469311968375685,대한민국,KOR,KOR,인천광역시,미추홀구,,주안동,,길파로39번길,2,8-8,2021-12-23 15:49:18,"쇼핑,편의||패션||구제의류",False
85774,85775,4321500,마운티아 인천학익점,MOUNTIA인천학익점,Mountia Incheon Hakik Branch,Shops and Service,Clothing Store,126.66100228845508,37.4446829084272,대한민국,KOR,KOR,인천광역시,미추홀구,,학익동,,소성로,107,423-3,2022-08-16 16:52:33,"쇼핑,편의||패션||스포츠의류||등산,아웃도어||마운티아",False
85807,85808,27216633,엠폴햄 뉴코아아울렛 인천점,,Mpolham New Core Outlet Incheon Branch,Shops and Service,Clothing Store,126.70070404689888,37.444027311420164,대한민국,KOR,KOR,인천광역시,남동구,,구월동,,인하로,485,1465-1,2022-05-01 12:37:48,"쇼핑,편의||패션||캐주얼웨어||캐주얼웨어-일반",False
85958,85959,27173527,오마샤리프(셔츠&타이) 뉴코아아울렛 인천논현점,,Omar Sharif (Shirt & Tie) New Core Outlet Incheon Nonhyeon Branch,Shops and Service,Clothing Store,126.72561972539592,37.40045962519866,대한민국,KOR,KOR,인천광역시,남동구,,논현동,,청능대로,596,650-1,2022-05-01 12:37:48,"쇼핑,편의||패션||종합패션||종합패션-일반",False
86477,86478,3673235,베이직하우스동인천점,,Basic House Dongincheon Branch,Shops and Service,Clothing Store,126.63040740032984,37.47431810013387,대한민국,KOR,KOR,인천광역시,중구,,인현동,,,,90-13,2022-08-04 10:04:43,"쇼핑,편의||패션||캐주얼웨어||프랜차이즈||베이직하우스",False
86799,86800,27210275,폴햄 뉴코아아울렛 인천점,,Pollham New Core Outlet Incheon Branch,Shops and Service,Clothing Store,126.70075684679388,37.44424741183226,대한민국,KOR,KOR,인천광역시,남동구,,구월동,,인하로,485,1465-1,2022-05-01 12:37:48,"쇼핑,편의||패션||캐주얼웨어||프랜차이즈||폴햄",False
87369,87370,27552883,캠프라인 알타이기어 부토라 인천구월점,,Campline Altai Gear Butora Incheon Guwol Branch,Shops and Service,Clothing Store,126.69464029999985,37.45071029999976,대한민국,KOR,KOR,인천광역시,남동구,,구월동,,인주대로,521,1119-6,2022-09-06 15:18:26,"쇼핑,편의||패션||스포츠의류||등산,아웃도어||등산,아웃도어-일반",False
87385,87386,27077453,joy패션,,joyfashion,Shops and Service,Clothing Store,126.62588101278284,37.47065038920047,대한민국,KOR,KOR,인천광역시,중구,,신포동,,우현로35번길,16-1,23-18,2022-05-01 12:37:48,"쇼핑,편의||패션||보세의류||보세의류-일반",False
87464,87465,3127083,지센 인천삼산점,zishen삼산점,Jisen Incheon Samsan Branch,Shops and Service,Clothing Store,126.73315149946907,37.51736049256737,대한민국,KOR,KOR,인천광역시,부평구,,삼산동,,평천로,386,426-3,2022-08-12 13:15:03,"쇼핑,편의||패션||캐주얼웨어||프랜차이즈||지센",False
88257,88258,5665151,아이비클럽 부평1호점,아이비클럽학생복부평1호점,ivy club Bupyeong 1st branch,Shops and Service,Clothing Store,126.71229740923988,37.49072282956527,대한민국,KOR,KOR,인천광역시,부평구,,부평동,,경원대로,1290-2,274-7,2019-11-14 23:29:08,"쇼핑,편의||패션||유니폼,단체복||교복||아이비클럽",False
88314,88315,5719645,동인천패션아울렛,,Dongincheon Fashion outlet,Shops and Service,Clothing Store,126.63139029999992,37.47480459999979,대한민국,KOR,KOR,인천광역시,중구,,인현동,,참외전로,130,22-3,2021-12-23 15:49:18,"쇼핑,편의||패션||보세의류||보세의류-일반",False
89099,89100,27184602,게스 부평점,,Gets Bupyeong Branch,Shops and Service,Clothing Store,126.70357070714093,37.5218079723438,대한민국,KOR,KOR,인천광역시,부평구,,청천동,,마장로,489,386,2022-08-18 12:00:50,"쇼핑,편의||패션||캐주얼웨어||프랜차이즈||게스",False
89450,89451,27021637,프라다 롯데백화점 인천점,,Prada Lotte Department Store Incheon Branch,Shops and Service,Clothing Store,126.7014582699999,37.44278642999977,대한민국,KOR,KOR,인천광역시,미추홀구,,관교동,,연남로,35,15,2022-06-13 10:44:13,"쇼핑,편의||패션||종합패션||프랜차이즈||프라다",False
89696,89697,5724815,와이드앵글 인천검단점,WideAngle 인천검단점,Wide Angle Incheon Geomdan Branch,Shops and Service,Clothing Store,126.67289164011093,37.59105996727813,대한민국,KOR,KOR,인천광역시,서구,,당하동,,서곶로,827,1082-7,2022-08-12 13:15:03,"쇼핑,편의||패션||스포츠의류||골프웨어||와이드앵글",False
90051,90052,27220967,안지크 모다아울렛인천점,,Anjiq Moda Outlet Incheon Branch,Shops and Service,Clothing Store,126.64772471015787,37.509934893689376,대한민국,KOR,KOR,인천광역시,서구,,원창동,,북항로32번안길,50,381-69,2022-05-01 12:37:48,"쇼핑,편의||패션||캐주얼웨어||캐주얼웨어-일반",False
90088,90089,27021740,유닛 롯데백화점 인천점,,Unit Lotte Department Store Incheon,Shops and Service,Clothing Store,126.70112395999992,37.44287564999975,대한민국,KOR,KOR,인천광역시,미추홀구,,관교동,,연남로,35,15,2022-05-01 12:37:48,"쇼핑,편의||패션||캐주얼웨어||캐주얼웨어-일반",False
90135,90136,5691963,신나라구제,,new country relief,Shops and Service,Clothing Store,126.66304418929488,37.42762248474036,대한민국,KOR,KOR,인천광역시,연수구,,청학동,,청학로5번길,5,526-6,2021-12-23 15:49:18,"쇼핑,편의||패션||구제의류",False
90306,90307,27021491,MU스포츠 롯데백화점인천점,,MU Sports Lotte Department Store Incheon,Shops and Service,Clothing Store,126.7014851799999,37.442327959999766,대한민국,KOR,KOR,인천광역시,미추홀구,,관교동,,연남로,35,15,2022-05-01 12:37:48,"쇼핑,편의||패션||스포츠의류||골프웨어||엠유스포츠",False
90316,90317,27021518,노스페이스화이트라벨 롯데백화점인천점,,North Face White Label Lotte Department Store Incheon,Shops and Service,Clothing Store,126.70196955999988,37.442287069999765,대한민국,KOR,KOR,인천광역시,미추홀구,,관교동,,연남로,35,15,2022-05-01 12:37:48,"쇼핑,편의||패션||스포츠의류||등산,아웃도어||노스페이스",False
90508,90509,3442452,블랙야크 인천신구월점,BLACKYAK인천구월지점,Black Yak Incheon Singuwol Branch,Shops and Service,Clothing Store,126.69211779961296,37.450130843127184,대한민국,KOR,KOR,인천광역시,미추홀구,,주안동,,인주대로,498,1563-6,2022-08-18 12:00:50,"쇼핑,편의||패션||스포츠의류||등산,아웃도어||블랙야크",False
91515,91516,3675692,레드페이스이마트연수점,REDFACE이마트연수점,Red Face E-Mart Yeonsu Branch,Shops and Service,Clothing Store,126.68099299999994,37.404087199999765,대한민국,KOR,KOR,인천광역시,연수구,,동춘동,,경원대로,184,926-9,2022-05-01 12:37:48,"쇼핑,편의||패션||스포츠의류||등산,아웃도어||레드페이스",False
91750,91751,27248555,인터크루 홈플러스 계산점,,Intercrew Homeplus checkout point,Shops and Service,Clothing Store,126.73619499999997,37.53951799999982,대한민국,KOR,KOR,인천광역시,계양구,,계산동,,오조산공원로,14,1061,2022-05-01 12:37:48,"쇼핑,편의||패션||캐주얼웨어||캐주얼웨어-일반",False
92160,92161,26819181,OOTT 롯데백화점인천점,,OOTT Lotte Department Store Incheon Terminal,Shops and Service,Clothing Store,126.7014650623409,37.442364368280074,대한민국,KOR,KOR,인천광역시,미추홀구,,관교동,,연남로,35,15,2022-05-01 12:37:48,"쇼핑,편의||패션||기능성의류",False
92786,92787,27209908,콜핑 홈플러스가좌점,,Kolping Homeplus Gajwa,Shops and Service,Clothing Store,126.67076046757688,37.49767647466748,대한민국,KOR,KOR,인천광역시,서구,,가좌동,,가정로151번길,11,118,2022-05-01 12:37:48,"쇼핑,편의||패션||스포츠의류||등산,아웃도어||콜핑",False
92814,92815,27021343,버버리 롯데백화점인천점,,Burberry Lotte Department Store Incheon,Shops and Service,Clothing Store,126.70085445999987,37.443022169999765,대한민국,KOR,KOR,인천광역시,미추홀구,,관교동,,연남로,35,15,2022-05-01 12:37:48,"쇼핑,편의||패션||종합패션||프랜차이즈||버버리",False
92981,92982,27155044,올젠 모다인천점,,Allgen Moda Incheon,Shops and Service,Clothing Store,126.64776761073487,37.510303193855584,대한민국,KOR,KOR,인천광역시,서구,,원창동,,북항로32번안길,50,381-69,2022-05-01 12:37:48,"쇼핑,편의||패션||캐주얼웨어||프랜차이즈||올젠",False
93075,93076,27215479,세바스챤 인천중구점,,Sebastian Incheon Jung-gu,Shops and Service,Clothing Store,126.63140172499487,37.47611499249719,대한민국,KOR,KOR,인천광역시,중구,,인현동,,참외전로,117-15,1-1,2022-05-01 12:37:48,"쇼핑,편의||패션||스포츠의류||골프웨어||세바스챤",False
93361,93362,5696165,데니스골프 연수점,DennisGOLF연수점,Dennis Golf Yeonsu Branch,Shops and Service,Clothing Store,126.67735080255488,37.41736425122946,대한민국,KOR,KOR,인천광역시,연수구,,청학동,,벚꽃로,106,496-4,2022-08-18 12:00:50,"쇼핑,편의||패션||스포츠의류||골프웨어||골프웨어-일반",False
93577,93578,20184582,명품갤러리,,luxury gallery,Shops and Service,Clothing Store,126.65176692685193,37.4573377065152,대한민국,KOR,KOR,인천광역시,미추홀구,,용현동,,인주대로131번길,18-30,453-201,2021-12-23 15:49:18,"쇼핑,편의||패션||구제의류",False
94095,94096,27021720,보테가베네타 롯데백화점인천점,,Bottega Veneta Lotte Department Store Incheon,Shops and Service,Clothing Store,126.70110938999991,37.44234940999976,대한민국,KOR,KOR,인천광역시,미추홀구,,관교동,,연남로,35,15,2022-05-01 12:37:48,"쇼핑,편의||패션||종합패션||프랜차이즈||보테가베네타",False
94408,94409,27553772,올포유 인천신기점,올포유 인천신기점,All4U Incheon New Kiev,Shops and Service,Clothing Store,126.68002767052096,37.449777385476395,대한민국,KOR,KOR,인천광역시,미추홀구,,주안동,,미추홀대로,588,1466-1,2022-09-06 15:18:26,"쇼핑,편의||패션||캐주얼웨어||프랜차이즈||올포유",False
94533,94534,27021385,아페쎄 롯데백화점인천점(여성),,Apesse Lotte Department Store Incheon (Female),Shops and Service,Clothing Store,126.70137839999988,37.44248529999977,대한민국,KOR,KOR,인천광역시,미추홀구,,관교동,,연남로,35,15,2022-05-01 12:37:48,"쇼핑,편의||패션||캐주얼웨어||프랜차이즈||아페쎄",False
94706,94707,3677313,THEREDFACE 홈플러스인천계산점,THEREDFACE 홈플러스인천계산점,THEREDFACE Homeplus Incheon Gyesan Branch,Shops and Service,Clothing Store,126.73642885999996,37.53931749999982,대한민국,KOR,KOR,인천광역시,계양구,,계산동,,오조산공원로,14,1061,2022-05-01 12:37:48,"쇼핑,편의||패션||스포츠의류||등산,아웃도어||등산,아웃도어-일반",False
94721,94722,27114311,부평중고명품 더루샤,,Bupyeong Used Luxury The Lucia,Shops and Service,Clothing Store,126.7207776144759,37.49143521882,대한민국,KOR,KOR,인천광역시,부평구,,부평동,,경원대로,1367,341-25,2022-08-08 10:29:42,"쇼핑,편의||패션||종합패션||종합패션-일반",False
94924,94925,27021351,닥스 롯데백화점인천점,,DAKS Lotte Department Store Incheon,Shops and Service,Clothing Store,126.70156149999993,37.44222959999977,대한민국,KOR,KOR,인천광역시,미추홀구,,관교동,,연남로,35,15,2022-05-01 12:37:48,"쇼핑,편의||패션||정장||셔츠",False
95106,95107,6215608,명품매니아,,luxury mania,Shops and Service,Clothing Store,126.66193310689287,37.42782276255076,대한민국,KOR,KOR,인천광역시,연수구,,청학동,,비류대로239번길,23,524-10,2022-08-24 14:41:06,"쇼핑,편의||패션||구제의류",False
95334,95335,27021457,앤드지by지오지아 롯데백화점인천점,,ANDG by GeoGia Lotte Department Store Incheon Branch,Shops and Service,Clothing Store,126.7007414799999,37.442921699999765,대한민국,KOR,KOR,인천광역시,미추홀구,,관교동,,연남로,35,15,2022-05-01 12:37:48,"쇼핑,편의||패션||캐주얼웨어||프랜차이즈||지오지아",False
95925,95926,27214164,올리비아하슬러 홈플러스간석점,,Olivia Hasler Homeplus Ganseok,Shops and Service,Clothing Store,126.6885978999999,37.46955779999978,대한민국,KOR,KOR,인천광역시,남동구,,간석동,,경원대로,971,616-3,2022-05-01 12:37:48,"쇼핑,편의||패션||캐주얼웨어||프랜차이즈||올리비아하슬러",False
95957,95958,27215544,베스띠벨리 모다아울렛 인천,,Besti Valley Moda Outlet Incheon,Shops and Service,Clothing Store,126.64776761073487,37.510303193855584,대한민국,KOR,KOR,인천광역시,서구,,원창동,,북항로32번안길,50,381-69,2022-05-01 12:37:48,"쇼핑,편의||패션||정장||프랜차이즈||베스띠벨리",False
96417,96418,4328657,루이까스텔 인천만수점,LOUISCASTEL 만수점,Louis Castel Incheon Bay Point,Shops and Service,Clothing Store,126.73337461362192,37.44684951113879,대한민국,KOR,KOR,인천광역시,남동구,,만수동,,소래로,640,1077,2022-08-16 16:52:33,"쇼핑,편의||패션||스포츠의류||골프웨어||루이까스텔",False
96622,96623,3676829,코오롱스포츠 인천신포점,KOLONSPORT 인천신포점,Kolon Sports Incheon Sinpo Branch,Shops and Service,Clothing Store,126.62749981458684,37.471963204732575,대한민국,KOR,KOR,인천광역시,중구,,내동,,개항로,44,212-16,2022-09-06 15:18:26,"쇼핑,편의||패션||스포츠의류||등산,아웃도어||코오롱스포츠",False
96624,96625,2595395,아이비클럽 인천연수점,아이비클럽학생복연수점,ivy club Incheon Yeonsu Branch,Shops and Service,Clothing Store,126.6705447948844,37.41721677994765,대한민국,KOR,KOR,인천광역시,연수구,,동춘동,,청능대로,38,961,2022-08-30 9:43:30,"쇼핑,편의||패션||유니폼,단체복||교복||아이비클럽",False
96751,96752,27021328,비이커맨 롯데백화점인천점,,Beacomman Lotte Department Store Incheon,Shops and Service,Clothing Store,126.7010306399999,37.44272554999977,대한민국,KOR,KOR,인천광역시,미추홀구,,관교동,,연남로,35,15,2022-05-01 12:37:48,"쇼핑,편의||패션||종합패션||종합패션-일반",False
97209,97210,27052937,지오지아 모다부평점,,Geogeia Modabu Pyeong Branch,Shops and Service,Clothing Store,126.71957439999989,37.4935399999998,대한민국,KOR,KOR,인천광역시,부평구,,부평동,,부평문화로,35,70-127,2022-05-01 12:37:48,"쇼핑,편의||패션||캐주얼웨어||프랜차이즈||지오지아",False
97462,97463,5678246,팜스프링스 부평문화점,PALMSPRINGS부평문화점,Palm Springs Bupyeong Cultural Branch,Shops and Service,Clothing Store,126.72477880724696,37.494300818687,대한민국,KOR,KOR,인천광역시,부평구,,부평동,,부평문화로,75,211-34,2022-05-01 12:37:48,"쇼핑,편의||패션||스포츠의류||골프웨어||골프웨어-일반",False
97609,97610,27263682,팜스프링스 구월점,,Palm Springs Guwol,Shops and Service,Clothing Store,126.72185429999988,37.45556299999975,대한민국,KOR,KOR,인천광역시,남동구,,구월동,,구월로,284,1255-3,2022-08-12 13:15:03,"쇼핑,편의||패션||스포츠의류||골프웨어||골프웨어-일반",False
97617,97618,27117326,루이까스텔 모다아울렛 인천청라,,Louis Castel Moda Outlet Incheon Cheongna,Shops and Service,Clothing Store,126.64772449999992,37.50993619999981,대한민국,KOR,KOR,인천광역시,서구,,원창동,,북항로32번안길,50,381-69,2022-05-01 12:37:48,"쇼핑,편의||패션||스포츠의류||골프웨어||루이까스텔",False
98005,98006,27199940,올포유 부평점,,All For You Bupyeong,Shops and Service,Clothing Store,126.72484577690292,37.49402922832319,대한민국,KOR,KOR,인천광역시,부평구,,부평동,,부평문화로,78,201-43,2022-08-12 13:15:03,"쇼핑,편의||패션||캐주얼웨어||프랜차이즈||올포유",False
98022,98023,3123002,프리패스학생복 학익점,,Freepass Student Uniform Academic Points,Shops and Service,Clothing Store,126.66438192354792,37.44341055276507,대한민국,KOR,KOR,인천광역시,미추홀구,,학익동,,한나루로,399-2,260-29,2022-05-01 12:37:48,"쇼핑,편의||패션||유니폼,단체복||교복||교복-일반",False
98398,98399,27078826,밀레 인천모다점,,Millet Incheon Moda Branch,Shops and Service,Clothing Store,126.64772471015787,37.509934893689376,대한민국,KOR,KOR,인천광역시,서구,,원창동,,북항로32번안길,50,381-69,2022-05-01 12:37:48,"쇼핑,편의||패션||스포츠의류||등산,아웃도어||밀레",False
99067,99068,5689983,이쁜걸구제샵,,Pretty Girl Relief Shop,Shops and Service,Clothing Store,126.72665954468792,37.538789235293294,대한민국,KOR,KOR,인천광역시,계양구,,계산동,,계산천동로23번길,17,962-16,2021-12-23 15:49:18,"쇼핑,편의||패션||구제의류",False
99332,99333,4346856,올리비아하슬러 부평점,OliviaHassler부평점,Olivia Hasler Bupyeong,Shops and Service,Clothing Store,126.72254796974292,37.49432429584421,대한민국,KOR,KOR,인천광역시,부평구,,부평동,,부평대로,33,543-41,2022-08-12 13:15:03,"쇼핑,편의||패션||캐주얼웨어||캐주얼웨어-일반",False
99369,99370,6226712,명품구제,,luxury goods,Shops and Service,Clothing Store,126.6741303320099,37.50369019806984,대한민국,KOR,KOR,인천광역시,서구,,석남동,,거북로109번길,8,548-16,2022-05-01 12:37:48,"쇼핑,편의||패션||구제의류",False
99764,99765,27021639,갤럭시라이프스타일 롯데백화점 인천점,,Galaxy Lifestyle Lotte Department Store Incheon,Shops and Service,Clothing Store,126.70137839999995,37.442485299999774,대한민국,KOR,KOR,인천광역시,미추홀구,,관교동,,연남로,35,15,2022-06-13 10:44:13,"쇼핑,편의||패션||캐주얼웨어||프랜차이즈||갤럭시라이프스타일",False
100022,100023,27219363,폴햄키즈 뉴코아아울렛 인천점,,Pole Ham Kids New Core Outlet Incheon Branch,Shops and Service,Clothing Store,126.70070404689888,37.444027311420164,대한민국,KOR,KOR,인천광역시,남동구,,구월동,,인하로,485,1465-1,2022-05-01 12:37:48,"쇼핑,편의||패션||캐주얼웨어||프랜차이즈||폴햄",False
100025,100026,27258396,트루젠 모다인천점,,Trugen Moda Incheon,Shops and Service,Clothing Store,126.64776761073487,37.510303193855584,대한민국,KOR,KOR,인천광역시,서구,,원창동,,북항로32번안길,50,381-69,2022-05-01 12:37:48,"쇼핑,편의||패션||정장||프랜차이즈||트루젠",False
100250,100251,27067142,루이까스텔 NC아울렛 인천논현,,Louis Castel NC Outlet Incheon Nonhyeon,Shops and Service,Clothing Store,126.72564859999991,37.40062139999976,대한민국,KOR,KOR,인천광역시,남동구,,논현동,,청능대로,596,650-1,2022-05-01 12:37:48,"쇼핑,편의||패션||스포츠의류||골프웨어||루이까스텔",False
100992,100993,27021725,르베이지 롯데백화점 인천점,,Le Beige Lotte Department Store Incheon Branch,Shops and Service,Clothing Store,126.70137839999988,37.44248529999977,대한민국,KOR,KOR,인천광역시,미추홀구,,관교동,,연남로,35,15,2022-05-01 12:37:48,"쇼핑,편의||패션||캐주얼웨어||프랜차이즈||르베이지",False
101037,101038,27021346,커스텀멜로우 롯데백화점인천점,,Custom Mellow Lotte Department Store Incheon,Shops and Service,Clothing Store,126.7008797399999,37.44275049999977,대한민국,KOR,KOR,인천광역시,미추홀구,,관교동,,연남로,35,15,2022-05-01 12:37:48,"쇼핑,편의||패션||캐주얼웨어||프랜차이즈||커스텀멜로우",False
101128,101129,27207015,로엠 뉴코아아울렛 인천점,,ROM New Core Outlet Incheon Branch,Shops and Service,Clothing Store,126.70075684679388,37.44424741183226,대한민국,KOR,KOR,인천광역시,남동구,,구월동,,인하로,485,1465-1,2022-05-01 12:37:48,"쇼핑,편의||패션||캐주얼웨어||프랜차이즈||로엠",False
101688,101689,3676973,K2인천연수점,케이투인천연수점,K2 Incheon Yeonsu Branch,Shops and Service,Clothing Store,126.66875157845789,37.41884512171897,대한민국,KOR,KOR,인천광역시,연수구,,청학동,,청능대로23번길,11,455,2020-01-14 23:41:08,"쇼핑,편의||패션||스포츠의류||등산,아웃도어||K2",False
102056,102057,3676322,레드페이스인천구월점,THEREDFACE인천구월점,Red Face Incheon Guwol,Shops and Service,Clothing Store,126.69185868575788,37.45084249777848,대한민국,KOR,KOR,인천광역시,미추홀구,,주안동,,인주대로,495,1562-13,2022-08-24 14:41:06,"쇼핑,편의||패션||스포츠의류||등산,아웃도어||레드페이스",False
102260,102261,6207012,조이너스 인천가정점,Joinus 인천가정점,Joiners Incheon Gajeong Branch,Shops and Service,Clothing Store,126.67319396869688,37.519057949640285,대한민국,KOR,KOR,인천광역시,서구,,가정동,,가정로,382,504-7,2022-08-24 14:41:06,"쇼핑,편의||패션||정장||프랜차이즈||조이너스",False
102586,102587,27113538,지이크파렌하이트 뉴코아아울렛 인천논현점,,Siegfaren Heights New Core Outlet Incheon Nonhyeon Branch,Shops and Service,Clothing Store,126.72546152575892,37.40058592500296,대한민국,KOR,KOR,인천광역시,남동구,,논현동,,청능대로,596,650-1,2022-05-01 12:37:48,"쇼핑,편의||패션||캐주얼웨어||프랜차이즈||지이크파렌하이트",False
102655,102656,27021738,몽블랑 롯데백화점인천점,,Montblanc Lotte Department Store Incheon,Shops and Service,Clothing Store,126.70112884999988,37.44241548999977,대한민국,KOR,KOR,인천광역시,미추홀구,,관교동,,연남로,35,15,2022-05-01 12:37:48,"쇼핑,편의||패션||종합패션||프랜차이즈||몽블랑",False
102700,102701,27036445,라쿤패션,,Raccoon Fashion,Shops and Service,Clothing Store,126.67987021819192,37.468649464266406,대한민국,KOR,KOR,인천광역시,미추홀구,,주안동,,길파로,32,16-68,2022-05-01 12:37:48,"쇼핑,편의||패션||보세의류||보세의류-일반",False
102890,102891,6223795,구제알뜰의류매장,구제알뜰매장,Thrift clothing store,Shops and Service,Clothing Store,126.67616110683288,37.44744724867808,대한민국,KOR,KOR,인천광역시,미추홀구,,주안동,,신기길16번길,7,1332-39,2021-12-23 15:49:18,"쇼핑,편의||패션||구제의류",False
102929,102930,27021508,샤틴S블랑 롯데백화점인천점,,Shatin S Blanc Lotte Department Store Incheon,Shops and Service,Clothing Store,126.70165711999988,37.442025749999765,대한민국,KOR,KOR,인천광역시,미추홀구,,관교동,,연남로,35,15,2022-05-01 12:37:48,"쇼핑,편의||패션||캐주얼웨어||프랜차이즈||사틴",False
