,OID_,id,name,name_alias,name_eng,category,subcategory,lon,lat,country,country_code,language_code,sd,sgg,sgg_sub,emd,ri,street,number_st,number_jb,update_date,dwnm,result
66,67,3657951,한샘주택건설,,Hanssem Housing Construction,Shops and Service,Home Improvement Store,126.74550916696091,37.537104261528405,대한민국,KOR,KOR,인천광역시,계양구,,서운동,,살라리로,9,180-4,2019-11-14 23:25:16,"산업,유통||건설업||종합건설업||건물건설||주택건설",False
159,160,5655559,베스타산업,,Besta Industry,Shops and Service,Home Improvement Store,126.67498408519188,37.418740043144965,대한민국,KOR,KOR,인천광역시,연수구,,청학동,,벚꽃로82번길,16,491-5,2021-12-23 15:49:18,"산업,유통||건설업||전문건설업||전문건설업-일반",False
349,350,27227100,신성철물,,sacred hardware,Shops and Service,Home Improvement Store,126.66119570441587,37.48423306921048,대한민국,KOR,KOR,인천광역시,동구,,송림동,,봉수대로,98,296,2022-08-16 16:52:33,"쇼핑,편의||건축||철물점",False
928,929,6208396,가율전기철물,가율철물,Gayul Electric Hardware,Shops and Service,Home Improvement Store,126.67381611324288,37.49347240648128,대한민국,KOR,KOR,인천광역시,서구,,가좌동,,가정로98번길,19-2,143-162,2022-08-24 14:41:06,"쇼핑,편의||건축||철물점",False
1066,1067,5665786,주영철물,,cast iron,Shops and Service,Home Improvement Store,126.68432693757292,37.45133407556838,대한민국,KOR,KOR,인천광역시,미추홀구,,주안동,,인주대로,429,1482-11,2022-08-24 14:41:06,"쇼핑,편의||건축||철물점",False
1379,1380,4351620,부강공구철물,,buoyant tool hardware,Shops and Service,Home Improvement Store,126.70385110312787,37.514666263498206,대한민국,KOR,KOR,인천광역시,부평구,,청천동,,마장로,407,181-32,2022-08-24 14:41:06,"쇼핑,편의||건축||철물점",False
1511,1512,4325945,동래철물,,dongrae hardware,Shops and Service,Home Improvement Store,126.64484299014288,37.47344640457489,대한민국,KOR,KOR,인천광역시,동구,,송림동,,금곡로,91-1,67-10,2019-06-11 23:00:35,"쇼핑,편의||건축||철물점",False
1562,1563,134886,장수철물,,longevity hardware,Shops and Service,Home Improvement Store,126.75218791658592,37.45069196805698,대한민국,KOR,KOR,인천광역시,남동구,,장수동,,장자로,24,787-5,2022-08-24 14:41:06,"쇼핑,편의||건축||철물점",False
1647,1648,5545634,현대전기철물,,modern electric hardware,Shops and Service,Home Improvement Store,126.67038449999995,37.509134399999816,대한민국,KOR,KOR,인천광역시,서구,,석남동,,길주로75번길,29,522-13,2022-08-16 16:52:33,"쇼핑,편의||건축||철물점",False
1650,1651,6525402,락희건설,,Lak Hee Construction,Shops and Service,Home Improvement Store,126.66169255270889,37.46753682523118,대한민국,KOR,KOR,인천광역시,미추홀구,,도화동,,석정로228번길,11-34,93-32,2022-05-01 12:37:48,"산업,유통||건설업||건설업-일반",False
1826,1827,27276789,진응종합건설,,Jineung Construction,Shops and Service,Home Improvement Store,126.71044219999995,37.41937079999979,대한민국,KOR,KOR,인천광역시,남동구,,남촌동,,논곡로,14,609-3,2022-05-18 11:21:23,"산업,유통||건설업||종합건설업||종합건설업-일반",False
1832,1833,27372605,전기친구들,,electric friends,Shops and Service,Home Improvement Store,126.62798799999992,37.4669849999998,대한민국,KOR,KOR,인천광역시,중구,,신생동,,인중로144번길,9-1,26-8,2022-07-13 13:54:25,"산업,유통||건설업||전문건설업||전기공사",False
1866,1867,27229956,싱크대하수구각종수전교체변기뚫음배관공사,,Sink sewer faucet replacement toilet drilling plumbing work,Shops and Service,Home Improvement Store,126.6140999999999,37.59269999999984,대한민국,KOR,KOR,인천광역시,서구,,오류동,,,,1641-6,2022-05-01 12:37:48,"산업,유통||건설업||전문건설업||건물설비설치공사||배관,냉난방공사",False
1911,1912,27400278,변기뻥하수구막힘화장실뚫어싱크막힌곳뚜러,,Toilet clogged drain clogged toilet pierced sink clogged,Shops and Service,Home Improvement Store,126.64025619999993,37.4762649999998,대한민국,KOR,KOR,인천광역시,동구,,송림동,,송림로43번길,42,219-3,2022-08-02 16:47:12,"산업,유통||건설업||전문건설업||수도설비공사",False
2046,2047,2599748,신흥철물건재,신흥건재,Shinheung Steel Building Materials,Shops and Service,Home Improvement Store,126.73025032420092,37.45649006789838,대한민국,KOR,KOR,인천광역시,남동구,,만수동,,백범로157번길,5,883-39,2022-08-26 9:52:19,"쇼핑,편의||건축||철물점",False
2111,2112,6227389,공명전기,,resonance electricity,Shops and Service,Home Improvement Store,126.70739728753892,37.52893431927061,대한민국,KOR,KOR,인천광역시,계양구,,효성동,,안남로519번길,34,171-3,2021-12-23 15:49:18,"산업,유통||건설업||전문건설업||전기공사",False
2165,2166,27161990,대신산업개발,,Daishin Industrial Development,Shops and Service,Home Improvement Store,126.65129824595085,37.46650450383996,대한민국,KOR,KOR,인천광역시,미추홀구,,숭의동,,참외전로,335-11,116-29,2022-05-01 12:37:48,"산업,유통||건설업||전문건설업||미장,타일,방수공사",False
2347,2348,2601700,미담건설,,Midam Construction,Shops and Service,Home Improvement Store,126.6538089004949,37.5574329002674,대한민국,KOR,KOR,인천광역시,서구,,경서동,,,,733-8,2022-08-18 12:00:50,"산업,유통||건설업||전문건설업||전문건설업-일반",False
2387,2388,20692883,신승종합건설,,Shinseung Construction,Shops and Service,Home Improvement Store,126.69470600030388,37.406565299819256,대한민국,KOR,KOR,인천광역시,남동구,,고잔동,,은청로,18,632-1,2022-05-18 1:14:04,"산업,유통||건설업||종합건설업||종합건설업-일반",False
2389,2390,4345491,충북철물,,Chungbuk Hardware,Shops and Service,Home Improvement Store,126.67359321658688,37.49427603338158,대한민국,KOR,KOR,인천광역시,서구,,가좌동,,건지로284번길,53-1,143-93,2022-08-12 13:15:03,"산업,유통||건설업||종합건설업||건물건설||건물개수보수공사",False
2416,2417,27454551,큰대종합건설,,Daedae General Construction,Shops and Service,Home Improvement Store,126.69471351057393,37.44167251301059,대한민국,KOR,KOR,인천광역시,미추홀구,,관교동,,경원대로640번길,25-29,500-2,2022-08-16 16:52:33,"산업,유통||건설업||전문건설업||전문건설업-일반",False
2422,2423,20482691,NR건설디자인,,NR Construction Design,Shops and Service,Home Improvement Store,126.70456809370395,37.468575651567086,대한민국,KOR,KOR,인천광역시,부평구,,십정동,,백범로422번길,17,521-40,2022-05-01 12:37:48,"산업,유통||건설업||전문건설업||전문건설업-일반",False
2481,2482,5699481,사랑종합건설,사랑건설,Sarang Construction,Shops and Service,Home Improvement Store,126.70830979958588,37.529555700135305,대한민국,KOR,KOR,인천광역시,계양구,,효성동,,,,168-6,2022-05-01 12:37:48,"산업,유통||건설업||전문건설업||전문건설업-일반",False
2485,2486,3135049,대성전기철물,대성철물,Daesung Electric Hardware,Shops and Service,Home Improvement Store,126.65796173903942,37.46322984262326,대한민국,KOR,KOR,인천광역시,미추홀구,,숭의동,,수봉로33번길,28-14,1-67,2022-08-24 14:41:06,"쇼핑,편의||건축||철물점",False
2498,2499,5691689,성신철물 남동공단점,,Sungshin Hardware Namdong Industrial Complex,Shops and Service,Home Improvement Store,126.69437924388389,37.40666367691407,대한민국,KOR,KOR,인천광역시,남동구,,고잔동,,은청로,16-7,632-7,2021-12-23 15:49:18,"쇼핑,편의||건축||철물점",False
2509,2510,3106924,강화닥트건축,강화건축,Ganghwa duct construction,Shops and Service,Home Improvement Store,126.48813589999985,37.7382470999999,대한민국,KOR,KOR,인천광역시,강화군,,강화읍,남산리,남문로,5,209-3,2017-09-29 10:10:10,"산업,유통||건설업||전문건설업||전문건설업-일반",False
2590,2591,27063165,검단하수구막힘변기뚫음24,,Geomdan drain clogged toilet bowl 24,Shops and Service,Home Improvement Store,126.6511361619183,37.59948242067313,대한민국,KOR,KOR,인천광역시,서구,,왕길동,,검단로,419,273-5,2022-05-01 12:37:48,"산업,유통||건설업||전문건설업||수도설비공사",False
2611,2612,1265155,오무전기,,Ohmu Electric,Shops and Service,Home Improvement Store,126.64970934699286,37.51279760833408,대한민국,KOR,KOR,인천광역시,서구,,원창동,,중봉대로376번길,6,382-100,2021-12-23 15:49:18,"산업,유통||건설업||전문건설업||전기공사",False
2632,2633,27081548,대명산업개발,,Daemyung Industrial Development,Shops and Service,Home Improvement Store,126.65982019999991,37.4607537999998,대한민국,KOR,KOR,인천광역시,미추홀구,,숭의동,,수봉로83번길,27,7-182,2022-08-12 13:15:03,"산업,유통||건설업||전문건설업||미장,타일,방수공사",False
2684,2685,4315890,종합개발산업,종합타일,Comprehensive development industry,Shops and Service,Home Improvement Store,126.63833377312484,37.427747550740335,대한민국,KOR,KOR,인천광역시,연수구,,옥련동,,능허대로,40,194-227,2022-05-01 12:37:48,"산업,유통||건설업||전문건설업||미장,타일,방수공사",False
2690,2691,26875722,KH종합건설,,KH General Construction,Shops and Service,Home Improvement Store,126.69488792635596,37.4721174123827,대한민국,KOR,KOR,인천광역시,부평구,,십정동,,배곶남로9번길,12,351-5,2022-05-01 12:37:48,"산업,유통||건설업||전문건설업||전문건설업-일반",False
2732,2733,3134599,세림수도부속,,Serim water supply,Shops and Service,Home Improvement Store,126.74484858798893,37.48509449542488,대한민국,KOR,KOR,인천광역시,부평구,,일신동,,경인로,1128,109-9,2021-12-23 15:49:18,"산업,유통||건설업||전문건설업||수도설비공사",False
2756,2757,5665109,동아산업,,Dong-a Industry,Shops and Service,Home Improvement Store,126.64609831557085,37.5501038571793,대한민국,KOR,KOR,인천광역시,서구,,경서동,,원전로38번길,7,694-4,2020-01-14 23:26:11,"산업,유통||건설업||전문건설업||유리,창호공사",False
2757,2758,4585633,동명전기테크,(주)동명전기테크,Dongmyung Electric Tech,Shops and Service,Home Improvement Store,126.6565328972179,37.52190751271269,대한민국,KOR,KOR,인천광역시,서구,,원창동,,봉수대로501번길,58-25,21-42,2022-05-01 12:37:48,"산업,유통||건설업||전문건설업||전기공사",False
2817,2818,4323181,광근철물점,,Kwanggeun Hardware Store,Shops and Service,Home Improvement Store,126.71918454737887,37.45185184185038,대한민국,KOR,KOR,인천광역시,남동구,,구월동,,호구포로,780,1272-1,2022-08-24 14:41:06,"쇼핑,편의||건축||철물점",False
2842,2843,5675587,한국공사,,Korea Corporation,Shops and Service,Home Improvement Store,126.53780456569436,37.489369826523976,대한민국,KOR,KOR,인천광역시,중구,,운남동,,운중로48번길,45,162-3,2022-05-01 12:37:48,"산업,유통||건설업||전문건설업||전문건설업-일반",False
2844,2845,27037160,유성종합설비,,Yuseong General Facility,Shops and Service,Home Improvement Store,126.66167794066592,37.47590490336071,대한민국,KOR,KOR,인천광역시,미추홀구,,도화동,,송림로257번길,6,987,2022-05-01 12:37:48,"산업,유통||건설업||전문건설업||전문건설업-일반",False
2850,2851,20184366,남촌필인테리어,필인테리어,Namchon Feel Interior,Shops and Service,Home Improvement Store,126.7150806271869,37.428908983793775,대한민국,KOR,KOR,인천광역시,남동구,,남촌동,,남촌로84번길,1,266-26,2022-05-01 12:37:48,"산업,유통||건설업||전문건설업||도배공사",False
2867,2868,27102427,유영누수탐지,,Swimming leak detection,Shops and Service,Home Improvement Store,126.66438803753388,37.45580618029626,대한민국,KOR,KOR,인천광역시,미추홀구,,용현동,,경인북길303번길,5,117-13,2022-08-12 13:15:03,"산업,유통||건설업||전문건설업||건물설비설치공사||배관,냉난방공사",False
2882,2883,20476598,서부종합건축,,Western Construction,Shops and Service,Home Improvement Store,126.67742169491397,37.49740123756785,대한민국,KOR,KOR,인천광역시,서구,,가좌동,,가석로156번길,23,174-111,2022-05-01 12:37:48,"산업,유통||건설업||전문건설업||전문건설업-일반",False
2894,2895,3130118,동양건축종합설비,동양건축설비,Dongyang Construction Equipment,Shops and Service,Home Improvement Store,126.70433221383492,37.491501149985496,대한민국,KOR,KOR,인천광역시,부평구,,산곡동,,화랑로,90-1,370-53,2019-11-14 23:27:34,"산업,유통||건설업||전문건설업||전문건설업-일반",False
2922,2923,4360177,태화설비공사,,Taehwa Equipment Construction,Shops and Service,Home Improvement Store,126.6696529062989,37.51637107959549,대한민국,KOR,KOR,인천광역시,서구,,신현동,,가정로351번길,30-1,280-13,2021-12-23 15:49:18,"산업,유통||건설업||전문건설업||전문건설업-일반",False
2954,2955,4578395,케이제이와이건설,,KJ Y Construction,Shops and Service,Home Improvement Store,126.72891699999995,37.403531599999766,대한민국,KOR,KOR,인천광역시,남동구,,논현동,,소래역로,93,604-1,2017-08-21 9:30:30,"산업,유통||건설업||전문건설업||전문건설업-일반",False
2974,2975,6209927,유일종합건설,유일건설,Yooil Construction,Shops and Service,Home Improvement Store,126.61207128674285,37.594107701845004,대한민국,KOR,KOR,인천광역시,서구,,오류동,,보듬5로,5,1640-1,2022-05-01 12:37:48,"산업,유통||건설업||전문건설업||전문건설업-일반",False
3136,3137,5669072,태송건설,,TaesongConstruction,Shops and Service,Home Improvement Store,126.48831879999986,37.74704089999891,대한민국,KOR,KOR,인천광역시,강화군,,강화읍,관청리,,,183-1,2022-08-04 10:04:43,"산업,유통||건설업||전문건설업||시설물축조공사||철근공사",False
3155,3156,4685850,대금건설,,Daegeum Construction,Shops and Service,Home Improvement Store,126.63743299999992,37.4573187999998,대한민국,KOR,KOR,인천광역시,미추홀구,,용현동,,아암대로29번길,16,659,2018-08-11 9:09:09,"산업,유통||건설업||전문건설업||전문건설업-일반",False
3175,3176,3120749,창조철물집수리,창조집수리,creative hardware repair,Shops and Service,Home Improvement Store,126.65574916821488,37.42509914122796,대한민국,KOR,KOR,인천광역시,연수구,,옥련동,,한나루로,177,341-3,2022-08-12 13:15:03,"쇼핑,편의||건축||철물점",False
3269,3270,2597095,성진종합상사,성진상사,Sungjin General Trading Co.,Shops and Service,Home Improvement Store,126.6934907514729,37.406904804763045,대한민국,KOR,KOR,인천광역시,남동구,,고잔동,,은청로,4-7,630,2022-08-16 16:52:33,"쇼핑,편의||건축||철물점",False
3319,3320,5656155,이백건설,,Lee Baek Construction,Shops and Service,Home Improvement Store,126.50249210021272,37.75699989999135,대한민국,KOR,KOR,인천광역시,강화군,,강화읍,옥림리,,,574-1,2022-08-04 10:04:43,"산업,유통||건설업||전문건설업||전문건설업-일반",False
3524,3525,4325788,지성공조닥트공사,,Jisung air conditioning duct construction,Shops and Service,Home Improvement Store,126.6703855928299,37.45570018451525,대한민국,KOR,KOR,인천광역시,미추홀구,,주안동,,한나루로,554,606-10,2022-05-01 12:37:48,"산업,유통||건설업||전문건설업||건물설비설치공사||배관,냉난방공사",False
3577,3578,27110081,인천하수구변기막힘,,Incheon sewer toilet clogged,Shops and Service,Home Improvement Store,126.72874054303392,37.451594619069866,대한민국,KOR,KOR,인천광역시,남동구,,만수동,,구월남로,352,937-21,2022-08-08 10:29:42,"산업,유통||건설업||전문건설업||건물설비설치공사||배관,냉난방공사",False
3738,3739,20762928,뉴한양종합공사,,New Hanyang Corporation,Shops and Service,Home Improvement Store,126.63791978881184,37.45083751121396,대한민국,KOR,KOR,인천광역시,미추홀구,,용현동,,토금남로,53,627-78,2022-05-18 1:20:07,"산업,유통||건설업||전문건설업||전문건설업-일반",False
3775,3776,5679625,건우개발,,Gunwoo Development,Shops and Service,Home Improvement Store,126.73347515854292,37.540645644094,대한민국,KOR,KOR,인천광역시,계양구,,계산동,,장제로809번길,11,34-4,2022-08-16 16:52:33,"산업,유통||건설업||전문건설업||건물설비설치공사||배관,냉난방공사",False
3805,3806,4334089,경기종합인테리어,경기인테리어,Gyeonggi General Interior,Shops and Service,Home Improvement Store,126.64928642162889,37.45470310287687,대한민국,KOR,KOR,인천광역시,미추홀구,,용현동,,독배로,392-2,344-6,2022-08-08 10:29:42,"산업,유통||건설업||전문건설업||유리,창호공사",False
3830,3831,3839466,하본건설,,Harbon Construction,Shops and Service,Home Improvement Store,126.69842842935988,37.42816470513535,대한민국,KOR,KOR,인천광역시,연수구,,선학동,,학나래로118번길,9,401-1,2020-01-14 23:26:14,"산업,유통||건설업||건설업-일반",False
3880,3881,3840351,대영건설,,Daeyoung Construction,Shops and Service,Home Improvement Store,126.73569822900993,37.39795797498146,대한민국,KOR,KOR,인천광역시,남동구,,논현동,,소래역남로16번길,8-7,753-3,2019-11-14 23:28:27,"산업,유통||건설업||전문건설업||전문건설업-일반",False
4124,4125,3839482,에스엠엘종합건설,,SML general construction,Shops and Service,Home Improvement Store,126.66237724447988,37.38195632992026,대한민국,KOR,KOR,인천광역시,연수구,,송도동,,송도과학로,32,172-1,2020-01-14 23:22:24,"산업,유통||건설업||전문건설업||전문건설업-일반",False
4188,4189,5705741,삼산종합철거,삼산철거,Samsan Comprehensive Demolition,Shops and Service,Home Improvement Store,126.72275539318792,37.44914827420786,대한민국,KOR,KOR,인천광역시,남동구,,구월동,,인주대로,769,1295-2,2022-08-24 14:41:06,"산업,유통||건설업||전문건설업||건물,구축물해체공사",False
4474,4475,5706723,현대전기철물,현대철물,modern electric hardware,Shops and Service,Home Improvement Store,126.7088320974649,37.487251791395,대한민국,KOR,KOR,인천광역시,부평구,,부평동,,경원대로1240번길,6,280-3,2022-05-01 12:37:48,"쇼핑,편의||건축||철물점",False
4637,4638,6227361,대정건축,,Daejeong Architecture,Shops and Service,Home Improvement Store,126.72490779357491,37.5362101969636,대한민국,KOR,KOR,인천광역시,계양구,,작전동,,계양대로140번길,20,856-12,2019-11-14 23:30:26,"산업,유통||건설업||전문건설업||전문건설업-일반",False
4679,4680,5712617,대흥코아건축공사,대흥건축,Daeheung Core Construction,Shops and Service,Home Improvement Store,126.70741792098787,37.44618008499408,대한민국,KOR,KOR,인천광역시,남동구,,구월동,,남동대로,716,1185-4,2022-05-01 12:37:48,"산업,유통||건설업||전문건설업||건물,구축물해체공사",False
4687,4688,20201528,혜성종합설비,혜성설비,Comet Comprehensive Facility,Shops and Service,Home Improvement Store,126.72789888474895,37.45235761544679,대한민국,KOR,KOR,인천광역시,남동구,,만수동,,구월로336번길,63-1,939-4,2021-12-23 15:49:18,"산업,유통||건설업||전문건설업||전문건설업-일반",False
4797,4798,20169532,해명건축설비,해명설비,Haemyeong Construction Equipment,Shops and Service,Home Improvement Store,126.3435650271684,37.66860283041154,대한민국,KOR,KOR,인천광역시,강화군,,삼산면,매음리,삼산남로,514,341-1,2022-05-01 12:37:48,"산업,유통||건설업||전문건설업||전문건설업-일반",False
4868,4869,27072228,JS건설,,JS Construction,Shops and Service,Home Improvement Store,126.72377465314592,37.408645417940456,대한민국,KOR,KOR,인천광역시,남동구,,논현동,,논고개로202번길,14,591-19,2022-05-01 12:37:48,"산업,유통||건설업||종합건설업||종합건설업-일반",False
4952,4953,2602513,서인천알미늄공사,,Seoincheon Aluminum Corporation,Shops and Service,Home Improvement Store,126.67518783557992,37.495031745131776,대한민국,KOR,KOR,인천광역시,서구,,가좌동,,가남로,147-4,143-12,2021-12-23 15:49:18,"산업,유통||건설업||전문건설업||전문건설업-일반",False
4955,4956,6214472,유성전기조명철물,유성조명철물,Yooseong Electric Lighting Hardware,Shops and Service,Home Improvement Store,126.6558506466729,37.45216151906515,대한민국,KOR,KOR,인천광역시,미추홀구,,용현동,,경인남길30번길,23,197-11,2021-12-23 15:49:18,"쇼핑,편의||건축||철물점",False
4958,4959,5695255,럭키종합공사,럭키공사,Lucky General Corporation,Shops and Service,Home Improvement Store,126.69501679500588,37.44687965896326,대한민국,KOR,KOR,인천광역시,남동구,,구월동,,문화서로3번길,22-12,1391,2021-12-23 15:49:18,"산업,유통||건설업||전문건설업||유리,창호공사",False
4994,4995,20201782,진승건설,,Jinseung Construction,Shops and Service,Home Improvement Store,126.68235634936293,37.4530730786747,대한민국,KOR,KOR,인천광역시,미추홀구,,주안동,,미추홀대로626번길,42,1478-12,2021-12-23 15:49:18,"산업,유통||건설업||전문건설업||전문건설업-일반",False
5020,5021,27553137,원공사,,original construction,Shops and Service,Home Improvement Store,126.72632293379996,37.5176871269067,대한민국,KOR,KOR,인천광역시,부평구,,갈산동,,평천로,326,170-15,2022-09-06 15:18:26,"산업,유통||건설업||전문건설업||전문건설업-일반",False
5131,5132,27160895,리크서비스누수탐지,,Leak service leak detection,Shops and Service,Home Improvement Store,126.69605899999993,37.4758509999998,대한민국,KOR,KOR,인천광역시,부평구,,십정동,,열우물로,103,279-20,2022-05-01 12:37:48,"산업,유통||건설업||전문건설업||건물설비설치공사||배관,냉난방공사",False
5226,5227,4347386,부개종합집수리,부개집수리,general house repair,Shops and Service,Home Improvement Store,126.74183663720495,37.48455730466789,대한민국,KOR,KOR,인천광역시,부평구,,부개동,,경인로1104번길,28,361,2019-11-14 0:00:00,"산업,유통||건설업||전문건설업||미장,타일,방수공사",False
5333,5334,6227270,국민건설,,Kookmin Construction,Shops and Service,Home Improvement Store,126.72945784480692,37.50424306338899,대한민국,KOR,KOR,인천광역시,부평구,,부평동,,길주남로,70-1,12-185,2019-11-14 23:30:27,"산업,유통||건설업||전문건설업||전문건설업-일반",False
5343,5344,27081915,만능종합설비,,All-round facility,Shops and Service,Home Improvement Store,126.46186623035464,37.43905626801721,대한민국,KOR,KOR,인천광역시,중구,,운서동,,공항로424번길,66,2850-6,2022-08-16 16:52:33,"산업,유통||건설업||전문건설업||수도설비공사",False
5372,5373,27127247,에이션누수변기,,Ation leaky toilet,Shops and Service,Home Improvement Store,126.71349659662692,37.45116308131557,대한민국,KOR,KOR,인천광역시,남동구,,구월동,,용천로17번길,8,1216-8,2022-05-01 12:37:48,"산업,유통||건설업||전문건설업||건물설비설치공사||배관,냉난방공사",False
5386,5387,2150226,영종합건설,,Young Construction,Shops and Service,Home Improvement Store,126.70568451063488,37.45279788400818,대한민국,KOR,KOR,인천광역시,남동구,,구월동,,구월남로,146,1142-17,2019-11-14 23:05:38,"산업,유통||건설업||전문건설업||전문건설업-일반",False
5473,5474,5683615,나눔종합집수리,나눔집수리,Nanum comprehensive house repair,Shops and Service,Home Improvement Store,126.6848736913609,37.460221056982874,대한민국,KOR,KOR,인천광역시,미추홀구,,주안동,,석바위로,108-1,84-40,2019-11-14 23:27:28,"산업,유통||건설업||전문건설업||전문건설업-일반",False
5508,5509,6212377,대호종합설비,대호설비,Daeho General Facilities,Shops and Service,Home Improvement Store,126.70252531797588,37.476379391586384,대한민국,KOR,KOR,인천광역시,부평구,,십정동,,하정로19번길,45,429-1,2019-11-14 23:28:51,"산업,유통||건설업||전문건설업||전문건설업-일반",False
5653,5654,27225317,인천장식,,Incheon decoration,Shops and Service,Home Improvement Store,126.67984675814893,37.467123210462766,대한민국,KOR,KOR,인천광역시,미추홀구,,주안동,,석정로,399,15-43,2022-08-12 13:15:03,"산업,유통||건설업||전문건설업||도배공사",False
5693,5694,20746164,새움건설,,SaeumConstruction,Shops and Service,Home Improvement Store,126.63120300033584,37.53334349966678,대한민국,KOR,KOR,인천광역시,서구,,청라동,,청라대로,127,96-8,2022-05-01 12:37:48,"산업,유통||건설업||종합건설업||종합건설업-일반",False
5695,5696,27238600,대영건축,,Daeyoung Architecture,Shops and Service,Home Improvement Store,126.6279309167108,37.469730216612575,대한민국,KOR,KOR,인천광역시,중구,,답동,,인중로164번길,57,18-1,2022-05-01 12:37:48,"산업,유통||건설업||전문건설업||전문건설업-일반",False
5753,5754,20085062,효성종합공사,효성공사,Hyosung Corporation,Shops and Service,Home Improvement Store,126.72784105943192,37.46205637139888,대한민국,KOR,KOR,인천광역시,남동구,,만수동,,만수서로29번길,38,111-261,2022-05-01 12:37:48,"산업,유통||건설업||전문건설업||전문건설업-일반",False
5794,5795,27162766,하수구,,sewer,Shops and Service,Home Improvement Store,126.67256829999988,37.40750079999977,대한민국,KOR,KOR,인천광역시,연수구,,동춘동,,앵고개로,262,936-8,2022-05-01 12:37:48,"산업,유통||건설업||전문건설업||건물설비설치공사||배관,냉난방공사",False
5846,5847,4343801,주안건설,,Juan Construction,Shops and Service,Home Improvement Store,126.68267381366792,37.48924318842328,대한민국,KOR,KOR,인천광역시,서구,,가좌동,,장고개로287번길,11,237-1,2022-06-13 10:44:13,"산업,유통||건설업||종합건설업||종합건설업-일반",False
6084,6085,6211045,이제이종합건설,이제이건설,Jeee Lee General Construction,Shops and Service,Home Improvement Store,126.67668681949988,37.54617206730429,대한민국,KOR,KOR,인천광역시,서구,,심곡동,,서곶로,321,239-6,2020-01-14 23:36:32,"산업,유통||건설업||전문건설업||전문건설업-일반",False
6086,6087,27455919,가람전기,,Garam Electric,Shops and Service,Home Improvement Store,126.49547768870484,37.25712030948603,대한민국,KOR,KOR,인천광역시,옹진군,,영흥면,내리,영흥로144번길,9,8-47,2022-08-18 12:00:50,"산업,유통||건설업||전문건설업||전기공사",False
6107,6108,4399843,위너스건설,,Winners Construction,Shops and Service,Home Improvement Store,126.4882990004087,37.72754519988663,대한민국,KOR,KOR,인천광역시,강화군,,선원면,창리,,,385-2,2022-08-04 10:04:43,"산업,유통||건설업||전문건설업||전문건설업-일반",False
6147,6148,6509319,영진개발산업,,Youngjin Development Industry,Shops and Service,Home Improvement Store,126.67828800029096,37.594343400359136,대한민국,KOR,KOR,인천광역시,서구,,마전동,,원당대로685번2길,9,1063-4,2020-04-21 23:02:42,"산업,유통||건설업||건설업-일반",False
6166,6167,4349951,네모설비,,square equipment,Shops and Service,Home Improvement Store,126.67766773288388,37.54240578528499,대한민국,KOR,KOR,인천광역시,서구,,심곡동,,심곡로,71,301-9,2021-12-23 15:49:18,"산업,유통||건설업||전문건설업||건물설비설치공사||건물설비설치공사-일반",False
6228,6229,6223532,건보종합건축,건보건축,Guanbo Construction,Shops and Service,Home Improvement Store,126.67491009437293,37.503972229937915,대한민국,KOR,KOR,인천광역시,서구,,석남동,,면개포로10번길,17-1,547-28,2021-12-23 15:49:18,"산업,유통||건설업||전문건설업||전문건설업-일반",False
6236,6237,27553095,한결종합인테리어,,Haneul Comprehensive Interior,Shops and Service,Home Improvement Store,126.70620496973795,37.47175621649339,대한민국,KOR,KOR,인천광역시,부평구,,십정동,,동암남로27번길,26,489-4,2022-09-06 15:18:26,"산업,유통||건설업||전문건설업||전문건설업-일반",False
6247,6248,27182665,연일철물수리,,Daily iron repair,Shops and Service,Home Improvement Store,126.64656640024288,37.47886485611768,대한민국,KOR,KOR,인천광역시,동구,,송림동,,송림로109번길,52,35-42,2022-08-12 13:15:03,"쇼핑,편의||건축||철물점",False
6255,6256,4345792,동양건축설비,,Oriental Construction Equipment,Shops and Service,Home Improvement Store,126.73393122550796,37.500177672006494,대한민국,KOR,KOR,인천광역시,부평구,,부평동,,부흥북로108번길,14,104-15,2021-12-23 15:49:18,"산업,유통||건설업||전문건설업||건물설비설치공사||건물설비설치공사-일반",False
6269,6270,5684630,가산전기,,added electricity,Shops and Service,Home Improvement Store,126.73221580716096,37.49437924581718,대한민국,KOR,KOR,인천광역시,부평구,,부평동,,부평문화로141번길,8,366-4,2019-11-14 23:12:44,"산업,유통||건설업||전문건설업||전기공사",False
6348,6349,5723209,성민철물건재,성민건재,Sungmin Steel Building Materials,Shops and Service,Home Improvement Store,126.7003388601549,37.38897904067321,대한민국,KOR,KOR,인천광역시,남동구,,고잔동,,호구포로,50,736-4,2022-08-16 16:52:33,"쇼핑,편의||건축||철물점",False
6389,6390,20201010,진영종합설비,진영설비,Jinyoung General Facilities,Shops and Service,Home Improvement Store,126.66648158803396,37.510067793753926,대한민국,KOR,KOR,인천광역시,서구,,석남동,,신석로,40-1,189-44,2022-08-24 14:41:06,"산업,유통||건설업||전문건설업||건물설비설치공사||배관,냉난방공사",False
6652,6653,486665,영진인슈로산업,영진인슈로산업(주),Youngjin Insuro Industry,Shops and Service,Home Improvement Store,126.70607474925592,37.41394017802816,대한민국,KOR,KOR,인천광역시,남동구,,남촌동,,함박뫼로377번길,43,625-5,2022-05-01 12:37:48,"산업,유통||건설업||전문건설업||건물설비설치공사||배관,냉난방공사",False
6732,6733,3464081,정석산업,,Jeongseok Industry,Shops and Service,Home Improvement Store,126.61513265879584,37.59838852358601,대한민국,KOR,KOR,인천광역시,서구,,오류동,,보듬4로,8-1,1650-3,2022-08-08 10:29:42,"산업,유통||건설업||종합건설업||토목건설||산업설비설치공사",False
6925,6926,5664127,이레건축,,Ire Architecture,Shops and Service,Home Improvement Store,126.67448530544772,37.44590695540334,대한민국,KOR,KOR,인천광역시,미추홀구,,주안동,,인하로236번길,53-3,857-10,2022-05-01 12:37:48,"산업,유통||건설업||전문건설업||전문건설업-일반",False
6956,6957,5716912,현대건축설비,현대설비,modern building equipment,Shops and Service,Home Improvement Store,126.6651769531749,37.45222587439736,대한민국,KOR,KOR,인천광역시,미추홀구,,용현동,,한나루로501번길,37,69-9,2019-11-14 23:05:38,"산업,유통||건설업||전문건설업||전문건설업-일반",False
7019,7020,6226738,솔비건설,,Solbi Construction,Shops and Service,Home Improvement Store,126.70585201298188,37.466758225473086,대한민국,KOR,KOR,인천광역시,남동구,,간석동,,예술로370번길,48,243-4,2019-11-14 0:00:00,"산업,유통||건설업||전문건설업||전문건설업-일반",False
7088,7089,6226115,덕진철물,,Deokjin Hardware,Shops and Service,Home Improvement Store,126.15736128761068,37.22849575524286,대한민국,KOR,KOR,인천광역시,옹진군,,덕적면,진리,덕적북로,6,6-9,2022-05-01 12:37:48,"쇼핑,편의||건축||철물점",False
7170,7171,27038454,에이지에스건설,,AGES E&C,Shops and Service,Home Improvement Store,126.70467430766494,37.4682658982196,대한민국,KOR,KOR,인천광역시,남동구,,간석동,,백범로422번길,12,234-5,2022-05-01 12:37:48,"산업,유통||건설업||전문건설업||전문건설업-일반",False
7184,7185,27455963,일년인테리어,,one year interior,Shops and Service,Home Improvement Store,126.67014805774792,37.504468664661005,대한민국,KOR,KOR,인천광역시,서구,,석남동,,길주로76번길,22,530-51,2022-08-19 9:48:28,"산업,유통||건설업||전문건설업||도배공사",False
7188,7189,4915551,미추건설,,Michu Construction,Shops and Service,Home Improvement Store,126.65465442284489,37.48615236027428,대한민국,KOR,KOR,인천광역시,동구,,송림동,,방축로83번길,23,294,2022-05-01 12:37:48,"산업,유통||건설업||전문건설업||건물설비설치공사||배관,냉난방공사",False
7191,7192,20761624,삼호종합건축,,Samho Construction,Shops and Service,Home Improvement Store,126.69570550813287,37.44581902395116,대한민국,KOR,KOR,인천광역시,남동구,,구월동,,문화서로4번길,5-5,1395-6,2022-05-18 1:20:07,"산업,유통||건설업||전문건설업||전문건설업-일반",False
7207,7208,4323321,제일철물,,first iron,Shops and Service,Home Improvement Store,126.62589096701085,37.47049736160616,대한민국,KOR,KOR,인천광역시,중구,,신생동,,우현로35번길,15-2,7-14,2022-05-01 12:37:48,"쇼핑,편의||건축||철물점",False
7245,7246,6219195,태흥건축설비공사,태흥설비공사,Taeheung Construction Equipment Construction,Shops and Service,Home Improvement Store,126.72818009436892,37.50433376915257,대한민국,KOR,KOR,인천광역시,부평구,,부평동,,길주남로,60,10-729,2019-11-14 23:30:26,"산업,유통||건설업||전문건설업||전문건설업-일반",False
7466,7467,5714575,경일사철물누수탐지,경일사누수하수,Gyeongilsa hardware leak detection,Shops and Service,Home Improvement Store,126.63640050534472,37.454183937600014,대한민국,KOR,KOR,인천광역시,미추홀구,,용현동,,낙섬서로,53-1,628-81,2022-08-08 10:29:42,"쇼핑,편의||건축||철물점",False
7510,7511,20200381,삼화공사,,Samhwa Corporation,Shops and Service,Home Improvement Store,126.67645920255995,37.469943726875904,대한민국,KOR,KOR,인천광역시,미추홀구,,주안동,,길파로41번길,61,10-55,2021-12-23 15:49:18,"산업,유통||건설업||전문건설업||전문건설업-일반",False
7546,7547,5708773,천일종합공사,천일공사,Cheonil General Construction,Shops and Service,Home Improvement Store,126.63788403120984,37.465970972894574,대한민국,KOR,KOR,인천광역시,중구,,도원동,,도원로26번길,22,38-3,2022-08-16 16:52:33,"산업,유통||건설업||전문건설업||건물설비설치공사||배관,냉난방공사",False
7614,7615,4351742,한별종합설비,,Hanbyeol Comprehensive Facilities,Shops and Service,Home Improvement Store,126.71660485762288,37.43075492252868,대한민국,KOR,KOR,인천광역시,남동구,,남촌동,,남촌로100번길,53,317-7,2021-12-23 15:49:18,"산업,유통||건설업||전문건설업||전문건설업-일반",False
7652,7653,6230920,평화건축설비,평화설비,Peace Building Equipment,Shops and Service,Home Improvement Store,126.73420879542795,37.50116791523119,대한민국,KOR,KOR,인천광역시,부평구,,부개동,,부흥북로107번길,8,16-21,2019-11-14 23:30:27,"산업,유통||건설업||전문건설업||전문건설업-일반",False
7761,7762,27078223,365공사,,365 construction,Shops and Service,Home Improvement Store,126.71123170736593,37.530845120238496,대한민국,KOR,KOR,인천광역시,계양구,,효성동,,안남로,536,68-1,2022-08-16 16:52:33,"산업,유통||건설업||전문건설업||유리,창호공사",False
7849,7850,3141354,정현설비,,sine equipment,Shops and Service,Home Improvement Store,126.73581110017393,37.54690892255951,대한민국,KOR,KOR,인천광역시,계양구,,임학동,,계양산로182번길,8,29-17,2022-05-01 12:37:48,"산업,유통||건설업||전문건설업||전문건설업-일반",False
7850,7851,27230332,싱크대하수구각종수전교체변기뚫음배관공사,,Sink sewer faucet replacement toilet drilling plumbing work,Shops and Service,Home Improvement Store,126.73662499999998,37.578783299999834,대한민국,KOR,KOR,인천광역시,계양구,,장기동,,장기로22번길,16,145-1,2022-05-01 12:37:48,"산업,유통||건설업||전문건설업||건물설비설치공사||배관,냉난방공사",False
7853,7854,27553592,그린종합설비,,Green comprehensive facility,Shops and Service,Home Improvement Store,126.74035778177848,37.48656153068957,대한민국,KOR,KOR,인천광역시,부평구,,부개동,,경인로,1083,302-8,2022-09-06 15:18:26,"산업,유통||건설업||전문건설업||건물설비설치공사||배관,냉난방공사",False
8013,8014,1261368,형제철물건재,,Brother's Hardware,Shops and Service,Home Improvement Store,126.6752932808459,37.56243715288751,대한민국,KOR,KOR,인천광역시,서구,,검암동,,승학로506번길,33,619-8,2022-05-01 12:37:48,"쇼핑,편의||건축||철물점",False
8061,8062,27183459,황소설비누수방수,,Bull equipment leak waterproofing,Shops and Service,Home Improvement Store,126.72673859999993,37.53129739999979,대한민국,KOR,KOR,인천광역시,계양구,,작전동,,봉오대로691번길,4,861-1,2022-05-01 12:37:48,"산업,유통||건설업||전문건설업||건물설비설치공사||배관,냉난방공사",False
8087,8088,2600601,대덕종합설비,대덕설비,Daedeok general facility,Shops and Service,Home Improvement Store,126.67611558366288,37.5205215823172,대한민국,KOR,KOR,인천광역시,서구,,가정동,,원창로239번길,35,496-29,2022-05-01 12:37:48,"산업,유통||건설업||전문건설업||건물설비설치공사||배관,냉난방공사",False
8104,8105,26876586,영진설비,,Youngjin facility,Shops and Service,Home Improvement Store,126.73988743060696,37.550167139630425,대한민국,KOR,KOR,인천광역시,계양구,,방축동,,화산로66번길,14-12,186,2022-05-01 12:37:48,"산업,유통||건설업||전문건설업||건물설비설치공사||배관,냉난방공사",False
8171,8172,27212245,신공항하이웨이 인천공항영업소,,New Airport Highway Incheon Airport Sales Office,Shops and Service,Home Improvement Store,126.6670100380829,37.5709529023441,대한민국,KOR,KOR,인천광역시,서구,,검암동,,봉수대로,1048,414-66,2022-08-12 13:15:03,"산업,유통||건설업||종합건설업||토목건설||도로,포장공사",False
8468,8469,4329214,일광종합상사,,"Ilkwang General Trading Co., Ltd.",Shops and Service,Home Improvement Store,126.67290457853888,37.44835286617907,대한민국,KOR,KOR,인천광역시,미추홀구,,주안동,,인하로,224,1419-2,2019-11-14 0:00:00,"쇼핑,편의||건축||철물점",False
8559,8560,27185568,인천수도설비누수탐지,,Incheon water facility leak detection,Shops and Service,Home Improvement Store,126.67490989999992,37.50397759999981,대한민국,KOR,KOR,인천광역시,서구,,석남동,,면개포로10번길,17-1,547-28,2022-08-12 13:15:03,"산업,유통||건설업||전문건설업||수도설비공사",False
8776,8777,27054631,24시부평하수구설비,,24 hour Bupyeong sewer facility,Shops and Service,Home Improvement Store,126.72683818529993,37.49916625000181,대한민국,KOR,KOR,인천광역시,부평구,,부평동,,부흥로315번길,17-3,416-30,2022-05-01 12:37:48,"산업,유통||건설업||전문건설업||건물설비설치공사||배관,냉난방공사",False
8984,8985,20476590,원일설비,,Wonil Equipment,Shops and Service,Home Improvement Store,126.73595613329796,37.52692017823332,대한민국,KOR,KOR,인천광역시,계양구,,작전동,,까치말로15번길,1,690-2,2022-05-01 12:37:48,"산업,유통||건설업||종합건설업||건물건설||건물개수보수공사",False
9067,9068,6219155,예건종합건설,예건건설,Yegun Construction,Shops and Service,Home Improvement Store,126.68037793731088,37.496479967073284,대한민국,KOR,KOR,인천광역시,서구,,가좌동,,건지로348번길,12-1,186-17,2020-01-14 0:00:00,"산업,유통||건설업||전문건설업||전문건설업-일반",False
9113,9114,3139256,인양종합설비철물 서구점,인양설비철물서구점,Total salvage facility hardware  Seogu branch,Shops and Service,Home Improvement Store,126.66692572804433,37.51924132179517,대한민국,KOR,KOR,인천광역시,서구,,신현동,,원창로157번길,15,105-2,2022-08-24 14:41:06,"쇼핑,편의||건축||철물점",False
9128,9129,3134460,청운전기,,clean driver,Shops and Service,Home Improvement Store,126.68116852369788,37.413704765354645,대한민국,KOR,KOR,인천광역시,연수구,,연수동,,용담로149번길,17,620-5,2022-09-06 15:18:26,"산업,유통||건설업||전문건설업||전기공사",False
9237,9238,20685354,하수구,,sewer,Shops and Service,Home Improvement Store,126.70865109999988,37.440875599999785,대한민국,KOR,KOR,인천광역시,남동구,,구월동,,선수촌공원로23번길,11,1542-1,2022-05-01 12:37:48,"산업,유통||건설업||전문건설업||건물설비설치공사||배관,냉난방공사",False
9287,9288,20201008,만민건축,,Manmin Architecture,Shops and Service,Home Improvement Store,126.67775909883994,37.45774500334059,대한민국,KOR,KOR,인천광역시,미추홀구,,주안동,,남주길147번길,85,509-1,2021-12-23 15:49:18,"산업,유통||건설업||전문건설업||전문건설업-일반",False
9393,9394,3112293,동신전기사,동신전기공사,Dongshin Electrician,Shops and Service,Home Improvement Store,126.4979482005657,37.74116680005923,대한민국,KOR,KOR,인천광역시,강화군,,강화읍,갑곳리,강화대로,286,336-3,2021-12-23 15:49:18,"산업,유통||건설업||전문건설업||전기공사",False
9598,9599,4337633,가하건설,,GahaConstruction,Shops and Service,Home Improvement Store,126.70338431397887,37.495536311983294,대한민국,KOR,KOR,인천광역시,부평구,,산곡동,,화랑북로,1-1,332-10,2022-05-01 12:37:48,"산업,유통||건설업||전문건설업||전문건설업-일반",False
9738,9739,3131597,평화열쇠철물전기,평화철물전기,peace key hardware electricity,Shops and Service,Home Improvement Store,126.68733376491588,37.48739834906348,대한민국,KOR,KOR,인천광역시,서구,,가좌동,,여우재로,104,362-11,2021-12-23 15:49:18,"쇼핑,편의||건축||철물점",False
9923,9924,20184102,삼화도장공사,,Samhwa Painting Construction,Shops and Service,Home Improvement Store,126.70147237765164,37.50665273462111,대한민국,KOR,KOR,인천광역시,부평구,,산곡동,,원적로313번길,46-1,87-238,2022-05-01 12:37:48,"산업,유통||건설업||전문건설업||도장공사",False
9948,9949,5715250,소망설비인테리어,소망인테리어,Hope facility interior,Shops and Service,Home Improvement Store,126.64684848637187,37.465999813387455,대한민국,KOR,KOR,인천광역시,미추홀구,,숭의동,,석정로76번길,26,129-16,2021-12-23 15:49:18,"산업,유통||건설업||전문건설업||건물설비설치공사||건물설비설치공사-일반",False
10056,10057,2599148,성윤건설,,Sungyun Construction,Shops and Service,Home Improvement Store,126.6947513841599,37.44837765157576,대한민국,KOR,KOR,인천광역시,남동구,,구월동,,문화서로23번길,32,1359-1,2021-12-23 15:49:18,"산업,유통||건설업||전문건설업||전문건설업-일반",False
10076,10077,4344025,형제공사,,brotherhood,Shops and Service,Home Improvement Store,126.73018081828492,37.45364079972826,대한민국,KOR,KOR,인천광역시,남동구,,만수동,,하촌서로,56,948-17,2022-08-24 14:41:06,"쇼핑,편의||건축||철물점",False
10085,10086,5708642,조은종합건축,조은건축,Joeun Construction,Shops and Service,Home Improvement Store,126.67510487958792,37.50380181449309,대한민국,KOR,KOR,인천광역시,서구,,석남동,,면개포로10번길,20,548-6,2021-12-23 15:49:18,"산업,유통||건설업||전문건설업||전문건설업-일반",False
10165,10166,27495459,고은인테리어,,Goeun Interior,Shops and Service,Home Improvement Store,126.71880254252194,37.4864927609256,대한민국,KOR,KOR,인천광역시,부평구,,부평동,,경인로891번길,13,760-133,2022-08-24 14:41:06,"산업,유통||건설업||전문건설업||도배공사",False
10188,10189,20184174,건우내장건축,건우건축,Built-in construction,Shops and Service,Home Improvement Store,126.72412300319544,37.53916968455265,대한민국,KOR,KOR,인천광역시,계양구,,계산동,,계산시장길,7-5,957-27,2022-05-01 12:37:48,"산업,유통||건설업||전문건설업||전문건설업-일반",False
10192,10193,3106930,금재건설,,Geumjae Construction,Shops and Service,Home Improvement Store,126.42372919999978,37.7727875999999,대한민국,KOR,KOR,인천광역시,강화군,,하점면,장정리,강화대로,1108,679-1,2018-06-08 21:20:03,"산업,유통||건설업||전문건설업||전문건설업-일반",False
10387,10388,6203879,대동건설,,Daedong Construction,Shops and Service,Home Improvement Store,126.73482607891792,37.45161944438687,대한민국,KOR,KOR,인천광역시,남동구,,만수동,,하촌로70번길,68,964-12,2019-11-14 23:30:26,"산업,유통||건설업||전문건설업||전문건설업-일반",False
10397,10398,4354129,만물보일러공사,,Manmul Boiler Construction,Shops and Service,Home Improvement Store,126.70712022108688,37.47047558609049,대한민국,KOR,KOR,인천광역시,부평구,,십정동,,동암남로,32,482-1,2022-08-24 14:41:06,"산업,유통||건설업||전문건설업||건물설비설치공사||배관,냉난방공사",False
10435,10436,4348484,대영종합설비,,Daeyoung General Facilities,Shops and Service,Home Improvement Store,126.72755728677394,37.5284299431724,대한민국,KOR,KOR,인천광역시,계양구,,작전동,,봉오대로706번길,17,871-48,2019-11-14 0:00:00,"산업,유통||건설업||전문건설업||전문건설업-일반",False
10486,10487,27134060,24시하수구수도설비,,24 hour sewer system,Shops and Service,Home Improvement Store,126.70749522776087,37.46409334374347,대한민국,KOR,KOR,인천광역시,남동구,,간석동,,경인로626번길,39,280-4,2022-08-12 13:15:03,"산업,유통||건설업||전문건설업||건물설비설치공사||배관,냉난방공사",False
10580,10581,27200608,국원건설,,Kukwon Construction,Shops and Service,Home Improvement Store,126.65017789999995,37.36780859999976,대한민국,KOR,KOR,인천광역시,연수구,,송도동,,송도미래로,47,206-6,2022-05-01 12:37:48,"산업,유통||건설업||건설업-일반",False
10613,10614,27182116,더원변기배관,,the one toilet pipe,Shops and Service,Home Improvement Store,126.70530328917388,37.444348392652394,대한민국,KOR,KOR,인천광역시,남동구,,구월동,,성말로44번길,20,1170-3,2022-05-01 12:37:48,"산업,유통||건설업||전문건설업||건물설비설치공사||배관,냉난방공사",False
10713,10714,3117309,신성종합상사,신성철물,Shinsung General Trading Co.,Shops and Service,Home Improvement Store,126.7071223015879,37.44384527332147,대한민국,KOR,KOR,인천광역시,남동구,,구월동,,남동대로,690,1178,2022-08-18 12:00:50,"쇼핑,편의||건축||철물점",False
10724,10725,3114230,국제건축설비,,International Building Equipment,Shops and Service,Home Improvement Store,126.64487802211887,37.47808494215008,대한민국,KOR,KOR,인천광역시,동구,,송림동,,샛골로,175,124-50,2022-05-01 12:37:48,"산업,유통||건설업||전문건설업||전문건설업-일반",False
10735,10736,1851358,만물전기철물 도원점,만물전기 도원점,Everything Electric Hardware  Dowon Branch,Shops and Service,Home Improvement Store,126.63747126162885,37.46724973348788,대한민국,KOR,KOR,인천광역시,중구,,도원동,,도원로,32,28-38,2021-12-23 15:49:18,"쇼핑,편의||건축||철물점",False
10863,10864,20201731,엘림페인트공사,,Elim Paint Corporation,Shops and Service,Home Improvement Store,126.67709084861296,37.4905974983205,대한민국,KOR,KOR,인천광역시,서구,,가좌동,,원적로37번길,28-1,224-35,2021-12-23 15:49:18,"산업,유통||건설업||전문건설업||도장공사",False
10866,10867,6003838,동인건설,,DonginConstruction,Shops and Service,Home Improvement Store,126.67569506019628,37.45760588436531,대한민국,KOR,KOR,인천광역시,미추홀구,,도화동,,경인로326번길,24,448-1,2022-05-01 12:37:48,"산업,유통||건설업||전문건설업||전문건설업-일반",False
10894,10895,26976035,건율종합건설,,Geonyul General Construction,Shops and Service,Home Improvement Store,126.67697764012298,37.59401622554639,대한민국,KOR,KOR,인천광역시,서구,,마전동,,원당대로,681,1058-4,2022-05-01 12:37:48,"산업,유통||건설업||전문건설업||전문건설업-일반",False
10907,10908,3464281,동남공구철물,동남철물,Southeast Tool Hardware,Shops and Service,Home Improvement Store,126.70396936305487,37.51105693532671,대한민국,KOR,KOR,인천광역시,부평구,,청천동,,마장로,370,190-110,2022-08-16 16:52:33,"쇼핑,편의||건축||철물점",False
11051,11052,4347001,성공철물,,success hardware,Shops and Service,Home Improvement Store,126.67536871216788,37.505739993404674,대한민국,KOR,KOR,인천광역시,서구,,석남동,,거북로119번길,30,550-4,2022-05-01 12:37:48,"쇼핑,편의||건축||철물점",False
11197,11198,27177554,인천하수구누수24,,Incheon sewer leak 24,Shops and Service,Home Improvement Store,126.66490947786188,37.45332601679628,대한민국,KOR,KOR,인천광역시,미추홀구,,주안동,,인주대로,253,676-19,2022-08-12 13:15:03,"산업,유통||건설업||전문건설업||건물설비설치공사||배관,냉난방공사",False
11236,11237,5694370,경진설비,,competition equipment,Shops and Service,Home Improvement Store,126.5512941328068,37.50039629684097,대한민국,KOR,KOR,인천광역시,중구,,중산동,,백운로,47,1292-7,2020-01-14 23:22:24,"산업,유통||건설업||전문건설업||전문건설업-일반",False
11289,11290,27069391,진흥건축설비공사 계양점,,Jinheung Building Equipment Corporation Gyeyang Branch,Shops and Service,Home Improvement Store,126.73045603398693,37.48533086018708,대한민국,KOR,KOR,인천광역시,부평구,,부평동,,동수로,105,624-21,2022-05-01 12:37:48,"산업,유통||건설업||전문건설업||건물설비설치공사||배관,냉난방공사",False
11303,11304,5705319,부원전기철물,부원철물,Buwon Electric Hardware,Shops and Service,Home Improvement Store,126.71013904039587,37.48926063703578,대한민국,KOR,KOR,인천광역시,부평구,,부평동,,경원대로1262번길,3,274-84,2022-08-24 14:41:06,"쇼핑,편의||건축||철물점",False
11311,11312,4328341,지인건축,,Jijin Construction,Shops and Service,Home Improvement Store,126.6782709661099,37.45784369129447,대한민국,KOR,KOR,인천광역시,미추홀구,,주안동,,한나루로586번길,111,506-63,2022-05-18 11:21:23,"산업,유통||건설업||전문건설업||건물설비설치공사||배관,냉난방공사",False
11383,11384,20199471,남송건설월드컨설팅,,Namsong Construction World Consulting,Shops and Service,Home Improvement Store,126.69397187610696,37.45661394302479,대한민국,KOR,KOR,인천광역시,미추홀구,,주안동,,문화로169번길,122,1581-1,2021-12-23 15:49:18,"산업,유통||건설업||전문건설업||전문건설업-일반",False
11525,11526,4347439,우성전기철물,,Woosung Electric Hardware,Shops and Service,Home Improvement Store,126.72631229999998,37.45211979999979,대한민국,KOR,KOR,인천광역시,남동구,,만수동,,구월남로327번길,4,925-1,2022-08-16 16:52:33,"쇼핑,편의||건축||철물점",False
11527,11528,27393645,긴급하수구막힘변기역류싱크대뚫음고압세척,,Emergency drain clogged toilet counterflow sink drilling high pressure cleaning,Shops and Service,Home Improvement Store,126.72682499999996,37.58589899999984,대한민국,KOR,KOR,인천광역시,계양구,,오류동,,,,117-1,2022-09-06 15:18:26,"산업,유통||건설업||전문건설업||전문건설업-일반",False
11537,11538,4332553,KCC인테리어,케이씨씨종합인테리어,KCC Interior,Shops and Service,Home Improvement Store,126.71909311219088,37.45045435553398,대한민국,KOR,KOR,인천광역시,남동구,,구월동,,호구포로,764,1285,2022-08-02 16:47:12,"산업,유통||건설업||전문건설업||건물설비설치공사||배관,냉난방공사",False
11548,11549,3123658,국제종합철물건재,국제종합건재,International general steel building materials,Shops and Service,Home Improvement Store,126.75588330648894,37.55985338273264,대한민국,KOR,KOR,인천광역시,계양구,,동양동,,양지로,12,576-1,2022-08-12 13:15:03,"쇼핑,편의||건축||철물점",False
11712,11713,20691674,단하산업개발,,Danha Industrial Development,Shops and Service,Home Improvement Store,126.7072280005119,37.46800080005448,대한민국,KOR,KOR,인천광역시,남동구,,간석동,,경인로653번길,9,216-19,2022-05-18 1:22:38,"산업,유통||건설업||종합건설업||종합건설업-일반",False
11847,11848,5720008,은혜종합공사,,Grace General Corporation,Shops and Service,Home Improvement Store,126.73128591275092,37.51905313173239,대한민국,KOR,KOR,인천광역시,부평구,,갈산동,,장제로373번길,16-1,29-47,2022-08-08 10:29:42,"산업,유통||건설업||전문건설업||건물설비설치공사||배관,냉난방공사",False
12017,12018,2596739,화순철물건재,화순건재,Hwasun Steel Building Materials,Shops and Service,Home Improvement Store,126.66127500002288,37.428283300621935,대한민국,KOR,KOR,인천광역시,연수구,,청학동,,청솔로,22,62-4,2021-12-23 15:49:18,"쇼핑,편의||건축||철물점",False
12081,12082,4340595,성덕건설,,Seongdeok Construction,Shops and Service,Home Improvement Store,126.71840578481591,37.461144762369685,대한민국,KOR,KOR,인천광역시,남동구,,간석동,,백범로277번길,11,913-5,2022-08-16 16:52:33,"산업,유통||건설업||전문건설업||전문건설업-일반",False
12089,12090,27069229,인천철거,,Incheon Demolition,Shops and Service,Home Improvement Store,126.64873275261186,37.36682278047953,대한민국,KOR,KOR,인천광역시,연수구,,송도동,,송도미래로,30,214,2022-05-01 12:37:48,"산업,유통||건설업||전문건설업||건물,구축물해체공사",False
12090,12091,2602391,일해건설,,IlhaeConstruction,Shops and Service,Home Improvement Store,126.69490136206888,37.44851866312508,대한민국,KOR,KOR,인천광역시,남동구,,구월동,,인주대로522번길,40,1359,2019-11-14 0:00:00,"산업,유통||건설업||전문건설업||전문건설업-일반",False
12238,12239,3336964,재성인테리어,재성인테리어,Jaesung Interior,Shops and Service,Home Improvement Store,126.69965164836093,37.50471341011449,대한민국,KOR,KOR,인천광역시,부평구,,산곡동,,원적로,299,87-900,2021-12-23 15:49:18,"산업,유통||건설업||전문건설업||도배공사",False
12261,12262,27187126,청라태영철물공구,,Cheongna Taeyoung Hardware Tools,Shops and Service,Home Improvement Store,126.64379005789289,37.53692421269021,대한민국,KOR,KOR,인천광역시,서구,,청라동,,청라커낼로319번길,7,148-5,2022-09-06 15:18:26,"쇼핑,편의||건축||철물점",False
12366,12367,27194510,두손건설,,Duson Construction,Shops and Service,Home Improvement Store,126.6771779029449,37.417730151663456,대한민국,KOR,KOR,인천광역시,연수구,,청학동,,벚꽃로,106,496-4,2022-05-01 12:37:48,"산업,유통||건설업||종합건설업||종합건설업-일반",False
12411,12412,5368292,인현산업,,Inhyeon Industrial,Shops and Service,Home Improvement Store,126.61975649999992,37.490668999999805,대한민국,KOR,KOR,인천광역시,동구,,만석동,,보세로26번길,24-68,1-86,2022-05-01 12:37:48,"산업,유통||건설업||종합건설업||종합건설업-일반",False
12454,12455,4915502,진성건설,JSCOMPANY,Jinsung Construction,Shops and Service,Home Improvement Store,126.6589429064489,37.519076319211614,대한민국,KOR,KOR,인천광역시,서구,,원창동,,원창로89번길,9,36-45,2021-12-23 15:49:18,"산업,유통||건설업||전문건설업||전문건설업-일반",False
12501,12502,3112285,리더종합건설,리더건설,Leader Comprehensive Construction,Shops and Service,Home Improvement Store,126.50230639999987,37.7408841999999,대한민국,KOR,KOR,인천광역시,강화군,,강화읍,갑곳리,강화대로,246,409-1,2017-09-29 10:10:10,"산업,유통||건설업||전문건설업||전문건설업-일반",False
12528,12529,27044431,별빛수도설비,,Starlight water system,Shops and Service,Home Improvement Store,126.72976721997492,37.44933734289096,대한민국,KOR,KOR,인천광역시,남동구,,만수동,,하촌서로,8,978-21,2022-05-01 12:37:48,"산업,유통||건설업||전문건설업||건물설비설치공사||배관,냉난방공사",False
12532,12533,27495719,공간건축,,space architecture,Shops and Service,Home Improvement Store,126.72169061569961,37.5445286949276,대한민국,KOR,KOR,인천광역시,계양구,,계산동,,경명대로1029번길,8-5,931-14,2022-08-26 9:52:19,"산업,유통||건설업||전문건설업||전문건설업-일반",False
12572,12573,5709549,라엘건축디자인,라엘디자인,Rael Architecture design,Shops and Service,Home Improvement Store,126.75404935986992,37.450701508475056,대한민국,KOR,KOR,인천광역시,남동구,,장수동,,장자로,40,788-7,2022-08-16 16:52:33,"산업,유통||건설업||건설업-일반",False
12738,12739,6209471,맥가이버철물점,,MacGyver hardware store,Shops and Service,Home Improvement Store,126.43783777778462,37.51935036466222,대한민국,KOR,KOR,인천광역시,옹진군,,북도면,신도리,신도로,73,556,2022-05-01 12:37:48,"쇼핑,편의||건축||철물점",False
12808,12809,27498550,선경종합건설,,Sunkyung Construction,Shops and Service,Home Improvement Store,126.6807762579029,37.456350715177365,대한민국,KOR,KOR,인천광역시,미추홀구,,주안동,,미추홀대로666번길,14-22,464-10,2022-08-26 9:52:19,"산업,유통||건설업||종합건설업||건물건설||건물건설-일반",False
12816,12817,5669411,신정건설,,Shinjeong Construction,Shops and Service,Home Improvement Store,126.71607260698087,37.464322798076395,대한민국,KOR,KOR,인천광역시,남동구,,간석동,,간석로72번길,45-16,224-574,2022-05-01 12:37:48,"산업,유통||건설업||전문건설업||전문건설업-일반",False
12960,12961,3897574,혜성전기,혜성전기조명,Comet Electric,Shops and Service,Home Improvement Store,126.69370567739487,37.471984213445566,대한민국,KOR,KOR,인천광역시,부평구,,십정동,,백범로,532,349-13,2022-08-12 13:15:03,"산업,유통||건설업||전문건설업||전기공사",False
13001,13002,27490277,SM건설,,SM Construction,Shops and Service,Home Improvement Store,126.62792919999994,37.53337189999982,대한민국,KOR,KOR,인천광역시,서구,,청라동,,청라한내로,90,96-2,2022-09-06 15:18:26,"산업,유통||건설업||전문건설업||전문건설업-일반",False
13306,13307,1258346,금강철물,,gold steel,Shops and Service,Home Improvement Store,126.70137028091388,37.47431737119928,대한민국,KOR,KOR,인천광역시,부평구,,십정동,,하정로,11,392-20,2021-12-23 15:49:18,"쇼핑,편의||건축||철물점",False
13307,13308,5681998,경일설비,,Gyeongilsa Temple,Shops and Service,Home Improvement Store,126.70528301106592,37.50016964120324,대한민국,KOR,KOR,인천광역시,부평구,,산곡동,,부흥로123번길,35,263-15,2022-09-06 15:18:26,"쇼핑,편의||건축||철물점",False
13404,13405,20482690,두경건설,,Dookyung Construction,Shops and Service,Home Improvement Store,126.67116606954193,37.547335486002126,대한민국,KOR,KOR,인천광역시,서구,,연희동,,대평로,52-1,746-15,2022-05-01 12:37:48,"산업,유통||건설업||전문건설업||전문건설업-일반",False
13508,13509,5673869,철산건축설비,,Cheolsan Construction Equipment,Shops and Service,Home Improvement Store,126.67526208884688,37.44674811850058,대한민국,KOR,KOR,인천광역시,미추홀구,,주안동,,신기길30번길,25,1334-7,2021-12-23 15:49:18,"산업,유통||건설업||전문건설업||전문건설업-일반",False
13544,13545,27134101,하수구변기막힘씽크대정화조막힘역류수리누수수도설비,,Clogged sewer toilet Clogged sink and septic tank Backflow repair Leakage water system,Shops and Service,Home Improvement Store,126.67147627200487,37.546014839329686,대한민국,KOR,KOR,인천광역시,서구,,심곡동,,용두산로14번길,8,325-22,2022-08-12 13:15:03,"산업,유통||건설업||전문건설업||건물설비설치공사||배관,냉난방공사",False
13570,13571,5655307,태림건설,,Taelim Construction,Shops and Service,Home Improvement Store,126.63606366676083,37.58778568396062,대한민국,KOR,KOR,인천광역시,서구,,왕길동,,원당대로,307,594-4,2022-05-01 12:37:48,"산업,유통||건설업||전문건설업||전문건설업-일반",False
13614,13615,5933425,태일전기온돌판넬온수기,,Taeil Electric Ondol panel water heater,Shops and Service,Home Improvement Store,126.63883082456884,37.47005716543956,대한민국,KOR,KOR,인천광역시,중구,,유동,,도원로,63-1,4-1,2022-08-16 16:52:33,"산업,유통||건설업||전문건설업||건물설비설치공사||배관,냉난방공사",False
13676,13677,5700501,부광종합공사,부광공사,Bukwang General Corporation,Shops and Service,Home Improvement Store,126.73396937534592,37.50032823321609,대한민국,KOR,KOR,인천광역시,부평구,,부평동,,부흥북로108번길,12,104-5,2021-12-23 15:49:18,"산업,유통||건설업||전문건설업||전문건설업-일반",False
13729,13730,27180931,가나전기누전,,Ghana electric short circuit,Shops and Service,Home Improvement Store,126.70664673183389,37.44705159272208,대한민국,KOR,KOR,인천광역시,남동구,,구월동,,남동대로725번길,5,1157-3,2022-06-13 10:44:13,"산업,유통||건설업||전문건설업||전기공사",False
13783,13784,27037053,종합건축설비,,Comprehensive building equipment,Shops and Service,Home Improvement Store,126.68477456378093,37.4549816198242,대한민국,KOR,KOR,인천광역시,미추홀구,,주안동,,동주길,83,414-56,2022-05-01 12:37:48,"산업,유통||건설업||전문건설업||건물설비설치공사||배관,냉난방공사",False
13833,13834,20201572,진승종합건축설비,진승건축설비,Jinseung Construction Equipment,Shops and Service,Home Improvement Store,126.63460282066595,37.47081899684319,대한민국,KOR,KOR,인천광역시,중구,,율목동,,서해대로483번길,40,16,2022-08-24 14:41:06,"산업,유통||건설업||전문건설업||수도설비공사",False
14093,14094,20484006,명일건축디자인,,Myungil Architecture Design,Shops and Service,Home Improvement Store,126.67363341098896,37.50091546586472,대한민국,KOR,KOR,인천광역시,서구,,석남동,,석남로,107,577-33,2022-05-01 12:37:48,"산업,유통||건설업||종합건설업||건물건설||건물개수보수공사",False
14304,14305,26875884,등대건설,,lighthouse construction,Shops and Service,Home Improvement Store,126.71207962710096,37.52604749852152,대한민국,KOR,KOR,인천광역시,계양구,,효성동,,아나지로183번길,8,273-66,2022-05-01 12:37:48,"산업,유통||건설업||전문건설업||전문건설업-일반",False
14311,14312,4324826,주민전기철물,,Resident Electric Hardware,Shops and Service,Home Improvement Store,126.69416361118788,37.447837933486475,대한민국,KOR,KOR,인천광역시,남동구,,구월동,,인하로411번길,30-6,1386-3,2022-08-16 16:52:33,"쇼핑,편의||건축||철물점",False
14464,14465,27087908,정보건설산업,,information construction industry,Shops and Service,Home Improvement Store,126.5595425458558,37.48840025457366,대한민국,KOR,KOR,인천광역시,중구,,중산동,,자연대로,41,1873-5,2022-05-01 12:37:48,"산업,유통||건설업||종합건설업||건물건설||건물개수보수공사",False
14588,14589,27139471,플러스전기,,Plus Electric,Shops and Service,Home Improvement Store,126.71972219999988,37.516764699999776,대한민국,KOR,KOR,인천광역시,부평구,,청천동,,부평대로,283,425,2022-08-08 10:29:42,"산업,유통||건설업||전문건설업||전기공사",False
14610,14611,4329170,예주종합공사 인천지사,,Yeju General Corporation,Shops and Service,Home Improvement Store,126.66688133754464,37.451863535123685,대한민국,KOR,KOR,인천광역시,미추홀구,,용현동,,한나루로501번길,8,2-7,2022-05-01 12:37:48,"산업,유통||건설업||전문건설업||전문건설업-일반",False
14648,14649,27359463,하수구뚫음,,sewer drilling,Shops and Service,Home Improvement Store,126.67075059999996,37.409642799999766,대한민국,KOR,KOR,인천광역시,연수구,,동춘동,,먼우금로,117,921-2,2022-06-29 11:25:35,"산업,유통||건설업||전문건설업||건물설비설치공사||배관,냉난방공사",False
14666,14667,3129780,제일전기철물,,Jeil Electric Steel,Shops and Service,Home Improvement Store,126.67689999999996,37.59014199999983,대한민국,KOR,KOR,인천광역시,서구,,당하동,,청마로,145,1098-1,2018-07-02 0:00:00,"쇼핑,편의||건축||철물점",False
14693,14694,27127918,현대종합설비,,HYUNDAI COMPLETE EQUIPMENT,Shops and Service,Home Improvement Store,126.64192779683286,37.47621108115329,대한민국,KOR,KOR,인천광역시,동구,,송림동,,솔빛로,76-2,154-39,2022-07-05 16:31:26,"산업,유통||건설업||전문건설업||건물설비설치공사||건물설비설치공사-일반",False
14956,14957,1255716,예건인테리어,,Yegun Interior,Shops and Service,Home Improvement Store,126.65460982651317,37.42544537147279,대한민국,KOR,KOR,인천광역시,연수구,,옥련동,,청량로184번길,52,357-4,2022-08-12 13:15:03,"산업,유통||건설업||전문건설업||전문건설업-일반",False
15055,15056,5876531,대일닥트공사,,Daeil Duct Construction,Shops and Service,Home Improvement Store,126.70778251223788,37.44845877332718,대한민국,KOR,KOR,인천광역시,남동구,,구월동,,남동대로,742,1191-3,2022-05-01 12:37:48,"산업,유통||건설업||전문건설업||건물설비설치공사||배관,냉난방공사",False
15115,15116,4357517,새한전기공사,,Saehan Electric Corporation,Shops and Service,Home Improvement Store,126.71288640346891,37.525501058018094,대한민국,KOR,KOR,인천광역시,계양구,,효성동,,아나지로,189,273-97,2021-12-23 15:49:18,"산업,유통||건설업||전문건설업||전기공사",False
15144,15145,5704930,OK종합집수리,OK집수리,OK general house repair,Shops and Service,Home Improvement Store,126.70736076905588,37.52006193589828,대한민국,KOR,KOR,인천광역시,부평구,,청천동,,평천로,139,392-8,2019-11-14 23:28:46,"산업,유통||건설업||전문건설업||전문건설업-일반",False
15168,15169,27100827,다해산업,,Dahae Industry,Shops and Service,Home Improvement Store,126.75645069999996,37.53707799999982,대한민국,KOR,KOR,인천광역시,계양구,,서운동,,서운산단로2길,88,209,2022-05-01 12:37:48,"산업,유통||건설업||종합건설업||종합건설업-일반",False
15191,15192,27229356,하수구뚫는곳싱크대뚫는곳변기뚫는곳고압세척하수구업체,,Sewer piercing sink piercing toilet piercing high pressure washing sewer company,Shops and Service,Home Improvement Store,126.69605899999993,37.4758509999998,대한민국,KOR,KOR,인천광역시,부평구,,십정동,,열우물로,103,279-20,2022-08-02 16:47:12,"산업,유통||건설업||전문건설업||전문건설업-일반",False
15402,15403,27070660,광원건설,,Light Source Construction,Shops and Service,Home Improvement Store,126.63686149999992,37.38248439999977,대한민국,KOR,KOR,인천광역시,연수구,,송도동,,벤처로,10,10-39,2022-05-01 12:37:48,"산업,유통||건설업||종합건설업||종합건설업-일반",False
15443,15444,5662860,우리철물전기,,Woori Steel Electric,Shops and Service,Home Improvement Store,126.72675141384985,37.46008243592304,대한민국,KOR,KOR,인천광역시,남동구,,만수동,,만수서로3번길,18,864-12,2022-05-01 12:37:48,"쇼핑,편의||건축||철물점",False
15447,15448,5682616,아인종합건설,아인건설,Ain Construction,Shops and Service,Home Improvement Store,126.49919641444072,37.49407383530164,대한민국,KOR,KOR,인천광역시,중구,,운서동,,화랑목로100번길,65-1,3046-11,2022-08-08 10:29:42,"산업,유통||건설업||전문건설업||전문건설업-일반",False
15634,15635,4338608,금오설비철물,,Geumo Equipment Hardware,Shops and Service,Home Improvement Store,126.7200391743559,37.54540213212931,대한민국,KOR,KOR,인천광역시,계양구,,계산동,,경명대로1017번길,17,896-9,2022-08-16 16:52:33,"쇼핑,편의||건축||철물점",False
15701,15702,27038121,시원설비,,cooling equipment,Shops and Service,Home Improvement Store,126.69460185275092,37.44965682437919,대한민국,KOR,KOR,인천광역시,남동구,,구월동,,인주대로522번길,14,1343-1,2022-05-01 12:37:48,"산업,유통||건설업||전문건설업||전문건설업-일반",False
15782,15783,4340634,동화산업,,Dongwha Industry,Shops and Service,Home Improvement Store,126.6993729534939,37.39561345076665,대한민국,KOR,KOR,인천광역시,남동구,,고잔동,,남동동로124번길,25,665-21,2022-05-01 12:37:48,"산업,유통||건설업||전문건설업||건물설비설치공사||배관,냉난방공사",False
16090,16091,2610173,성심설비,,Sacred Heart Equipment,Shops and Service,Home Improvement Store,126.68583889999987,37.44610830000007,대한민국,KOR,KOR,인천광역시,미추홀구,,주안동,,주승로,141-19,1210-3,2021-12-23 15:49:18,"산업,유통||건설업||전문건설업||전문건설업-일반",False
16101,16102,5688289,강화건설,,Ganghwa Construction,Shops and Service,Home Improvement Store,126.4931243999987,37.65652089999959,대한민국,KOR,KOR,인천광역시,강화군,,길상면,길직리,강화동로,193,1064-2,2019-03-18 0:00:00,"산업,유통||건설업||전문건설업||전문건설업-일반",False
16288,16289,27418326,하수구뚫는곳싱크대뚫는곳변기뚫는곳고압세척하수구업체,,Sewer piercing sink piercing toilet piercing high pressure washing sewer company,Shops and Service,Home Improvement Store,126.65510239999993,37.42738759999979,대한민국,KOR,KOR,인천광역시,연수구,,옥련동,,비류대로186번길,14,643-1,2022-08-02 16:47:12,"산업,유통||건설업||전문건설업||전문건설업-일반",False
16301,16302,2148830,대성종합건축,대성건축,Daesung Construction,Shops and Service,Home Improvement Store,126.46728619979864,37.7144198013501,대한민국,KOR,KOR,인천광역시,강화군,,선원면,냉정리,중앙로,421,839-7,2021-12-23 15:49:18,"산업,유통||건설업||전문건설업||전문건설업-일반",False
16460,16461,20692393,부림건설산업,,Burim Construction Industry,Shops and Service,Home Improvement Store,126.67642500052789,37.59325709959444,대한민국,KOR,KOR,인천광역시,서구,,당하동,,원당대로,676,1092-10,2022-06-13 10:44:13,"산업,유통||건설업||종합건설업||종합건설업-일반",False
16581,16582,20184154,시공사우리,,construction company,Shops and Service,Home Improvement Store,126.75403961683197,37.45070295673528,대한민국,KOR,KOR,인천광역시,남동구,,장수동,,장자로,40,788-7,2021-12-23 15:49:18,"산업,유통||건설업||전문건설업||전문건설업-일반",False
16644,16645,20201624,유현종합건축,유현건축,Yoohyeon Construction,Shops and Service,Home Improvement Store,126.73062077264996,37.495707758541904,대한민국,KOR,KOR,인천광역시,부평구,,부평동,,장제로,114-1,134-17,2022-05-01 12:37:48,"산업,유통||건설업||전문건설업||전문건설업-일반",False
16680,16681,27121764,리크서비스누수탐지,,Leak service leak detection,Shops and Service,Home Improvement Store,126.68501239999996,37.43769739999978,대한민국,KOR,KOR,인천광역시,미추홀구,,문학동,,소성로,339,385-6,2022-05-01 12:37:48,"산업,유통||건설업||전문건설업||건물설비설치공사||배관,냉난방공사",False
16782,16783,27206424,다옴종합건설,,Daom Construction,Shops and Service,Home Improvement Store,126.67711290213188,37.417749651599145,대한민국,KOR,KOR,인천광역시,연수구,,청학동,,벚꽃로,106,496-4,2022-08-18 12:00:50,"산업,유통||건설업||종합건설업||토목건설||토목건설-일반",False
16789,16790,4343291,성운전기조명철물,성운전기철물,sex driver lighting hardware,Shops and Service,Home Improvement Store,126.73615242542095,37.46418576872959,대한민국,KOR,KOR,인천광역시,남동구,,만수동,,만수로75번길,46,5-177,2022-08-24 14:41:06,"쇼핑,편의||건축||철물점",False
16906,16907,27286535,하수구뚫는곳싱크대뚫는곳변기뚫는곳고압세척하수구업체,,Sewer piercing sink piercing toilet piercing high pressure washing sewer company,Shops and Service,Home Improvement Store,126.63727089999992,37.4656465999998,대한민국,KOR,KOR,인천광역시,중구,,선화동,,도원로14번길,9-3,6-4,2022-08-02 16:47:12,"산업,유통||건설업||전문건설업||건물설비설치공사||배관,냉난방공사",False
17106,17107,27181927,청종합건설,,Cheong General Construction,Shops and Service,Home Improvement Store,126.70362812139987,37.444038972869166,대한민국,KOR,KOR,인천광역시,남동구,,구월동,,인하로511번길,18,1173-22,2022-08-16 16:52:33,"산업,유통||건설업||종합건설업||종합건설업-일반",False
17184,17185,27181877,동원설비누수탐지,,Dongwon facility leak detection,Shops and Service,Home Improvement Store,126.70403909999995,37.44611169999979,대한민국,KOR,KOR,인천광역시,남동구,,구월동,,인주대로604번길,49-44,1162-19,2022-08-12 13:15:03,"산업,유통||건설업||전문건설업||건물설비설치공사||배관,냉난방공사",False
17314,17315,27130742,형진건설,,Hyungjin Construction,Shops and Service,Home Improvement Store,126.66824579818488,37.52125433901218,대한민국,KOR,KOR,인천광역시,서구,,신현동,,염곡로,409,305-1,2022-05-01 12:37:48,"산업,유통||건설업||건설업-일반",False
17326,17327,5718498,동양종합설비,동양설비,Dongyang General Equipment,Shops and Service,Home Improvement Store,126.7303370515229,37.454103938880976,대한민국,KOR,KOR,인천광역시,남동구,,만수동,,하촌로59번길,52-15,948-13,2021-12-23 15:49:18,"산업,유통||건설업||전문건설업||전문건설업-일반",False
17366,17367,27252777,송도닥트공사,,Songdo duct construction,Shops and Service,Home Improvement Store,126.70009999999988,37.396699999999775,대한민국,KOR,KOR,인천광역시,남동구,,고잔동,,남동동로138번길,29,664-17,2022-05-01 12:37:48,"산업,유통||건설업||전문건설업||전문건설업-일반",False
17400,17401,6227164,경인설비,,Gyeongin Equipment,Shops and Service,Home Improvement Store,126.67713474643196,37.49214553825461,대한민국,KOR,KOR,인천광역시,서구,,가좌동,,원적로57번길,27,215,2022-08-24 14:41:06,"산업,유통||건설업||전문건설업||전문건설업-일반",False
17407,17408,26868924,정원인테리어,,garden interior,Shops and Service,Home Improvement Store,126.71058426511294,37.4632826158094,대한민국,KOR,KOR,인천광역시,남동구,,간석동,,석촌로36번길,20-15,183-2,2022-05-01 12:37:48,"산업,유통||건설업||전문건설업||유리,창호공사",False
17447,17448,5716172,시그마종합건설 인천지사,시그마건설,Sigma Construction Incheon Branch,Shops and Service,Home Improvement Store,126.64530346489887,37.50702540952908,대한민국,KOR,KOR,인천광역시,서구,,원창동,,북항로,30,381-75,2020-01-14 23:24:59,"산업,유통||건설업||종합건설업||종합건설업-일반",False
17498,17499,27195552,우리전기안전관리,,Woori Electric Safety Management,Shops and Service,Home Improvement Store,126.6557857873269,37.427651536183454,대한민국,KOR,KOR,인천광역시,연수구,,옥련동,,한나루로201번길,23,289-14,2022-08-16 16:52:33,"산업,유통||건설업||전문건설업||전기공사",False
17609,17610,27190801,신남철물,,Shinnam Hardware,Shops and Service,Home Improvement Store,126.73221000692043,37.45375632421901,대한민국,KOR,KOR,인천광역시,남동구,,만수동,,구월로372번길,21-6,953-1,2022-08-16 16:52:33,"쇼핑,편의||건축||철물점",False
17642,17643,5675420,제일철물,,first iron,Shops and Service,Home Improvement Store,126.70309405090488,37.51924710423651,대한민국,KOR,KOR,인천광역시,부평구,,청천동,,청중로51번길,36,17-32,2022-05-01 12:37:48,"쇼핑,편의||건축||철물점",False
17678,17679,5670526,중앙설비,,central facility,Shops and Service,Home Improvement Store,126.64212152996086,37.45274805446947,대한민국,KOR,KOR,인천광역시,미추홀구,,용현동,,낙섬동로,82,610-213,2021-12-23 15:49:18,"산업,유통||건설업||전문건설업||전문건설업-일반",False
17714,17715,4345463,창성건축설비,,Changseong Construction Equipment,Shops and Service,Home Improvement Store,126.6747504560229,37.49579907002527,대한민국,KOR,KOR,인천광역시,서구,,가좌동,,가정로126번길,25-1,142-46,2020-01-14 0:00:00,"산업,유통||건설업||전문건설업||미장,타일,방수공사",False
17730,17731,2604212,대성건축백화점,,Daesung Architecture Department store,Shops and Service,Home Improvement Store,126.7112800277369,37.52777574231381,대한민국,KOR,KOR,인천광역시,계양구,,효성동,,안남로,502,251-13,2022-08-24 14:41:06,"산업,유통||건설업||전문건설업||전문건설업-일반",False
17748,17749,5697848,주현종합설비건축,주현설비건축,Joohyeon General Equipment Construction,Shops and Service,Home Improvement Store,126.32227109999965,37.70409639999988,대한민국,KOR,KOR,인천광역시,강화군,,삼산면,석모리,삼산북로,460,445-5,2021-12-23 15:49:18,"산업,유통||건설업||전문건설업||건물설비설치공사||건물설비설치공사-일반",False
17763,17764,3465150,대원전기건설공사,대원건설공사,Daewon Electric Construction,Shops and Service,Home Improvement Store,126.72740022885893,37.51781329271859,대한민국,KOR,KOR,인천광역시,부평구,,갈산동,,평천로,336,73-16,2022-08-16 16:52:33,"산업,유통||건설업||전문건설업||전기공사",False
17770,17771,27185592,하수구변기막힘수로설비24시,,Sewer toilet clogged waterway facility 24 hours,Shops and Service,Home Improvement Store,126.6872950999999,37.48627209999978,대한민국,KOR,KOR,인천광역시,서구,,가좌동,,열우물로240번길,37,360-7,2022-05-01 12:37:48,"산업,유통||건설업||전문건설업||건물설비설치공사||배관,냉난방공사",False
17881,17882,5666806,다고쳐 종합집수리센타,,Dagochi General Home Repair Center,Shops and Service,Home Improvement Store,126.70100776440188,37.508494010140495,대한민국,KOR,KOR,인천광역시,부평구,,산곡동,,길주로354번길,4,15-32,2019-11-14 23:28:51,"산업,유통||건설업||종합건설업||건물건설||건물개수보수공사",False
17890,17891,4402133,태일공사,,Taeil Corporation,Shops and Service,Home Improvement Store,126.7008193671449,37.46714738402897,대한민국,KOR,KOR,인천광역시,남동구,,간석동,,석정로580번길,22,575-2,2022-08-12 13:15:03,"산업,유통||건설업||전문건설업||건물설비설치공사||배관,냉난방공사",False
17923,17924,27220238,비씨전기,,BC Electric,Shops and Service,Home Improvement Store,126.6788773141219,37.436566046587664,대한민국,KOR,KOR,인천광역시,미추홀구,,문학동,,소성로282번길,13-14,162-10,2022-05-01 12:37:48,"산업,유통||건설업||전문건설업||전기공사",False
17936,17937,6230809,제일종합설비,제일설비,Cheil General Equipment,Shops and Service,Home Improvement Store,126.6751529234489,37.446199256358966,대한민국,KOR,KOR,인천광역시,미추홀구,,주안동,,인하로236번길,49-25,1335-28,2021-12-23 15:49:18,"산업,유통||건설업||전문건설업||전문건설업-일반",False
18092,18093,3125982,세진건축설비공사,세진설비공사,Sejin Construction Equipment Construction,Shops and Service,Home Improvement Store,126.67305501302543,37.50101331781568,대한민국,KOR,KOR,인천광역시,서구,,석남동,,석남로,101,577-45,2022-05-01 12:37:48,"산업,유통||건설업||전문건설업||전문건설업-일반",False
18201,18202,3130273,디엔에이건축,D&A건축,DNA Architecture,Shops and Service,Home Improvement Store,126.66730429663288,37.49583541215038,대한민국,KOR,KOR,인천광역시,서구,,가좌동,,염곡로,128-2,148-48,2020-01-14 23:37:31,"산업,유통||건설업||전문건설업||전문건설업-일반",False
18252,18253,5721574,남산건축설비,남산설비,Namsan Construction Equipment,Shops and Service,Home Improvement Store,126.48503309999984,37.7452551999999,대한민국,KOR,KOR,인천광역시,강화군,,강화읍,신문리,남문안길,16,66,2018-08-16 9:30:30,"산업,유통||건설업||전문건설업||전문건설업-일반",False
18260,18261,3127672,신영철물,,Shin Young-cheol,Shops and Service,Home Improvement Store,126.72416849982592,37.497044401340695,대한민국,KOR,KOR,인천광역시,부평구,,부평동,,대정로,23,374-12,2022-05-01 12:37:48,"쇼핑,편의||건축||철물점",False
18505,18506,20202453,정우건축,,Jungwoo Architecture,Shops and Service,Home Improvement Store,126.67591226473692,37.44988398002948,대한민국,KOR,KOR,인천광역시,미추홀구,,주안동,,미추홀대로587번길,63-4,1440-15,2021-12-23 15:49:18,"산업,유통||건설업||전문건설업||전문건설업-일반",False
18581,18582,6510975,태영건설산업,,Taeyoung Construction Industry,Shops and Service,Home Improvement Store,126.73345900029696,37.45382729970269,대한민국,KOR,KOR,인천광역시,남동구,,만수동,,하촌로,67,957-6,2020-04-21 23:20:12,"산업,유통||건설업||건설업-일반",False
18595,18596,5664310,정성건축공사,,"Jeongseong Construction Co., Ltd.",Shops and Service,Home Improvement Store,126.6664905808479,37.45687837170836,대한민국,KOR,KOR,인천광역시,미추홀구,,주안동,,수봉로182번길,65,587-3,2022-05-01 12:37:48,"산업,유통||건설업||전문건설업||전문건설업-일반",False
18627,18628,5707575,한양종합설비,한양설비,Hanyang General Facilities,Shops and Service,Home Improvement Store,126.7150202816599,37.46165983522298,대한민국,KOR,KOR,인천광역시,남동구,,간석동,,석산로207번길,19,33-6,2022-05-01 12:37:48,"산업,유통||건설업||전문건설업||전문건설업-일반",False
18649,18650,5684435,제일건축경인출장소,,Jeil Architecture Gyeongin Branch,Shops and Service,Home Improvement Store,126.68497012117587,37.455891706767886,대한민국,KOR,KOR,인천광역시,미추홀구,,주안동,,동주길,102,390-54,2021-12-23 15:49:18,"산업,유통||건설업||전문건설업||시설물축조공사||지붕공사",False
18655,18656,3127231,인천상회,,Incheon Sanghoe,Shops and Service,Home Improvement Store,126.68046019664332,37.49738776787992,대한민국,KOR,KOR,인천광역시,서구,,가좌동,,건지로348번길,4-4,184-73,2022-05-01 12:37:48,"쇼핑,편의||건축||철물점",False
18750,18751,4579180,계양건설,,Gyeyang Construction,Shops and Service,Home Improvement Store,126.73596320982195,37.53870524886162,대한민국,KOR,KOR,인천광역시,계양구,,계산동,,계산새로,71,1062,2019-11-14 23:28:29,"산업,유통||건설업||전문건설업||전문건설업-일반",False
18793,18794,5711670,미래타운종합건축,미래타운건축,Future Town Comprehensive Architecture,Shops and Service,Home Improvement Store,126.74215250027297,37.5194574883971,대한민국,KOR,KOR,인천광역시,부평구,,삼산동,,영성서로,15-12,80-13,2019-11-14 23:28:51,"산업,유통||건설업||전문건설업||전문건설업-일반",False
18853,18854,27550123,대영설비공사,,Daeyoung Equipment Corporation,Shops and Service,Home Improvement Store,126.73405243541296,37.499705103235016,대한민국,KOR,KOR,인천광역시,부평구,,부개동,,부흥북로108번길,25,16-102,2022-09-06 15:18:26,"산업,유통||건설업||전문건설업||수도설비공사",False
18976,18977,6211155,인천가스설비,,Incheon Gas Facility,Shops and Service,Home Improvement Store,126.72692720251192,37.5460850058232,대한민국,KOR,KOR,인천광역시,계양구,,계산동,,계수로,16-1,923-2,2022-05-01 12:37:48,"산업,유통||건설업||전문건설업||건물설비설치공사||건물설비설치공사-일반",False
19152,19153,6211052,이한건축설비,이한설비,Leehan Construction Equipment,Shops and Service,Home Improvement Store,126.6733160760599,37.45993330387897,대한민국,KOR,KOR,인천광역시,미추홀구,,도화동,,제일로27번길,19,430-37,2021-12-23 15:49:18,"산업,유통||건설업||전문건설업||전문건설업-일반",False
19165,19166,5667203,선인건설,,SeoninConstruction,Shops and Service,Home Improvement Store,126.65561969999995,37.424914599999774,대한민국,KOR,KOR,인천광역시,연수구,,옥련동,,한나루로,173,351-4,2022-06-29 11:25:35,"산업,유통||건설업||전문건설업||전문건설업-일반",False
19275,19276,4347854,성창건설,,Sungchang Construction,Shops and Service,Home Improvement Store,126.72513458147795,37.488278451478095,대한민국,KOR,KOR,인천광역시,부평구,,부평동,,육동로,31-1,694-3,2022-05-01 12:37:48,"산업,유통||건설업||전문건설업||전문건설업-일반",False
19356,19357,27230408,하수구막힘하수구뚫음변기싱크대막힘뚫음B&P,,Clogged Sewer Cleared Toilet Sink Cleared B&P,Shops and Service,Home Improvement Store,126.69189999999996,37.610399999999856,대한민국,KOR,KOR,인천광역시,서구,,불로동,,,,산73-5,2022-08-02 16:47:12,"산업,유통||건설업||전문건설업||건물설비설치공사||배관,냉난방공사",False
19364,19365,26960428,대명철물전기앵글,,Daemyung Iron Electric Angle,Shops and Service,Home Improvement Store,126.6866038949129,37.466083363341376,대한민국,KOR,KOR,인천광역시,미추홀구,,주안동,,석정로,460,22-51,2022-05-01 12:37:48,"쇼핑,편의||건축||철물점",False
19415,19416,27200917,라일건설,,Ryle Construction,Shops and Service,Home Improvement Store,126.6773923948119,37.46383458208367,대한민국,KOR,KOR,인천광역시,미추홀구,,주안동,,주안로,70,267-1,2022-08-16 16:52:33,"산업,유통||건설업||종합건설업||건물건설||건물건설-일반",False
19515,19516,5707271,삼진건축설비,삼진설비,Samjin Construction Equipment,Shops and Service,Home Improvement Store,126.7066772262759,37.47129309928149,대한민국,KOR,KOR,인천광역시,부평구,,십정동,,동암남로35번길,19,507-2,2021-12-23 15:49:18,"산업,유통||건설업||전문건설업||전문건설업-일반",False
19528,19529,4329951,부자종합공사,,Busan General Corporation,Shops and Service,Home Improvement Store,126.7176520976439,37.459098384120395,대한민국,KOR,KOR,인천광역시,남동구,,구월동,,당좌로35번길,7,4-79,2022-05-01 12:37:48,"산업,유통||건설업||전문건설업||수도설비공사",False
19634,19635,27115446,경동창호건설,,Kyungdong Window Construction,Shops and Service,Home Improvement Store,126.63633794128584,37.46858793254537,대한민국,KOR,KOR,인천광역시,중구,,유동,,도산로,3-19,22-4,2022-08-12 13:15:03,"산업,유통||건설업||전문건설업||유리,창호공사",False
19642,19643,6226234,중앙공사,,Central Corporation,Shops and Service,Home Improvement Store,126.62272432542784,37.47209443207836,대한민국,KOR,KOR,인천광역시,중구,,중앙동3가,,신포로23번길,41-1,4-47,2021-12-23 15:49:18,"산업,유통||건설업||전문건설업||전문건설업-일반",False
19674,19675,2604168,거성닥트공사,,Geoseong Duct Construction,Shops and Service,Home Improvement Store,126.63653036066007,37.464510294265246,대한민국,KOR,KOR,인천광역시,중구,,신흥동3가,,인중로,60,12-13,2022-05-01 12:37:48,"산업,유통||건설업||전문건설업||건물설비설치공사||배관,냉난방공사",False
19776,19777,4041757,제이티엠건설,,J TM Construction,Shops and Service,Home Improvement Store,126.7014901537689,37.467759038600974,대한민국,KOR,KOR,인천광역시,남동구,,간석동,,백범로,447,574-28,2019-11-14 23:24:34,"산업,유통||건설업||전문건설업||전문건설업-일반",False
19885,19886,20200161,창인설비,,Changin equipment,Shops and Service,Home Improvement Store,126.66140200280196,37.58383922554204,대한민국,KOR,KOR,인천광역시,서구,,왕길동,,봉수대로,1203,13-7,2021-12-23 15:49:18,"산업,유통||건설업||전문건설업||건물설비설치공사||건물설비설치공사-일반",False
19895,19896,5706245,스마일 누수탐지 종합건축,스마일공사,Smile Leakage Detection Comprehensive Construction,Shops and Service,Home Improvement Store,126.69281067982789,37.444326278156765,대한민국,KOR,KOR,인천광역시,미추홀구,,관교동,,주승로,205,483-6,2022-08-18 12:00:50,"산업,유통||건설업||전문건설업||건물설비설치공사||배관,냉난방공사",False
19909,19910,27185001,하수구막힘,,clogged drain,Shops and Service,Home Improvement Store,126.73540919999996,37.50757089999979,대한민국,KOR,KOR,인천광역시,부평구,,삼산동,,충선로203번길,16,460-7,2022-05-01 12:37:48,"산업,유통||건설업||전문건설업||건물설비설치공사||배관,냉난방공사",False
20067,20068,27327700,야긴종합건설,,Yagin Construction,Shops and Service,Home Improvement Store,126.69639952369188,37.43080936663407,대한민국,KOR,KOR,인천광역시,연수구,,선학동,,넘말로55번길,6-12,386-4,2022-08-16 16:52:33,"산업,유통||건설업||종합건설업||종합건설업-일반",False
20230,20231,1983485,진수도금,,dipping platter,Shops and Service,Home Improvement Store,126.70205702658988,37.409606743297466,대한민국,KOR,KOR,인천광역시,남동구,,논현동,,남동대로,284,434-10,2019-11-14 23:05:38,"산업,유통||건설업||전문건설업||수도설비공사",False
20281,20282,20037460,영흥종합설비,영흥설비,Yeongheung General Facility,Shops and Service,Home Improvement Store,126.74124701696294,37.49500409345,대한민국,KOR,KOR,인천광역시,부평구,,부개동,,수변로107번길,23,120-406,2021-12-23 15:49:18,"산업,유통||건설업||전문건설업||전문건설업-일반",False
20306,20307,27116907,삼일건설중기,,Samil Construction & Construction,Shops and Service,Home Improvement Store,126.73366689999996,37.4533170999998,대한민국,KOR,KOR,인천광역시,남동구,,만수동,,하촌로,64,958-2,2022-05-01 12:37:48,"산업,유통||건설업||전문건설업||전문건설업-일반",False
20375,20376,6233088,백두전기,,Baekdu Electric,Shops and Service,Home Improvement Store,126.65506787697592,37.48693428843959,대한민국,KOR,KOR,인천광역시,동구,,송림동,,방축로83번길,23,294,2022-05-01 12:37:48,"산업,유통||건설업||전문건설업||전기공사",False
20393,20394,27185391,24시하수구전문설비,,24 hour sewer facility,Shops and Service,Home Improvement Store,126.68298163897592,37.4881275758277,대한민국,KOR,KOR,인천광역시,서구,,가좌동,,장고개로280번길,4-1,333-3,2022-05-01 12:37:48,"산업,유통||건설업||전문건설업||수도설비공사",False
20411,20412,27184421,해오름지붕공사,,Haeoreum Roof Construction,Shops and Service,Home Improvement Store,126.72174909999993,37.48868249999979,대한민국,KOR,KOR,인천광역시,부평구,,부평동,,남부역로,16,742,2022-05-01 12:37:48,"산업,유통||건설업||전문건설업||시설물축조공사||지붕공사",False
20618,20619,35794,대성철물,,Daesung Hardware,Shops and Service,Home Improvement Store,126.68439418583588,37.425421787440754,대한민국,KOR,KOR,인천광역시,연수구,,연수동,,함박로,64,512-4,2022-08-24 14:41:06,"쇼핑,편의||건축||철물점",False
20619,20620,27252810,송도닥트공사,,Songdo duct construction,Shops and Service,Home Improvement Store,126.6812346999999,37.42226509999976,대한민국,KOR,KOR,인천광역시,연수구,,연수동,,함박뫼로,127,535-3,2022-05-01 12:37:48,"산업,유통||건설업||전문건설업||전문건설업-일반",False
20638,20639,6223893,엔유종합건설,엔유건설,NU General Construction,Shops and Service,Home Improvement Store,126.63184570027484,37.59587075479472,대한민국,KOR,KOR,인천광역시,서구,,오류동,,대촌로25번길,7,1740-9,2022-05-01 12:37:48,"산업,유통||건설업||전문건설업||전문건설업-일반",False
20946,20947,27042908,가나설비,,Ghana Equipment,Shops and Service,Home Improvement Store,126.72672029999998,37.525861099999815,대한민국,KOR,KOR,인천광역시,계양구,,작전동,,아나지로,311,388-2,2022-08-08 10:29:42,"산업,유통||건설업||전문건설업||건물설비설치공사||배관,냉난방공사",False
20948,20949,27218637,인천누수탐지,,Incheon leak detection,Shops and Service,Home Improvement Store,126.62988205162986,37.48459031105288,대한민국,KOR,KOR,인천광역시,동구,,화수동,,화수안로,52-3,34-1,2022-08-16 16:52:33,"산업,유통||건설업||전문건설업||건물설비설치공사||배관,냉난방공사",False
21108,21109,20202102,정도보일러설비,정도설비,Jeong-Do Boiler equipment,Shops and Service,Home Improvement Store,126.67701759042896,37.497358039533104,대한민국,KOR,KOR,인천광역시,서구,,가좌동,,가석로156번길,17-2,171-10,2021-12-23 15:49:18,"산업,유통||건설업||전문건설업||건물설비설치공사||배관,냉난방공사",False
21180,21181,4338029,수인종합건설,,Suin Construction,Shops and Service,Home Improvement Store,126.72952677829193,37.49253963588471,대한민국,KOR,KOR,인천광역시,부평구,,부평동,,장제로75번길,6-4,557-16,2021-12-23 15:49:18,"산업,유통||건설업||종합건설업||종합건설업-일반",False
21224,21225,27184314,24시하수구수도설비,,24 hour sewer system,Shops and Service,Home Improvement Store,126.72551487231492,37.500204173698286,대한민국,KOR,KOR,인천광역시,부평구,,부평동,,주부토로,58,408-4,2022-05-01 12:37:48,"산업,유통||건설업||전문건설업||건물설비설치공사||배관,냉난방공사",False
21455,21456,27426631,경북철물열쇠,,Gyeongbuk iron key,Shops and Service,Home Improvement Store,126.65228998844894,37.460968917236805,대한민국,KOR,KOR,인천광역시,미추홀구,,숭의동,,독정이로,59,207-5,2022-08-12 13:15:03,"쇼핑,편의||건축||철물점",False
21501,21502,5654817,한강종합공사,한강공사,Han River Construction,Shops and Service,Home Improvement Store,126.73045639999997,37.4588582999998,대한민국,KOR,KOR,인천광역시,남동구,,만수동,,만수로15번길,10,870-16,2022-08-18 12:00:50,"산업,유통||건설업||전문건설업||유리,창호공사",False
21646,21647,5695335,동양철물유리,동양유리,oriental iron glass,Shops and Service,Home Improvement Store,126.70030752882889,37.50576432592668,대한민국,KOR,KOR,인천광역시,부평구,,산곡동,,마장로307번길,50-1,87-425,2021-12-23 15:49:18,"쇼핑,편의||건축||철물점",False
21791,21792,5659969,신흥공사,,Shinheung Corporation,Shops and Service,Home Improvement Store,126.71170096475188,37.48917914863049,대한민국,KOR,KOR,인천광역시,부평구,,부평동,,신촌로,68,284-124,2019-11-14 23:05:38,"산업,유통||건설업||전문건설업||전문건설업-일반",False
22005,22006,3122141,동은전기,,Dongeun Electric,Shops and Service,Home Improvement Store,126.59816344555132,37.45176250798303,대한민국,KOR,KOR,인천광역시,중구,,항동7가,,연안부두로91번길,4-3,85-20,2022-08-24 14:41:06,"산업,유통||건설업||전문건설업||전기공사",False
22156,22157,3140672,백두건설산업,,Baekdu Construction Industry,Shops and Service,Home Improvement Store,126.73416131144594,37.502683831574885,대한민국,KOR,KOR,인천광역시,부평구,,부평동,,부흥북로107번길,39,143-239,2019-11-14 0:00:00,"산업,유통||건설업||전문건설업||전문건설업-일반",False
22209,22210,4346712,대림철물건재설비,대림철물설비,Daelim Steel Building Materials Equipment,Shops and Service,Home Improvement Store,126.7031755712199,37.492260860187486,대한민국,KOR,KOR,인천광역시,부평구,,산곡동,,화랑로,103,369-336,2019-11-14 23:29:13,"쇼핑,편의||건축||철물점",False
22226,22227,27069458,부평변기하수구,,Bupyeong toilet sewer,Shops and Service,Home Improvement Store,126.7035505014519,37.5197361205059,대한민국,KOR,KOR,인천광역시,부평구,,청천동,,청중로57번길,45,17-41,2022-05-01 12:37:48,"산업,유통||건설업||전문건설업||건물설비설치공사||배관,냉난방공사",False
22275,22276,27182284,하수구막힘,,clogged drain,Shops and Service,Home Improvement Store,126.72669519999992,37.4935755999998,대한민국,KOR,KOR,인천광역시,부평구,,부평동,,대정로,66,152-1,2022-05-01 12:37:48,"산업,유통||건설업||전문건설업||수도설비공사",False
22299,22300,3839470,동구건설,,DongguConstruction,Shops and Service,Home Improvement Store,126.64839405161686,37.36679488052453,대한민국,KOR,KOR,인천광역시,연수구,,송도동,,송도미래로,30,214,2020-01-14 23:23:42,"산업,유통||건설업||전문건설업||전문건설업-일반",False
22307,22308,27181353,남동구하수구막힘변기뚫음24시,,Namdong-gu sewer clogged toilet pierced 24 hours,Shops and Service,Home Improvement Store,126.70384204178193,37.45478574273277,대한민국,KOR,KOR,인천광역시,남동구,,구월동,,정각로,18,1136-11,2022-05-01 12:37:48,"산업,유통||건설업||전문건설업||건물설비설치공사||배관,냉난방공사",False
22316,22317,27099282,우리철거공사,,Woori demolition work,Shops and Service,Home Improvement Store,126.71249249999995,37.4476504999998,대한민국,KOR,KOR,인천광역시,남동구,,구월동,,선수촌공원로,104,1484,2022-07-05 16:31:26,"산업,유통||건설업||전문건설업||건물,구축물해체공사",False
22344,22345,4348261,서해설비,,West Sea Facility,Shops and Service,Home Improvement Store,126.70446704897088,37.45794928537868,대한민국,KOR,KOR,인천광역시,남동구,,간석동,,구월로125번길,24,412-7,2021-12-23 15:49:18,"산업,유통||건설업||전문건설업||전문건설업-일반",False
22438,22439,5665779,동네철물,,neighborhood hardware,Shops and Service,Home Improvement Store,126.71578495615071,37.46478246970692,대한민국,KOR,KOR,인천광역시,남동구,,간석동,,간석로72번길,33,224-600,2022-05-01 12:37:48,"쇼핑,편의||건축||철물점",False
22450,22451,6227307,세강주택건설,,Segang Housing Construction,Shops and Service,Home Improvement Store,126.72942475590791,37.504245962582,대한민국,KOR,KOR,인천광역시,부평구,,부평동,,길주남로,70-1,12-185,2019-11-14 23:30:26,"산업,유통||건설업||전문건설업||전문건설업-일반",False
22466,22467,26870488,서준건설,,Seojun Construction,Shops and Service,Home Improvement Store,126.65148858051992,37.4863954872141,대한민국,KOR,KOR,인천광역시,동구,,송현동,,방축로37번길,30,129,2022-05-01 12:37:48,"산업,유통||건설업||전문건설업||전문건설업-일반",False
22487,22488,26972941,무창건설,,Muchang Construction,Shops and Service,Home Improvement Store,126.37746199999773,37.45931359993018,대한민국,KOR,KOR,인천광역시,중구,,을왕동,,용유서로450번길,57-1,838,2022-05-01 12:37:48,"산업,유통||건설업||종합건설업||종합건설업-일반",False
22498,22499,20766612,대명건축설비,,Daemyung Construction Equipment,Shops and Service,Home Improvement Store,126.73685640678296,37.54626892887072,대한민국,KOR,KOR,인천광역시,계양구,,임학동,,임학안로6번길,26,28-26,2022-05-18 1:21:36,"산업,유통||건설업||전문건설업||전문건설업-일반",False
22584,22585,20184387,망고종합건설,망고건설,Mango Construction,Shops and Service,Home Improvement Store,126.64699558269893,37.45923574252889,대한민국,KOR,KOR,인천광역시,미추홀구,,숭의동,,장천로,20,296-46,2021-12-23 15:49:18,"산업,유통||건설업||전문건설업||전문건설업-일반",False
22673,22674,20476515,수정건설,,Sujeong Construction,Shops and Service,Home Improvement Store,126.72450559028596,37.44931260110499,대한민국,KOR,KOR,인천광역시,남동구,,구월동,,구월말로4번길,1,1313-26,2022-05-01 12:37:48,"산업,유통||건설업||전문건설업||전문건설업-일반",False
22723,22724,4357544,정민철물인테리어,,Jeongmin Steel Interior,Shops and Service,Home Improvement Store,126.72429251783552,37.532861078043915,대한민국,KOR,KOR,인천광역시,계양구,,작전동,,작전시장로,17,856-132,2022-08-16 16:52:33,"산업,유통||건설업||전문건설업||유리,창호공사",False
22863,22864,6208430,현대종합설비,현대설비,HYUNDAI COMPLETE EQUIPMENT,Shops and Service,Home Improvement Store,126.74132827146694,37.491413554995994,대한민국,KOR,KOR,인천광역시,부평구,,부개동,,부일로113번길,29-15,492-1,2022-08-24 14:41:06,"산업,유통||건설업||전문건설업||전문건설업-일반",False
22905,22906,3116842,예증산업 KCC하이샤시 인천대리점,예증산업,Yejeung Industry KCC High Chassis Incheon agency,Shops and Service,Home Improvement Store,126.7049473585759,37.530112312284096,대한민국,KOR,KOR,인천광역시,계양구,,효성동,,봉오대로505번길,2,131-1,2021-12-23 15:49:18,"산업,유통||건설업||전문건설업||유리,창호공사",False
22909,22910,5671184,국제건축설비,,International Building Equipment,Shops and Service,Home Improvement Store,126.68032914900988,37.45615735259717,대한민국,KOR,KOR,인천광역시,미추홀구,,주안동,,미추홀대로658번길,3,465-19,2019-11-14 23:24:16,"산업,유통||건설업||전문건설업||전문건설업-일반",False
22927,22928,1872489,현대종합장식,,modern decoration,Shops and Service,Home Improvement Store,126.73176734171392,37.538314812912006,대한민국,KOR,KOR,인천광역시,계양구,,계산동,,계산새로33번길,2,59-1,2019-11-14 0:00:00,"산업,유통||건설업||전문건설업||도배공사",False
23034,23035,2600944,선정철물종합건재,선정철물건재,Selected Hardware Comprehensive Building Materials,Shops and Service,Home Improvement Store,126.63732714255283,37.46748160780948,대한민국,KOR,KOR,인천광역시,중구,,도원동,,도원로,33,28-35,2021-12-23 15:49:18,"쇼핑,편의||건축||철물점",False
23061,23062,5670875,민정건설,,MinjeongConstruction,Shops and Service,Home Improvement Store,126.4601972859686,37.25154149563824,대한민국,KOR,KOR,인천광역시,옹진군,,영흥면,외리,영흥남로,430,736-1,2020-01-14 0:00:00,"산업,유통||건설업||전문건설업||전문건설업-일반",False
23345,23346,5694603,성화종합주택수리,성화주택수리,Seonghwa General Housing Repair,Shops and Service,Home Improvement Store,126.72647696533492,37.48782015787079,대한민국,KOR,KOR,인천광역시,부평구,,부평동,,경인로961번길,5-1,605-42,2022-05-01 12:37:48,"산업,유통||건설업||전문건설업||전문건설업-일반",False
23347,23348,5654537,미창설비,,unwindowed equipment,Shops and Service,Home Improvement Store,126.66850200441388,37.514235058678686,대한민국,KOR,KOR,인천광역시,서구,,신현동,,염곡로,331,143-29,2022-08-24 14:41:06,"산업,유통||건설업||전문건설업||전문건설업-일반",False
23402,23403,27182084,지인건축설비,,Jijin Construction Equipment,Shops and Service,Home Improvement Store,126.69479168425688,37.44835205107277,대한민국,KOR,KOR,인천광역시,남동구,,구월동,,문화서로23번길,32,1359-1,2022-05-01 12:37:48,"산업,유통||건설업||전문건설업||건물설비설치공사||배관,냉난방공사",False
23422,23423,27067106,용천건축,,Yongcheon Architecture,Shops and Service,Home Improvement Store,126.71503194535788,37.46323645440899,대한민국,KOR,KOR,인천광역시,남동구,,간석동,,백범로,313,39-3,2022-05-01 12:37:48,"산업,유통||건설업||전문건설업||건물,구축물해체공사",False
23679,23680,27129356,그린하수설비,,Green sewage facility,Shops and Service,Home Improvement Store,126.75701249999996,37.558249999999816,대한민국,KOR,KOR,인천광역시,계양구,,동양동,,동양로,100,582,2022-05-01 12:37:48,"산업,유통||건설업||전문건설업||건물설비설치공사||배관,냉난방공사",False
23746,23747,6217914,태안건설,,TaeanConstruction,Shops and Service,Home Improvement Store,126.69956831447688,37.46098512643848,대한민국,KOR,KOR,인천광역시,남동구,,간석동,,문화로245번길,23,547-2,2021-12-23 15:49:18,"산업,유통||건설업||전문건설업||전문건설업-일반",False
23786,23787,5710860,인성건축리모델링,인성리모델링,Inseong Architectural Remodeling,Shops and Service,Home Improvement Store,126.6575807826419,37.47660012427659,대한민국,KOR,KOR,인천광역시,미추홀구,,도화동,,연송로,88,6-7,2022-05-01 12:37:48,"산업,유통||건설업||전문건설업||전문건설업-일반",False
24029,24030,6204341,청록공사,,Cheongnok Construction,Shops and Service,Home Improvement Store,126.71647137626888,37.462429536741766,대한민국,KOR,KOR,인천광역시,남동구,,간석동,,백범로297번길,6,21-13,2021-12-23 15:49:18,"산업,유통||건설업||전문건설업||조경건설",False
24190,24191,5659145,도림건설,,Dorim Construction,Shops and Service,Home Improvement Store,126.66156655310589,37.456776112739576,대한민국,KOR,KOR,인천광역시,미추홀구,,용현동,,인주대로211번길,49-2,55-268,2021-12-23 15:49:18,"산업,유통||건설업||전문건설업||전문건설업-일반",False
24212,24213,27196684,동신종합공사,동신공사,Dongshin Construction,Shops and Service,Home Improvement Store,126.72656090000191,37.48690359999527,대한민국,KOR,KOR,인천광역시,부평구,,부평동,,육동로18번길,27,642-6,2022-05-01 12:37:48,"산업,유통||건설업||전문건설업||전문건설업-일반",False
24312,24313,27160948,대성건축설비,,Daesung Construction Equipment,Shops and Service,Home Improvement Store,126.70815657366988,37.47342793682819,대한민국,KOR,KOR,인천광역시,부평구,,십정동,,동암산로33번길,30-4,584-5,2022-05-01 12:37:48,"산업,유통||건설업||전문건설업||건물설비설치공사||배관,냉난방공사",False
24481,24482,274651,한화L&C 대광산업건설,한화L엔C 대광산업건설,Hanwha L&C Daekwang Industrial E&C,Shops and Service,Home Improvement Store,126.68554247489192,37.472075311103595,대한민국,KOR,KOR,인천광역시,서구,,가좌동,,방축로,388,606-16,2022-08-24 14:41:06,"산업,유통||건설업||전문건설업||전문건설업-일반",False
24622,24623,4328269,믿음철물설비,,trust hardware equipment,Shops and Service,Home Improvement Store,126.7183352514169,37.460784182821776,대한민국,KOR,KOR,인천광역시,남동구,,간석동,,석산로,235,913-11,2019-11-14 23:24:43,"쇼핑,편의||건축||철물점",False
24715,24716,4341818,플러스지붕공사,LG전자플러스시스템,plus roofing,Shops and Service,Home Improvement Store,126.64350029999996,37.47306169999981,대한민국,KOR,KOR,인천광역시,동구,,금곡동,,금곡로,72,55-1,2022-08-12 13:15:03,"산업,유통||건설업||전문건설업||시설물축조공사||지붕공사",False
24767,24768,20184314,인천계량공사,,Incheon Metrology Corporation,Shops and Service,Home Improvement Store,126.75043703780896,37.4498026651594,대한민국,KOR,KOR,인천광역시,남동구,,장수동,,장자로6번길,13,786-10,2021-12-23 15:49:18,"산업,유통||건설업||전문건설업||전문건설업-일반",False
24821,24822,27211985,신건축공사,,new building construction,Shops and Service,Home Improvement Store,126.68612413670388,37.45383579850217,대한민국,KOR,KOR,인천광역시,미추홀구,,주안동,,인주대로445번길,61,383-1,2022-05-01 12:37:48,"산업,유통||건설업||종합건설업||종합건설업-일반",False
24912,24913,4341400,경기쌀철물전기만물,,Gyeonggi Rice Hardware electricity,Shops and Service,Home Improvement Store,126.67798379999996,37.4904283999998,대한민국,KOR,KOR,인천광역시,서구,,가좌동,,원적로37번길,21,262-1,2017-03-16 0:00:00,"쇼핑,편의||건축||철물점",False
24956,24957,20464053,소양건설,,Soyang Construction,Shops and Service,Home Improvement Store,126.71906900594993,37.538416848691206,대한민국,KOR,KOR,인천광역시,계양구,,계산동,,계산로,59,984-43,2022-05-01 12:37:48,"산업,유통||건설업||전문건설업||전문건설업-일반",False
25046,25047,5684907,소재건설,,material construction,Shops and Service,Home Improvement Store,126.7151074260129,37.39211585673285,대한민국,KOR,KOR,인천광역시,남동구,,고잔동,,논현고잔로128번길,61,212-6,2019-11-14 23:19:30,"산업,유통||건설업||전문건설업||전문건설업-일반",False
25119,25120,6205982,세명종합건축,세명건축,Semyung Construction,Shops and Service,Home Improvement Store,126.6683636581949,37.47511049243766,대한민국,KOR,KOR,인천광역시,미추홀구,,도화동,,염전로239번길,26,53-21,2022-05-01 12:37:48,"산업,유통||건설업||전문건설업||전문건설업-일반",False
25161,25162,27053323,주안하수구수도설비,,Juan Sewer Sewer System,Shops and Service,Home Improvement Store,126.68479211502688,37.45636849877468,대한민국,KOR,KOR,인천광역시,미추홀구,,주안동,,동주길,113,412-57,2022-05-01 12:37:48,"산업,유통||건설업||전문건설업||건물설비설치공사||배관,냉난방공사",False
25164,25165,6207296,성공건축,,Success Architecture,Shops and Service,Home Improvement Store,126.7268706324599,37.460281758399375,대한민국,KOR,KOR,인천광역시,남동구,,만수동,,백범로206번길,12,864-7,2021-12-23 15:49:18,"산업,유통||건설업||전문건설업||전문건설업-일반",False
25297,25298,26960949,진인테리어,,Jean interior,Shops and Service,Home Improvement Store,126.68307837464594,37.45253869898649,대한민국,KOR,KOR,인천광역시,미추홀구,,주안동,,인주대로417번길,25,1479-41,2022-05-01 12:37:48,"산업,유통||건설업||전문건설업||도배공사",False
25306,25307,5700301,한진종합상사,한진상사,Hanjin General Trading Co.,Shops and Service,Home Improvement Store,126.7288031361699,37.45084150304336,대한민국,KOR,KOR,인천광역시,남동구,,만수동,,복개동로34번길,41,935-25,2019-11-14 23:06:52,"산업,유통||건설업||전문건설업||건물설비설치공사||배관,냉난방공사",False
25578,25579,3135103,산곡철물건재,,Mountain steel building materials,Shops and Service,Home Improvement Store,126.7031770720619,37.5075185088785,대한민국,KOR,KOR,인천광역시,부평구,,산곡동,,마장로,329,97-5,2022-08-24 14:41:06,"쇼핑,편의||건축||철물점",False
25610,25611,6141084,성진건설,,Sungjin Construction,Shops and Service,Home Improvement Store,126.53740243918973,37.50386743277375,대한민국,KOR,KOR,인천광역시,중구,,운남동,,백운로185번길,8,603-19,2021-12-23 15:49:18,"산업,유통||건설업||전문건설업||전문건설업-일반",False
25637,25638,3959038,대우건설PJ,,Daewoo Construction PJ,Shops and Service,Home Improvement Store,126.63395131515284,37.39782500129165,대한민국,KOR,KOR,인천광역시,연수구,,송도동,,센트럴로,263,29-13,2020-01-14 23:24:59,"산업,유통||건설업||전문건설업||전문건설업-일반",False
25673,25674,3892025,두성주택건설,,Doosung Housing Construction,Shops and Service,Home Improvement Store,126.73202199999996,37.5078660999998,대한민국,KOR,KOR,인천광역시,부평구,,삼산동,,길주로,623,465-1,2017-09-29 7:07:07,"산업,유통||건설업||전문건설업||전문건설업-일반",False
25720,25721,5700691,지우종합건설,지우건설,Jiwoo Construction,Shops and Service,Home Improvement Store,126.69403780839087,37.44687324630828,대한민국,KOR,KOR,인천광역시,남동구,,구월동,,인하로411번길,10,1388-15,2021-12-23 15:49:18,"산업,유통||건설업||전문건설업||전문건설업-일반",False
25871,25872,4339079,두손건축전기공사,,Duson Construction Electrical Work,Shops and Service,Home Improvement Store,126.65762814757397,37.46343635772706,대한민국,KOR,KOR,인천광역시,미추홀구,,숭의동,,수봉로33번길,18,27-17,2022-08-12 13:15:03,"산업,유통||건설업||전문건설업||전기공사",False
26032,26033,6214587,푸른종합건설,푸른건설,Blue Construction,Shops and Service,Home Improvement Store,126.68461819569592,37.45742120961636,대한민국,KOR,KOR,인천광역시,미추홀구,,주안동,,동주길135번길,8,409-29,2021-12-23 15:49:18,"산업,유통||건설업||전문건설업||전문건설업-일반",False
26204,26205,27036875,해연건설,,Haeyeon Construction,Shops and Service,Home Improvement Store,126.64783351846692,37.46208300280699,대한민국,KOR,KOR,인천광역시,미추홀구,,숭의동,,미추로20번길,7,190-28,2022-05-01 12:37:48,"산업,유통||건설업||전문건설업||전문건설업-일반",False
26479,26480,27178023,정석개발,,Standard development,Shops and Service,Home Improvement Store,126.67100899333089,37.45506985664876,대한민국,KOR,KOR,인천광역시,미추홀구,,주안동,,한나루로550번길,18,598-1,2022-05-01 12:37:48,"산업,유통||건설업||종합건설업||종합건설업-일반",False
26556,26557,5723692,부평종합공사,부평공사,Bupyeong General Corporation,Shops and Service,Home Improvement Store,126.72668689999992,37.51861619999978,대한민국,KOR,KOR,인천광역시,부평구,,갈산동,,부평대로296번길,89,107-8,2022-05-01 12:37:48,"산업,유통||건설업||종합건설업||건물건설||건물개수보수공사",False
26684,26685,20202436,정원건설,,garden construction,Shops and Service,Home Improvement Store,126.61099579112384,37.5660211481516,대한민국,KOR,KOR,인천광역시,서구,,오류동,,뱃길로,17,1545-5,2022-05-01 12:37:48,"산업,유통||건설업||전문건설업||전문건설업-일반",False
26753,26754,27156654,세진비전 인천지사,,Sejin Vision Incheon Branch,Shops and Service,Home Improvement Store,126.73717950405192,37.57711394691621,대한민국,KOR,KOR,인천광역시,계양구,,장기동,,장기로2번길,11,154-1,2022-05-01 12:37:48,"산업,유통||건설업||종합건설업||토목건설||수로,배수건설",False
26764,26765,27104530,한백전기,,Hanbaek Electric,Shops and Service,Home Improvement Store,126.66654142020388,37.50807795004958,대한민국,KOR,KOR,인천광역시,서구,,석남동,,길주로45번길,15,222-54,2022-08-16 16:52:33,"산업,유통||건설업||전문건설업||전기공사",False
26797,26798,27091505,천성건설,,Cheonseong Construction,Shops and Service,Home Improvement Store,126.62266556315782,37.47186832555818,대한민국,KOR,KOR,인천광역시,중구,,중앙동3가,,신포로23번길,49,4-41,2022-05-01 12:37:48,"산업,유통||건설업||건설업-일반",False
26927,26928,20761337,현대주택점포종합수리,,Hyundai Housing Store  Comprehensive Repair,Shops and Service,Home Improvement Store,126.7062381938649,37.46797449748328,대한민국,KOR,KOR,인천광역시,남동구,,간석동,,백범로406번길,7,233-13,2022-05-18 1:20:59,"산업,유통||건설업||전문건설업||전문건설업-일반",False
27136,27137,5703763,강화철물전기,강화전기,reinforced iron,Shops and Service,Home Improvement Store,126.7007822954939,37.47610776996188,대한민국,KOR,KOR,인천광역시,부평구,,십정동,,이규보로,32-1,387-7,2021-12-23 15:49:18,"쇼핑,편의||건축||철물점",False
27201,27202,3130703,한국철물열쇠전기,한국열쇠전기,Korean hardware key electric,Shops and Service,Home Improvement Store,126.6746073920049,37.417645010741055,대한민국,KOR,KOR,인천광역시,연수구,,청학동,,용담로,73,489-8,2022-05-01 12:37:48,"쇼핑,편의||건축||철물점",False
27232,27233,6227170,승이건설전기,승이전기,Seungi Construction Electric,Shops and Service,Home Improvement Store,126.65369504210388,37.467644224626966,대한민국,KOR,KOR,인천광역시,미추홀구,,숭의동,,석정로150번길,30-5,92-1,2019-11-14 0:00:00,"산업,유통||건설업||전문건설업||전기공사",False
27273,27274,27229290,"아파트빌라,화장실베란다,누수전문업체",,"Apartment villa, toilet veranda, leak specialist",Shops and Service,Home Improvement Store,126.64009999999992,37.472399999999794,대한민국,KOR,KOR,인천광역시,동구,,금곡동,,금곡로36번길,20-7,39-57,2022-05-01 12:37:48,"산업,유통||건설업||전문건설업||건물설비설치공사||배관,냉난방공사",False
27308,27309,4347503,인천세광샤시유리공사,,Incheon Segwang Chassis Glass Corporation,Shops and Service,Home Improvement Store,126.72579800726892,37.45614036387948,대한민국,KOR,KOR,인천광역시,남동구,,만수동,,구월말로86번길,24-15,890-21,2022-08-08 10:29:42,"산업,유통||건설업||전문건설업||유리,창호공사",False
27404,27405,4578443,우아한건설,,elegant construction,Shops and Service,Home Improvement Store,126.63576599999584,37.39806340101744,대한민국,KOR,KOR,인천광역시,연수구,,송도동,,아트센터대로,149,23-1,2019-07-29 23:00:15,"산업,유통||건설업||전문건설업||전문건설업-일반",False
27644,27645,4343151,대영닥트공사,,Daeyoung Duct Corporation,Shops and Service,Home Improvement Store,126.64746853831988,37.46646874576767,대한민국,KOR,KOR,인천광역시,미추홀구,,숭의동,,참외전로,299,124-30,2019-12-09 10:51:30,"산업,유통||건설업||전문건설업||건물설비설치공사||배관,냉난방공사",False
27759,27760,4007049,다온종합건설,다온건설,Daon Construction,Shops and Service,Home Improvement Store,126.66158405011488,37.43978211195855,대한민국,KOR,KOR,인천광역시,미추홀구,,학익동,,한나루로357번길,5-4,697-2,2019-11-14 0:00:00,"산업,유통||건설업||종합건설업||종합건설업-일반",False
27784,27785,27191565,수지종합건설,,Suji Construction,Shops and Service,Home Improvement Store,126.70669949999994,37.45060509999978,대한민국,KOR,KOR,인천광역시,남동구,,구월동,,남동대로765번길,17,1145-1,2022-05-01 12:37:48,"산업,유통||건설업||전문건설업||전문건설업-일반",False
27816,27817,6232785,대원공사,,Daewon Corporation,Shops and Service,Home Improvement Store,126.7079651491789,37.46317213430828,대한민국,KOR,KOR,인천광역시,남동구,,간석동,,남동대로,903,281-6,2019-11-14 23:30:27,"산업,유통||건설업||전문건설업||전문건설업-일반",False
27933,27934,4342650,현대철물전기,,Hyundai Hardware Electronics,Shops and Service,Home Improvement Store,126.66826694439088,37.5108951883001,대한민국,KOR,KOR,인천광역시,서구,,석남동,,염곡로,293,172-8,2022-08-16 16:52:33,"쇼핑,편의||건축||철물점",False
27991,27992,6223923,제이오설비산업,제이오산업,Zeo Equipment Industry,Shops and Service,Home Improvement Store,126.7199877724459,37.5463885386004,대한민국,KOR,KOR,인천광역시,계양구,,계산동,,경명대로1017번길,29-3,896,2019-11-14 23:30:01,"산업,유통||건설업||전문건설업||건물설비설치공사||건물설비설치공사-일반",False
28055,28056,4400517,백산건설산업,,Baeksan Construction Industry,Shops and Service,Home Improvement Store,126.72448529653492,37.4919562918425,대한민국,KOR,KOR,인천광역시,부평구,,부평동,,경원대로,1395,159-15,2019-11-14 23:24:12,"산업,유통||건설업||전문건설업||전문건설업-일반",False
28087,28088,2149468,대성종합유통,,Daesung Distribution,Shops and Service,Home Improvement Store,126.64969749999995,37.58785139999984,대한민국,KOR,KOR,인천광역시,서구,,왕길동,,원당대로428번길,24-29,64-469,2022-05-01 12:37:48,"쇼핑,편의||건축||철물점",False
28203,28204,3464291,삼일철물건재,삼일건재,Samil Steel Building Materials,Shops and Service,Home Improvement Store,126.72942072295892,37.5215842548893,대한민국,KOR,KOR,인천광역시,부평구,,갈산동,,주부토로306번길,2,6-24,2022-08-18 12:00:50,"쇼핑,편의||건축||철물점",False
28282,28283,3127002,대덕철물건재,대덕건재,Daedeok Steel Building Materials,Shops and Service,Home Improvement Store,126.70461109464497,37.50829395389261,대한민국,KOR,KOR,인천광역시,부평구,,산곡동,,길주로,382-4,101-19,2022-08-24 14:41:06,"쇼핑,편의||건축||철물점",False
28317,28318,5680225,영진오토산업,,Youngjin Auto Industry,Shops and Service,Home Improvement Store,126.61632609999992,37.44692959999979,대한민국,KOR,KOR,인천광역시,중구,,항동7가,,축항대로212번길,60,93-18,2022-05-13 10:36:55,"산업,유통||건설업||종합건설업||종합건설업-일반",False
28334,28335,27185443,함께종합건설,,Together Construction,Shops and Service,Home Improvement Store,126.67831459999996,37.500077899999816,대한민국,KOR,KOR,인천광역시,서구,,석남동,,서달로,20,322-12,2022-05-01 12:37:48,"산업,유통||건설업||종합건설업||종합건설업-일반",False
28404,28405,6206923,보명조경건설,보명건설,Bomyeong Landscape Construction,Shops and Service,Home Improvement Store,126.45535477024164,37.248474042692834,대한민국,KOR,KOR,인천광역시,옹진군,,영흥면,외리,영흥남로369번길,25,679,2021-12-23 15:49:18,"산업,유통||건설업||전문건설업||조경건설",False
28423,28424,26867184,용덕종합설비,,Yongdeok general facility,Shops and Service,Home Improvement Store,126.61787767695992,37.474687991994,대한민국,KOR,KOR,인천광역시,중구,,선린동,,제물량로,256-2,37-6,2022-05-01 12:37:48,"산업,유통||건설업||전문건설업||전문건설업-일반",False
28587,28588,20200225,호명종합건축,호명건축,Homyeong Construction,Shops and Service,Home Improvement Store,126.72400575422697,37.45900973599738,대한민국,KOR,KOR,인천광역시,남동구,,만수동,,구월말로109번길,26,899-3,2021-12-23 15:49:18,"산업,유통||건설업||전문건설업||전문건설업-일반",False
28629,28630,5698402,우리열쇠전기철물,우리열쇠철물,our key electric hardware,Shops and Service,Home Improvement Store,126.72492343527195,37.54415690778001,대한민국,KOR,KOR,인천광역시,계양구,,계산동,,하느재로5번길,2,931-47,2022-05-01 12:37:48,"쇼핑,편의||건축||철물점",False
28780,28781,27083141,24시계양구하수구누수설비,,24 hour Yanggu sewer leak system,Shops and Service,Home Improvement Store,126.76006137840491,37.5597869361777,대한민국,KOR,KOR,인천광역시,계양구,,동양동,,당미1길,37,632-6,2022-08-16 16:52:33,"산업,유통||건설업||전문건설업||건물설비설치공사||배관,냉난방공사",False
28877,28878,4321793,부흥종합설비,,Comprehensive revitalization facility,Shops and Service,Home Improvement Store,126.64111196197184,37.47487129777478,대한민국,KOR,KOR,인천광역시,동구,,송림동,,송림로,55-1,226-9,2021-12-23 15:49:18,"산업,유통||건설업||전문건설업||전문건설업-일반",False
28883,28884,20200434,인천수도설비,인천설비,Incheon water facility,Shops and Service,Home Improvement Store,126.726022091415,37.4550363660542,대한민국,KOR,KOR,인천광역시,남동구,,만수동,,구월말로58번길,15-22,915,2021-12-23 15:49:18,"산업,유통||건설업||전문건설업||수도설비공사",False
28885,28886,27184487,산곡동하수구수도설비,,Sangok-dong Sewerage Water System,Shops and Service,Home Improvement Store,126.70282736370191,37.50517592951608,대한민국,KOR,KOR,인천광역시,부평구,,산곡동,,원적로327번길,18,181-19,2022-05-01 12:37:48,"산업,유통||건설업||전문건설업||건물설비설치공사||배관,냉난방공사",False
29022,29023,20476532,명하건설인테리어,,Myungha Construction interior,Shops and Service,Home Improvement Store,126.70076986833392,37.510444594554905,대한민국,KOR,KOR,인천광역시,부평구,,산곡동,,산청로17번길,9,13-83,2022-05-01 12:37:48,"산업,유통||건설업||전문건설업||전문건설업-일반",False
29035,29036,354240,영진공구철물,영진철물,Youngjin Tool Hardware,Shops and Service,Home Improvement Store,126.70702657035288,37.44311662299357,대한민국,KOR,KOR,인천광역시,남동구,,구월동,,남동대로,682,1178-3,2022-08-24 14:41:06,"쇼핑,편의||건축||철물점",False
29037,29038,27132907,호야지붕공사,,Hoya roof construction,Shops and Service,Home Improvement Store,126.70232941451488,37.525601549276,대한민국,KOR,KOR,인천광역시,계양구,,효성동,,아나지로97번길,3,545-7,2022-08-08 10:29:42,"산업,유통||건설업||종합건설업||건물건설||건물개수보수공사",False
29164,29165,27124420,팍스하수구넷,,Pax sewer net,Shops and Service,Home Improvement Store,126.75240934298996,37.43143698735656,대한민국,KOR,KOR,인천광역시,남동구,,서창동,,장아산로231번길,9-11,581-3,2022-05-01 12:37:48,"산업,유통||건설업||전문건설업||건물설비설치공사||배관,냉난방공사",False
29173,29174,20183986,서인설비,,Seo-in equipment,Shops and Service,Home Improvement Store,126.71443536771297,37.427606478828565,대한민국,KOR,KOR,인천광역시,남동구,,남촌동,,남촌로93번길,39,563-1,2021-12-23 15:49:18,"산업,유통||건설업||전문건설업||건물설비설치공사||배관,냉난방공사",False
29333,29334,27173584,제이엘 도시개발,,JL Urban Development,Shops and Service,Home Improvement Store,126.72590409846092,37.39868665316296,대한민국,KOR,KOR,인천광역시,남동구,,논현동,,논고개로,81,746-3,2022-08-12 13:15:03,"산업,유통||건설업||건설업-일반",False
29350,29351,5689752,국제설비,,International facilities,Shops and Service,Home Improvement Store,126.66538087374512,37.51659855227549,대한민국,KOR,KOR,인천광역시,서구,,신현동,,새오개로,71-2,173-46,2022-08-30 9:43:30,"산업,유통||건설업||전문건설업||수도설비공사",False
29387,29388,5677501,대림전기,,Daelim Electric,Shops and Service,Home Improvement Store,126.69988545273192,37.50931018849209,대한민국,KOR,KOR,인천광역시,부평구,,산곡동,,길주로341번길,5,79-4,2019-11-14 23:25:05,"산업,유통||건설업||전문건설업||전기공사",False
29468,29469,6211158,인정건축,맥가이버공사,Injeong Architecture,Shops and Service,Home Improvement Store,126.67801263693488,37.45773596691816,대한민국,KOR,KOR,인천광역시,미추홀구,,주안동,,한나루로586번길,106,504-4,2022-05-01 12:37:48,"산업,유통||건설업||전문건설업||전문건설업-일반",False
29506,29507,6223959,한진종합설비,한진설비,Hanjin General Equipment,Shops and Service,Home Improvement Store,126.73421986074794,37.50112862250639,대한민국,KOR,KOR,인천광역시,부평구,,부개동,,부흥북로107번길,8,16-21,2019-11-14 23:30:27,"산업,유통||건설업||전문건설업||전문건설업-일반",False
29520,29521,4352518,한주건설,,Hanju Construction,Shops and Service,Home Improvement Store,126.6718531643929,37.54388833104579,대한민국,KOR,KOR,인천광역시,서구,,심곡동,,탁옥로,22,334-23,2022-05-01 12:37:48,"산업,유통||건설업||전문건설업||전문건설업-일반",False
29607,29608,27181587,미소진건설,,Misojin Construction,Shops and Service,Home Improvement Store,126.70412849077287,37.45195465234216,대한민국,KOR,KOR,인천광역시,남동구,,구월동,,미래로,21,1129-17,2022-05-01 12:37:48,"산업,유통||건설업||전문건설업||건물,구축물해체공사",False
29976,29977,6218949,태림조경건설,태림건설,Taerim Landscape Construction,Shops and Service,Home Improvement Store,126.64808067097488,37.42149938072664,대한민국,KOR,KOR,인천광역시,연수구,,옥련동,,청량로155번길,82,481-11,2020-06-15 0:00:00,"산업,유통||건설업||전문건설업||조경건설",False
30056,30057,27206422,엠에스산업개발,,MS Industrial Development,Shops and Service,Home Improvement Store,126.53324637668474,37.489010963131136,대한민국,KOR,KOR,인천광역시,중구,,운남동,,운남로,128,1570,2022-05-01 12:37:48,"산업,유통||건설업||종합건설업||건물건설||건물건설-일반",False
30120,30121,6215693,강원건축설비,강원설비,Gangwon Construction Equipment,Shops and Service,Home Improvement Store,126.7276030030469,37.5188867154373,대한민국,KOR,KOR,인천광역시,부평구,,갈산동,,주부토로,270-1,64-12,2019-11-14 23:30:01,"산업,유통||건설업||전문건설업||전문건설업-일반",False
30197,30198,20200111,은성설비,,Eunsung Equipment,Shops and Service,Home Improvement Store,126.73133275259092,37.48733148675039,대한민국,KOR,KOR,인천광역시,부평구,,부평동,,경인로,1003,621-22,2022-05-18 1:22:57,"산업,유통||건설업||전문건설업||전문건설업-일반",False
30229,30230,6223342,삼육종합건설,삼육건설,Sahmyook Construction,Shops and Service,Home Improvement Store,126.72616598500788,37.4993884655353,대한민국,KOR,KOR,인천광역시,부평구,,부평동,,주부토로56번길,18-14,409-21,2021-12-23 15:49:18,"산업,유통||건설업||전문건설업||전문건설업-일반",False
30230,30231,4343597,365종합설비,365설비,365 Comprehensive facilities,Shops and Service,Home Improvement Store,126.74101640232092,37.5494881786216,대한민국,KOR,KOR,인천광역시,계양구,,방축동,,장제로927번길,8,119-2,2022-08-08 10:29:42,"산업,유통||건설업||전문건설업||건물설비설치공사||건물설비설치공사-일반",False
30292,30293,27111553,경진종합상사,경진상사,Kyungjin General Trading Company,Shops and Service,Home Improvement Store,126.69352313538988,37.40727742954166,대한민국,KOR,KOR,인천광역시,남동구,,고잔동,,은청로,4-7,630,2022-08-16 16:52:33,"쇼핑,편의||건축||철물점",False
30340,30341,27264546,극동종합설비공사,,Kukdong comprehensive facility construction,Shops and Service,Home Improvement Store,126.69604999999991,37.475859599999794,대한민국,KOR,KOR,인천광역시,부평구,,십정동,,열우물로,103,279-20,2022-05-09 18:01:21,"산업,유통||건설업||전문건설업||전문건설업-일반",False
30407,30408,27196996,토마토인테리어,,tomato interior,Shops and Service,Home Improvement Store,126.64228289999988,37.44420989999976,대한민국,KOR,KOR,인천광역시,미추홀구,,용현동,,매소홀로,167,627-534,2022-05-01 12:37:48,"산업,유통||건설업||전문건설업||도배공사",False
30455,30456,4450670,진성산업건설,,Jinsung Industrial Construction,Shops and Service,Home Improvement Store,126.73816519656992,37.53874312881481,대한민국,KOR,KOR,인천광역시,계양구,,용종동,,오조산로89번길,5,211-8,2019-11-14 23:22:22,"산업,유통||건설업||전문건설업||시설물축조공사||철근공사",False
30507,30508,2618015,현대샷시공사,,Hyundai Shot Construction,Shops and Service,Home Improvement Store,126.65203578754488,37.468285627682654,대한민국,KOR,KOR,인천광역시,미추홀구,,숭의동,,석정로,150-1,89-9,2019-11-14 23:06:52,"산업,유통||건설업||전문건설업||유리,창호공사",False
30573,30574,5449510,마스타드건설,,Mustard Construction,Shops and Service,Home Improvement Store,126.62745637046284,37.443563360677445,대한민국,KOR,KOR,인천광역시,중구,,신흥동3가,,축항대로296번길,56-19,42-82,2020-01-14 0:00:00,"산업,유통||건설업||건설업-일반",False
30643,30644,4359259,금성수도설비,금성설비,Goldstar water facility,Shops and Service,Home Improvement Store,126.72495737393692,37.517292257946416,대한민국,KOR,KOR,인천광역시,부평구,,갈산동,,평천로,312,172-20,2022-05-01 12:37:48,"쇼핑,편의||건축||철물점",False
30680,30681,3731045,남동철물인테리어,,southeast hardware interior,Shops and Service,Home Improvement Store,126.73573955728624,37.40519008693409,대한민국,KOR,KOR,인천광역시,남동구,,논현동,,포구로,75,109-35,2022-08-18 12:00:50,"쇼핑,편의||건축||철물점",False
30695,30696,1983930,장인창호공사,,Craftsman window construction,Shops and Service,Home Improvement Store,126.67540409999997,37.505876999999806,대한민국,KOR,KOR,인천광역시,서구,,석남동,,거북로119번길,32,550-1,2022-05-01 12:37:48,"산업,유통||건설업||전문건설업||유리,창호공사",False
30757,30758,6216467,현대인테리어,,modern interior,Shops and Service,Home Improvement Store,126.7125330882062,37.466861948344736,대한민국,KOR,KOR,인천광역시,남동구,,간석동,,간석로41번길,2,91-11,2022-05-01 12:37:48,"산업,유통||건설업||전문건설업||도배공사",False
30995,30996,5676849,해동설비,해동인테리어설비,defrosting equipment,Shops and Service,Home Improvement Store,126.72510966824188,37.54054448637251,대한민국,KOR,KOR,인천광역시,계양구,,계산동,,주부토로501번길,33-1,959-13,2022-05-01 12:37:48,"산업,유통||건설업||전문건설업||건물설비설치공사||배관,냉난방공사",False
31014,31015,27184164,현대종합휀스,,Hyundai Comprehensive Fence,Shops and Service,Home Improvement Store,126.69819147357587,37.41242844163746,대한민국,KOR,KOR,인천광역시,남동구,,논현동,,남동서로270번길,39,432-12,2022-08-12 13:15:03,"산업,유통||건설업||건설업-일반",False
31039,31040,20692647,석림내장건설,,Seoklim Interior Construction,Shops and Service,Home Improvement Store,126.75167599957494,37.45083079997678,대한민국,KOR,KOR,인천광역시,남동구,,장수동,,장자로21번길,1,780-11,2022-05-18 1:21:52,"산업,유통||건설업||종합건설업||종합건설업-일반",False
31056,31057,6227544,방주종합건축설비,방주건축설비,Ark Comprehensive Construction Equipment,Shops and Service,Home Improvement Store,126.7090889956369,37.48485780244671,대한민국,KOR,KOR,인천광역시,부평구,,십정동,,신촌로,9,173-28,2019-11-14 23:30:27,"산업,유통||건설업||전문건설업||전문건설업-일반",False
31108,31109,4331961,학골철물건재,,Hakgol Steel Building Materials,Shops and Service,Home Improvement Store,126.63056979999992,37.46902909999979,대한민국,KOR,KOR,인천광역시,중구,,신흥동1가,,제물량로,118,22-2,2017-03-16 12:12:12,"쇼핑,편의||건축||철물점",False
31165,31166,4496885,신한건설,,Shinhan Construction,Shops and Service,Home Improvement Store,126.72306093146092,37.540520218831,대한민국,KOR,KOR,인천광역시,계양구,,계산동,,계양대로,188,956-7,2022-05-01 12:37:48,"산업,유통||건설업||전문건설업||전문건설업-일반",False
31502,31503,1272274,동부환경개발건축폐기물임시보관소,건축폐기물임시보관소,Dongbu Environmental Development Building Waste Temporary Storage,Shops and Service,Home Improvement Store,126.75613691527396,37.5258641671282,대한민국,KOR,KOR,인천광역시,계양구,,서운동,,아나지로,573,142-28,2022-05-01 12:37:48,"산업,유통||건설업||전문건설업||전문건설업-일반",False
31529,31530,642313,행운철물,,good luck hardware,Shops and Service,Home Improvement Store,126.63891774867088,37.451937307022874,대한민국,KOR,KOR,인천광역시,미추홀구,,용현동,,토금중로,54,617-74,2022-08-24 14:41:06,"쇼핑,편의||건축||철물점",False
31581,31582,4334198,현대철물건재,,modern building materials,Shops and Service,Home Improvement Store,126.66435787705288,37.44419079142387,대한민국,KOR,KOR,인천광역시,미추홀구,,학익동,,소성로135번길,23,261-52,2022-08-24 14:41:06,"쇼핑,편의||건축||철물점",False
31842,31843,4357767,최선철물종합상사,최선철물상사,Choi Sun Iron & Steel Corporation,Shops and Service,Home Improvement Store,126.4239672467926,37.77297430128692,대한민국,KOR,KOR,인천광역시,강화군,,하점면,장정리,강화대로,1104,679-5,2022-08-16 16:52:33,"쇼핑,편의||건축||철물점",False
31909,31910,27181694,구월설비하수구변기24,,Guwol facility sewer toilet 24,Shops and Service,Home Improvement Store,126.70406086779089,37.45122964485528,대한민국,KOR,KOR,인천광역시,남동구,,구월동,,미래로,13,1129-22,2022-05-01 12:37:48,"산업,유통||건설업||전문건설업||건물설비설치공사||배관,냉난방공사",False
32005,32006,27553149,서호건설,,Seoho Construction,Shops and Service,Home Improvement Store,126.70573124605593,37.51877872292222,대한민국,KOR,KOR,인천광역시,부평구,,청천동,,마장로460번길,24,10-41,2022-09-06 15:18:26,"산업,유통||건설업||전문건설업||전문건설업-일반",False
32093,32094,5701877,부국전기공사,,Buuk Electric Corporation,Shops and Service,Home Improvement Store,126.70854267284388,37.44778628330028,대한민국,KOR,KOR,인천광역시,남동구,,구월동,,남동대로726번길,15-18,1189,2019-11-14 23:24:32,"산업,유통||건설업||전문건설업||전기공사",False
