,OID_,id,name,name_alias,name_eng,category,subcategory,lon,lat,country,country_code,language_code,sd,sgg,sgg_sub,emd,ri,street,number_st,number_jb,update_date,dwnm,result
1537,1538,4333671,신도이용원,,Shindo Yong-won,Shops and Service,Beauty Salon,126.69603367152862,37.45716380818396,대한민국,KOR,KOR,인천광역시,남동구,,간석동,,구월로52번길,2,901-47,2022-05-01 12:37:48,"쇼핑,편의||미용||미용실||일반미용실||이용원",False
2013,2014,20059115,글램헤어 인천구월점,glamHair,glam hair,Shops and Service,Beauty Salon,126.70395929999997,37.44813209999978,대한민국,KOR,KOR,인천광역시,남동구,,구월동,,남동대로733번길,55-2,201-53,2022-09-06 15:18:26,"쇼핑,편의||미용||미용실||미용실-일반",False
2242,2243,20185448,한영이용원,,Han Young-won,Shops and Service,Beauty Salon,126.72085108692696,37.54154832218653,대한민국,KOR,KOR,인천광역시,계양구,,계산동,,계산천서로24번길,1,974-3,2021-12-23 15:49:18,"쇼핑,편의||미용||미용실||일반미용실||이용원",False
2390,2391,20056004,머리해여,,head up,Shops and Service,Beauty Salon,126.63549279941384,37.469613401195765,대한민국,KOR,KOR,인천광역시,중구,,율목동,,율목로30번길,36,90-4,2022-08-24 14:41:06,"쇼핑,편의||미용||미용실||미용실-일반",False
3478,3479,3130010,헤어사랑,,hair love,Shops and Service,Beauty Salon,126.64308822553186,37.45263832647356,대한민국,KOR,KOR,인천광역시,미추홀구,,용현동,,낙섬동로86번길,18,610-254,2021-12-23 15:49:18,"쇼핑,편의||미용||미용실||미용실-일반",False
3867,3868,2620928,재희이용원,,Jaehee Lee Yongwon,Shops and Service,Beauty Salon,126.6624992377349,37.45547066385736,대한민국,KOR,KOR,인천광역시,미추홀구,,용현동,,수봉남로6번길,120,118-14,2021-12-23 15:49:18,"쇼핑,편의||미용||미용실||일반미용실||이용원",False
4670,4671,2594498,우성이용원,,Woo Seong Yong-won,Shops and Service,Beauty Salon,126.71401826399888,37.462738484954095,대한민국,KOR,KOR,인천광역시,남동구,,간석동,,석산로197번길,44,133-1,2021-12-23 15:49:18,"쇼핑,편의||미용||미용실||일반미용실||이용원",False
5158,5159,5667532,머리사랑,,hair love,Shops and Service,Beauty Salon,126.69604002846188,37.472485847234886,대한민국,KOR,KOR,인천광역시,부평구,,십정동,,배곶남로,19,354-5,2022-08-24 14:41:06,"쇼핑,편의||미용||미용실||미용실-일반",False
6407,6408,4325083,머리나라,,head country,Shops and Service,Beauty Salon,126.68185242071088,37.45230546094527,대한민국,KOR,KOR,인천광역시,미추홀구,,주안동,,인주대로407번길,19,1472-22,2022-08-24 14:41:06,"쇼핑,편의||미용||미용실||미용실-일반",False
7441,7442,6218426,미추홀이용원,,Michu Hall Userwon,Shops and Service,Beauty Salon,126.66548166511546,37.44488184505048,대한민국,KOR,KOR,인천광역시,미추홀구,,학익동,,한나루로,419,313-2,2022-08-08 10:29:42,"쇼핑,편의||미용||미용실||일반미용실||이용원",False
8377,8378,5675846,연풍이용원,,Yeonpung Lee Yong-won,Shops and Service,Beauty Salon,126.6587190172609,37.60289053398181,대한민국,KOR,KOR,인천광역시,서구,,마전동,,검단로487번길,6,933-3,2020-01-14 23:23:43,"쇼핑,편의||미용||미용실||일반미용실||이용원",False
8509,8510,4349116,삼화이용원,,Samhwa Yongwon,Shops and Service,Beauty Salon,126.67353430554792,37.54178486969241,대한민국,KOR,KOR,인천광역시,서구,,심곡동,,승학로216번길,9,257-7,2020-01-14 23:26:11,"쇼핑,편의||미용||미용실||일반미용실||이용원",False
10540,10541,4336461,윤명희머리사랑,,Yoon Myung-hee's hair love,Shops and Service,Beauty Salon,126.73524392596993,37.50442108041021,대한민국,KOR,KOR,인천광역시,부평구,,부개동,,길주남로125번길,11-9,12-205,2022-08-16 16:52:33,"쇼핑,편의||미용||미용실||미용실-일반",False
11059,11060,3137735,부국이용원,,wealthy service worker,Shops and Service,Beauty Salon,126.67580765114288,37.45452004895676,대한민국,KOR,KOR,인천광역시,미추홀구,,주안동,,경인로326번길,91,548-4,2021-12-23 15:49:18,"쇼핑,편의||미용||미용실||일반미용실||이용원",False
12942,12943,4321684,머리사랑,,hair love,Shops and Service,Beauty Salon,126.70668529999995,37.44492709999978,대한민국,KOR,KOR,인천광역시,남동구,,구월동,,남동대로,701,1167,2022-08-24 14:41:06,"쇼핑,편의||미용||미용실||미용실-일반",False
12957,12958,3105473,호박머리,,pumpkin head,Shops and Service,Beauty Salon,126.64291049160389,37.47092279300938,대한민국,KOR,KOR,인천광역시,동구,,창영동,,샛골로,94-1,107-36,2022-08-24 14:41:06,"쇼핑,편의||미용||미용실||미용실-일반",False
13298,13299,3144644,한빛이용원,,Hanbit Lee Yong-won,Shops and Service,Beauty Salon,126.7276764458759,37.45248224314288,대한민국,KOR,KOR,인천광역시,남동구,,만수동,,구월로336번길,60,924-11,2022-05-01 12:37:48,"쇼핑,편의||미용||미용실||일반미용실||이용원",False
13566,13567,4340454,머리조각,,head sculpt,Shops and Service,Beauty Salon,126.70933259351288,37.535360373758415,대한민국,KOR,KOR,인천광역시,계양구,,효성동,,안남로573번길,17,33-3,2022-08-16 16:52:33,"쇼핑,편의||미용||미용실||미용실-일반",False
13902,13903,2598395,머리이야기,,head story,Shops and Service,Beauty Salon,126.73798862584596,37.45446583086317,대한민국,KOR,KOR,인천광역시,남동구,,만수동,,인수북로,1,49-8,2022-08-24 14:41:06,"쇼핑,편의||미용||미용실||미용실-일반",False
14535,14536,4345666,머리여행,,head trip,Shops and Service,Beauty Salon,126.73027461056842,37.45347638132824,대한민국,KOR,KOR,인천광역시,남동구,,만수동,,하촌로59번길,52-1,948-20,2022-08-24 14:41:06,"쇼핑,편의||미용||미용실||미용실-일반",False
14691,14692,4340984,머리해요,,head,Shops and Service,Beauty Salon,126.70577622095288,37.49337006800977,대한민국,KOR,KOR,인천광역시,부평구,,산곡동,,화랑남로9번길,19,311-144,2022-08-16 16:52:33,"쇼핑,편의||미용||미용실||미용실-일반",False
15539,15540,5694158,사랑미용실,,love beauty salon,Shops and Service,Beauty Salon,126.6939944152609,37.47058095449759,대한민국,KOR,KOR,인천광역시,부평구,,십정동,,정석로,6,360-5,2022-08-24 14:41:06,"쇼핑,편의||미용||미용실||미용실-일반",False
16137,16138,20203018,머리사랑,,hair love,Shops and Service,Beauty Salon,126.67071877754796,37.51688188086111,대한민국,KOR,KOR,인천광역시,서구,,신현동,,신현로37번길,13,280-2,2022-08-24 14:41:06,"쇼핑,편의||미용||미용실||미용실-일반",False
18088,18089,20757026,성진이용원,,Seongjin Lee Yong-won,Shops and Service,Beauty Salon,126.72146013054288,37.4887197012398,대한민국,KOR,KOR,인천광역시,부평구,,부평동,,남부역로,17,740-17,2022-05-18 1:20:07,"쇼핑,편의||미용||미용실||일반미용실||이용원",False
18096,18097,27038427,광일이용원,,Gwangil Yongwon,Shops and Service,Beauty Salon,126.71291158386192,37.4665643829344,대한민국,KOR,KOR,인천광역시,남동구,,간석동,,백범로352번길,32,95-5,2022-05-01 12:37:48,"쇼핑,편의||미용||미용실||일반미용실||이용원",False
18908,18909,3112275,현머리방,,Hyeonmoribang,Shops and Service,Beauty Salon,126.63094391151385,37.47862526588988,대한민국,KOR,KOR,인천광역시,동구,,화평동,,화도진로,77,361,2022-05-01 12:37:48,"쇼핑,편의||미용||미용실||미용실-일반",False
18935,18936,5715724,세화머리대통령,,President Sehwa Meori,Shops and Service,Beauty Salon,126.64601223638086,37.47852111916507,대한민국,KOR,KOR,인천광역시,동구,,송림동,,샛골로184번길,10-1,51-59,2022-05-18 1:17:08,"쇼핑,편의||미용||미용실||미용실-일반",False
19447,19448,20056149,리안헤어 계산점,,Rihanna's checkpoint,Shops and Service,Beauty Salon,126.73655139999993,37.538650299999816,대한민국,KOR,KOR,인천광역시,계양구,,계산동,,계산새로,71,1062,2022-09-06 15:18:26,"쇼핑,편의||미용||미용실||일반미용실||리안헤어",False
19901,19902,5678505,럭키이용원,,Lucky Yong-won,Shops and Service,Beauty Salon,126.67337324236291,37.550280347542106,대한민국,KOR,KOR,인천광역시,서구,,연희동,,연희로28번길,11,736-7,2022-05-01 12:37:48,"쇼핑,편의||미용||미용실||일반미용실||이용원",False
20705,20706,3429725,천재손이용원,,Genius Son Lee Yong-won,Shops and Service,Beauty Salon,126.64366099999997,37.45317799999978,대한민국,KOR,KOR,인천광역시,미추홀구,,용현동,,용오로,84,610-265,2018-08-11 0:00:00,"쇼핑,편의||미용||미용실||일반미용실||이용원",False
20954,20955,5720485,성신이용원,,Sungshin Yongwon,Shops and Service,Beauty Salon,126.6957623634719,37.46907497264408,대한민국,KOR,KOR,인천광역시,부평구,,십정동,,백범로499번길,17,460-2,2021-12-23 15:49:18,"쇼핑,편의||미용||미용실||일반미용실||이용원",False
21249,21250,2616267,갤러리아미용실강화점,,Galleria Beauty Salon Ganghwa Branch,Shops and Service,Beauty Salon,126.48186769999984,37.747070599999915,대한민국,KOR,KOR,인천광역시,강화군,,강화읍,신문리,청하동길,10,585-9,2022-05-01 12:37:48,"쇼핑,편의||미용||미용실||미용실-일반",False
21314,21315,4336610,회원이용원,,member member,Shops and Service,Beauty Salon,126.72947211273092,37.54140566914641,대한민국,KOR,KOR,인천광역시,계양구,,계산동,,주부토로532번길,10,342,2022-08-24 14:41:06,"쇼핑,편의||미용||미용실||일반미용실||이용원",False
21552,21553,4321545,영머리방,,Youngmeoribang,Shops and Service,Beauty Salon,126.72610063545892,37.449405010148176,대한민국,KOR,KOR,인천광역시,남동구,,구월동,,복개서로35번길,29,1315,2022-08-24 14:41:06,"쇼핑,편의||미용||미용실||미용실-일반",False
21719,21720,20203097,아트이용원,ARTBARBERSHOP,Art Lee Yong-won,Shops and Service,Beauty Salon,126.72373925498997,37.40376356331787,대한민국,KOR,KOR,인천광역시,남동구,,논현동,,논현로,158,628-5,2021-12-23 15:49:18,"쇼핑,편의||미용||미용실||일반미용실||이용원",False
22978,22979,5661536,청수이용원,,Cheongsu Yongwon,Shops and Service,Beauty Salon,126.7036347870909,37.517833727984,대한민국,KOR,KOR,인천광역시,부평구,,청천동,,청중로57번길,4,15-9,2021-12-23 15:49:18,"쇼핑,편의||미용||미용실||일반미용실||이용원",False
23378,23379,4334093,모드늬이용원,,Modnui Lee Yong-won,Shops and Service,Beauty Salon,126.67918464788391,37.46818980021207,대한민국,KOR,KOR,인천광역시,미추홀구,,주안동,,길파로27번길,5,14-36,2021-12-23 15:49:18,"쇼핑,편의||미용||미용실||일반미용실||이용원",False
23605,23606,27241598,머리애반하다,,have a headache,Shops and Service,Beauty Salon,126.55758678355734,37.48598430034843,대한민국,KOR,KOR,인천광역시,중구,,중산동,,하늘달빛로,95,1872-1,2022-08-12 13:15:03,"쇼핑,편의||미용||미용실||미용실-일반",False
24170,24171,2603183,찬비야머리하자,,"Chanbi, let's head",Shops and Service,Beauty Salon,126.66646791258388,37.5150065511425,대한민국,KOR,KOR,인천광역시,서구,,신현동,,새오개로54번길,9-3,156-30,2022-08-24 14:41:06,"쇼핑,편의||미용||미용실||미용실-일반",False
24202,24203,3442645,머리조각,,head sculpt,Shops and Service,Beauty Salon,126.73642299999997,37.407951999999774,대한민국,KOR,KOR,인천광역시,남동구,,논현동,,청능대로715번길,24,599-1,2022-08-24 14:41:06,"쇼핑,편의||미용||미용실||미용실-일반",False
24344,24345,5666987,문학이용원,,Literary Lee Yong-won,Shops and Service,Beauty Salon,126.68400266688488,37.437670744463674,대한민국,KOR,KOR,인천광역시,미추홀구,,문학동,,소성로,329,377-17,2019-11-14 0:00:00,"쇼핑,편의||미용||미용실||일반미용실||이용원",False
24973,24974,4342997,헤어나라,,break up,Shops and Service,Beauty Salon,126.70977109864587,37.528905717615295,대한민국,KOR,KOR,인천광역시,계양구,,효성동,,안남로519번길,13,232-3,2021-12-23 15:49:18,"쇼핑,편의||미용||미용실||미용실-일반",False
25155,25156,26874180,한아름이용원,,Han Ah-reum Lee Yong-won,Shops and Service,Beauty Salon,126.71303214975192,37.431374882520565,대한민국,KOR,KOR,인천광역시,남동구,,남촌동,,남촌동로,52-1,343-17,2022-05-01 12:37:48,"쇼핑,편의||미용||미용실||일반미용실||이용원",False
26608,26609,2615896,상지이용원,,Sang Ji Yong-won,Shops and Service,Beauty Salon,126.63586828985284,37.47391834437876,대한민국,KOR,KOR,인천광역시,동구,,금곡동,,화도진로7번길,6-2,2-17,2021-12-23 15:49:18,"쇼핑,편의||미용||미용실||일반미용실||이용원",False
27468,27469,3458218,탑헤어터치동인천점,,Top Hair Touch Dongcheon Branch,Shops and Service,Beauty Salon,126.63071400290784,37.47433008812478,대한민국,KOR,KOR,인천광역시,중구,,인현동,,우현로,84,27-47,2021-12-23 15:49:18,"쇼핑,편의||미용||미용실||미용실-일반",False
28590,28591,5691563,머리이야기,,head story,Shops and Service,Beauty Salon,126.65984093040588,37.45109091700927,대한민국,KOR,KOR,인천광역시,미추홀구,,용현동,,경인남길30번길,99,185-9,2022-08-12 13:15:03,"쇼핑,편의||미용||미용실||미용실-일반",False
28882,28883,2598408,머리사랑,,hair love,Shops and Service,Beauty Salon,126.73997499999992,37.45993459999978,대한민국,KOR,KOR,인천광역시,남동구,,만수동,,백범로124번길,162,12,2022-08-24 14:41:06,"쇼핑,편의||미용||미용실||미용실-일반",False
29877,29878,5684013,머릿결사랑,,hair love,Shops and Service,Beauty Salon,126.71032989949487,37.483910902081,대한민국,KOR,KOR,인천광역시,부평구,,십정동,,창휘로,28,180-14,2022-05-01 12:37:48,"쇼핑,편의||미용||머리염색||프랜차이즈||머릿결사랑",False
31148,31149,2615733,용두이용원,,Yongdu Yongwon,Shops and Service,Beauty Salon,126.71558700640388,37.46457307025398,대한민국,KOR,KOR,인천광역시,남동구,,간석동,,간석로72번길,40,44-1,2022-05-01 12:37:48,"쇼핑,편의||미용||미용실||일반미용실||이용원",False
31301,31302,4336343,송림이용원,,Songlim Lee Yong-won,Shops and Service,Beauty Salon,126.71285308265588,37.46058792036595,대한민국,KOR,KOR,인천광역시,남동구,,간석동,,석산로,188,143-3,2021-12-23 15:49:18,"쇼핑,편의||미용||미용실||일반미용실||이용원",False
33055,33056,4324101,제일이용원,,Jeil Lee Yong-won,Shops and Service,Beauty Salon,126.6572496504849,37.45476488814856,대한민국,KOR,KOR,인천광역시,미추홀구,,용현동,,인주대로174번길,24,141-74,2019-11-14 0:00:00,"쇼핑,편의||미용||미용실||일반미용실||이용원",False
33585,33586,5664839,태후사랑 주안점,,Empress Dowager's Love  Main Point,Shops and Service,Beauty Salon,126.68640470528088,37.461023471790575,대한민국,KOR,KOR,인천광역시,미추홀구,,주안동,,경원대로875번길,53,58-26,2022-05-01 12:37:48,"쇼핑,편의||미용||머리염색||프랜차이즈||태후사랑",False
34456,34457,20468832,나이스컷이용원,,Nice Cut Lee Yong-won,Shops and Service,Beauty Salon,126.72153102653397,37.53267782989772,대한민국,KOR,KOR,인천광역시,계양구,,작전동,,계양대로97번길,6,853-23,2022-05-01 12:37:48,"쇼핑,편의||미용||미용실||일반미용실||이용원",False
34549,34550,5843086,김포이용원,,Gimpo Lee Yong-won,Shops and Service,Beauty Salon,126.67569658334097,37.45416588174553,대한민국,KOR,KOR,인천광역시,미추홀구,,주안동,,경인로326번길,99,548-8,2022-05-01 12:37:48,"쇼핑,편의||미용||미용실||일반미용실||이용원",False
34766,34767,3125952,나리이용원,,Narii Yong-won,Shops and Service,Beauty Salon,126.67107885064388,37.543939989241515,대한민국,KOR,KOR,인천광역시,서구,,심곡동,,탁옥로,14,335-5,2020-01-14 23:43:29,"쇼핑,편의||미용||미용실||일반미용실||이용원",False
34971,34972,4347846,독도이용원,,Dokdo Userwon,Shops and Service,Beauty Salon,126.67391213010892,37.50341649725889,대한민국,KOR,KOR,인천광역시,서구,,석남동,,거북로,107,541-28,2022-05-01 12:37:48,"쇼핑,편의||미용||미용실||일반미용실||이용원",False
35237,35238,5683311,태후사랑 구월1동점,,Love for the Empress Dowager  September 1st,Shops and Service,Beauty Salon,126.7123341411723,37.451710521393615,대한민국,KOR,KOR,인천광역시,남동구,,구월동,,용천로21번길,34-1,1213-17,2022-05-01 12:37:48,"쇼핑,편의||미용||머리염색||프랜차이즈||태후사랑",False
35666,35667,6230620,문화이용원,,Culture User Center,Shops and Service,Beauty Salon,126.66137870714688,37.45178685187487,대한민국,KOR,KOR,인천광역시,미추홀구,,용현동,,경인남길102번길,67-7,96-48,2022-08-24 14:41:06,"쇼핑,편의||미용||미용실||일반미용실||이용원",False
35735,35736,3121195,동양이용원,,Dongyang Yongwon,Shops and Service,Beauty Salon,126.70574560704388,37.5279124147383,대한민국,KOR,KOR,인천광역시,계양구,,효성동,,효서로,89,533-1,2021-12-23 15:49:18,"쇼핑,편의||미용||미용실||일반미용실||이용원",False
36519,36520,4335432,모범이용원,,model user,Shops and Service,Beauty Salon,126.68626883266688,37.48625562517649,대한민국,KOR,KOR,인천광역시,서구,,가좌동,,고래울로,38-1,346,2021-12-23 15:49:18,"쇼핑,편의||미용||미용실||일반미용실||이용원",False
38906,38907,5676647,소망이용원,,Somyeong Yong-won,Shops and Service,Beauty Salon,126.63916694618452,37.45271548801264,대한민국,KOR,KOR,인천광역시,미추홀구,,용현동,,토금중로51번길,13,611-44,2022-05-01 12:37:48,"쇼핑,편의||미용||미용실||일반미용실||이용원",False
39255,39256,6204816,용천이용원,,Yongcheon Yongwon,Shops and Service,Beauty Salon,126.72541961188092,37.4990859675804,대한민국,KOR,KOR,인천광역시,부평구,,부평동,,주부토로46번길,3,415-27,2021-12-23 15:49:18,"쇼핑,편의||미용||미용실||일반미용실||이용원",False
39732,39733,4330170,머리이야기,,head story,Shops and Service,Beauty Salon,126.67526539999996,37.46410459999979,대한민국,KOR,KOR,인천광역시,미추홀구,,주안동,,주안로,52,284,2022-08-24 14:41:06,"쇼핑,편의||미용||미용실||미용실-일반",False
41677,41678,20200038,모범이용원,,model user,Shops and Service,Beauty Salon,126.67555057406496,37.45617152530819,대한민국,KOR,KOR,인천광역시,미추홀구,,주안동,,한나루로564번길,84,555-29,2021-12-23 15:49:18,"쇼핑,편의||미용||미용실||일반미용실||이용원",False
41809,41810,5692636,용남이용원,,Yong-Nam Yong-Won,Shops and Service,Beauty Salon,126.6646888805229,37.44927507110216,대한민국,KOR,KOR,인천광역시,미추홀구,,용현동,,인하로,149-1,31-23,2021-12-23 15:49:18,"쇼핑,편의||미용||미용실||일반미용실||이용원",False
43691,43692,4338187,머리할까,,Shall I head,Shops and Service,Beauty Salon,126.64588759999992,37.45835889999979,대한민국,KOR,KOR,인천광역시,미추홀구,,숭의동,,장천로6번길,10,297-26,2022-05-01 12:37:48,"쇼핑,편의||미용||미용실||미용실-일반",False
44000,44001,2607505,시대이용원,,Age Yong-won,Shops and Service,Beauty Salon,126.73285999614592,37.54492491542321,대한민국,KOR,KOR,인천광역시,계양구,,임학동,,임학서로,22,46-1,2019-11-14 0:00:00,"쇼핑,편의||미용||미용실||일반미용실||이용원",False
44925,44926,4337668,동경이용원,,Tokyo Yongwon,Shops and Service,Beauty Salon,126.67485879756288,37.5200068953679,대한민국,KOR,KOR,인천광역시,서구,,가정동,,가정로394번길,15,495-14,2021-12-23 15:49:18,"쇼핑,편의||미용||미용실||일반미용실||이용원",False
47047,47048,3110241,삼각이용원,,Samgak Yongwon,Shops and Service,Beauty Salon,126.63127222496384,37.477574579363065,대한민국,KOR,KOR,인천광역시,동구,,화평동,,송화로,4-2,520-1,2021-12-23 15:49:18,"쇼핑,편의||미용||미용실||일반미용실||이용원",False
47075,47076,6212248,새마을이용원,,Saemaeul User Center,Shops and Service,Beauty Salon,126.64301611688887,37.47428356199937,대한민국,KOR,KOR,인천광역시,동구,,송림동,,송림로70번길,19,112-69,2021-12-23 15:49:18,"쇼핑,편의||미용||미용실||일반미용실||이용원",False
48810,48811,4344415,태후사랑 선학점,,Empress Dowager Love  Seon Credit,Shops and Service,Beauty Salon,126.69454582845188,37.423634394532456,대한민국,KOR,KOR,인천광역시,연수구,,선학동,,학나래로5번길,38,369-9,2022-08-16 16:52:33,"쇼핑,편의||미용||머리염색||프랜차이즈||태후사랑",False
49455,49456,4343215,엄지머리사랑,,thumb love,Shops and Service,Beauty Salon,126.72725809525392,37.45608066600729,대한민국,KOR,KOR,인천광역시,남동구,,만수동,,만경로,6,887-25,2022-08-16 16:52:33,"쇼핑,편의||미용||미용실||미용실-일반",False
50585,50586,20062834,로꼬헤어,,Immi manor,Shops and Service,Beauty Salon,126.70837329999993,37.4572335999998,대한민국,KOR,KOR,인천광역시,남동구,,간석동,,남동대로837번길,1,292-3,2022-09-06 15:18:26,"쇼핑,편의||미용||미용실||미용실-일반",False
50593,50594,4336186,유리이용원,,glass user,Shops and Service,Beauty Salon,126.49670489999984,37.742239299999895,대한민국,KOR,KOR,인천광역시,강화군,,강화읍,갑곳리,강화대로312번길,16,341-1,2021-12-23 15:49:18,"쇼핑,편의||미용||미용실||일반미용실||이용원",False
52450,52451,4340215,신정선머리나라 부평점,,Shin Jeong-seon Meori Nara Bupyeong Branch,Shops and Service,Beauty Salon,126.71778555350768,37.504015566939486,대한민국,KOR,KOR,인천광역시,부평구,,부평동,,부평대로165번길,62,799-3,2022-08-16 16:52:33,"쇼핑,편의||미용||미용실||미용실-일반",False
53529,53530,5726795,미사랑헤어,,Miss love hair,Shops and Service,Beauty Salon,126.65145489999996,37.60244109999985,대한민국,KOR,KOR,인천광역시,서구,,왕길동,,봉수대로1440번길,27,634-1,2022-08-12 13:15:03,"쇼핑,편의||미용||미용실||미용실-일반",False
54171,54172,3140626,태후사랑 신현점,,Empress Dowager Shinhyeon Branch,Shops and Service,Beauty Salon,126.67085471304593,37.516988676842885,대한민국,KOR,KOR,인천광역시,서구,,신현동,,율도로77번길,37,279-5,2022-08-16 16:52:33,"쇼핑,편의||미용||머리염색||프랜차이즈||태후사랑",False
54880,54881,3132908,미광이용원,,Mikwang Yong-won,Shops and Service,Beauty Salon,126.65970193210896,37.604733558137326,대한민국,KOR,KOR,인천광역시,서구,,마전동,,검단로487번길,27,918-7,2022-05-01 12:37:48,"쇼핑,편의||미용||미용실||일반미용실||이용원",False
54942,54943,20482927,강남이용원,,Gangnam Lee Yong-won,Shops and Service,Beauty Salon,126.67369156784893,37.51224840792411,대한민국,KOR,KOR,인천광역시,서구,,석남동,,가정로308번길,9,460-18,2022-05-01 12:37:48,"쇼핑,편의||미용||미용실||일반미용실||이용원",False
55922,55923,3129551,광성이용원,,Gwangseong Yongwon,Shops and Service,Beauty Salon,126.73392916045992,37.50094595653541,대한민국,KOR,KOR,인천광역시,부평구,,부평동,,부흥북로107번길,1,98-119,2021-12-23 15:49:18,"쇼핑,편의||미용||미용실||일반미용실||이용원",False
57153,57154,4362034,애영이용원,,Aeyoung Lee Yong-won,Shops and Service,Beauty Salon,126.73897881201295,37.54654506799191,대한민국,KOR,KOR,인천광역시,계양구,,임학동,,임학동로56번길,16,25-8,2019-11-14 0:00:00,"쇼핑,편의||미용||미용실||일반미용실||이용원",False
57932,57933,2619879,싹썬이용원,,Sprout Lee Yong-won,Shops and Service,Beauty Salon,126.66260582763088,37.44429598591216,대한민국,KOR,KOR,인천광역시,미추홀구,,학익동,,한나루로403번길,42,422-24,2021-12-23 15:49:18,"쇼핑,편의||미용||미용실||일반미용실||이용원",False
58374,58375,3134549,폭탄머리,,bomb head,Shops and Service,Beauty Salon,126.72314699999995,37.50945799999982,대한민국,KOR,KOR,인천광역시,부평구,,갈산동,,갈월서로,26,374,2022-05-01 12:37:48,"쇼핑,편의||미용||미용실||미용실-일반",False
58657,58658,4357760,머리사랑,,hair love,Shops and Service,Beauty Salon,126.64322168119584,37.48012015927376,대한민국,KOR,KOR,인천광역시,동구,,송현동,,안송로,108-1,13-6,2022-08-16 16:52:33,"쇼핑,편의||미용||미용실||미용실-일반",False
59032,59033,3122372,한흥이용원,,Hanheung Lee Yong-won,Shops and Service,Beauty Salon,126.64735361688088,37.46225917918706,대한민국,KOR,KOR,인천광역시,미추홀구,,숭의동,,미추로,24,190-38,2019-11-14 0:00:00,"쇼핑,편의||미용||미용실||일반미용실||이용원",False
59094,59095,4335257,상록수이용원,,Sangnoksu Yongwon,Shops and Service,Beauty Salon,126.66772619432788,37.42742588553257,대한민국,KOR,KOR,인천광역시,연수구,,청학동,,비류대로291번길,26,549-2,2021-12-23 15:49:18,"쇼핑,편의||미용||미용실||일반미용실||이용원",False
59097,59098,3141905,머리가꿈터,,dream of head,Shops and Service,Beauty Salon,126.7262978171469,37.45202693637546,대한민국,KOR,KOR,인천광역시,남동구,,만수동,,구월남로327번길,4,925-1,2022-05-01 12:37:48,"쇼핑,편의||미용||미용실||미용실-일반",False
59642,59643,4334551,살롱드일리헤어스투디오,MADEMOISELLE헤어샵,Mademoiselle Hair Shop,Shops and Service,Beauty Salon,126.72857499999996,37.489684599999805,대한민국,KOR,KOR,인천광역시,부평구,,부평동,,장제로,45,541-2,2022-09-06 15:18:26,"쇼핑,편의||미용||미용실||미용실-일반",False
61436,61437,4347316,올리브이용원,,Olive Garden,Shops and Service,Beauty Salon,126.71679839999996,37.526643999999806,대한민국,KOR,KOR,인천광역시,계양구,,효성동,,새벌로,108,200-1,2017-03-14 12:12:12,"쇼핑,편의||미용||미용실||일반미용실||이용원",False
62877,62878,2611802,호두깍기 부평점,,Nutcracker,Shops and Service,Beauty Salon,126.72495015342672,37.50195870264715,대한민국,KOR,KOR,인천광역시,부평구,,부평동,,주부토로75번길,6,433-171,2022-08-24 14:41:06,"쇼핑,편의||미용||미용실||미용실-일반",False
64813,64814,4338129,머리하고놀자,,Let's play with our heads,Shops and Service,Beauty Salon,126.7042573434159,37.46546913816008,대한민국,KOR,KOR,인천광역시,남동구,,간석동,,예술로360번길,29,253-11,2019-11-14 0:00:00,"쇼핑,편의||미용||미용실||미용실-일반",False
65036,65037,4334420,머리사랑,,hair love,Shops and Service,Beauty Salon,126.74175142956295,37.5182753524401,대한민국,KOR,KOR,인천광역시,부평구,,삼산동,,영성중로15번길,44,167-17,2021-12-23 15:49:18,"쇼핑,편의||미용||미용실||미용실-일반",False
67180,67181,4351600,동네이용원,,neighborhood user,Shops and Service,Beauty Salon,126.72217739999996,37.513358599999805,대한민국,KOR,KOR,인천광역시,부평구,,갈산동,,굴포로5번길,28,183-1,2017-03-14 12:12:12,"쇼핑,편의||미용||미용실||일반미용실||이용원",False
67321,67322,3134472,국일이용원,,National Service Center,Shops and Service,Beauty Salon,126.72703793401992,37.5187428967921,대한민국,KOR,KOR,인천광역시,부평구,,갈산동,,주부토로,265,108-11,2019-11-14 23:06:52,"쇼핑,편의||미용||미용실||일반미용실||이용원",False
71778,71779,5678823,동양이용원,,Dongyang Yongwon,Shops and Service,Beauty Salon,126.70956305178096,37.52019436779472,대한민국,KOR,KOR,인천광역시,부평구,,청천동,,안남로417번길,13,397-2,2022-05-01 12:37:48,"쇼핑,편의||미용||미용실||일반미용실||이용원",False
72696,72697,3133469,머리나라,,head country,Shops and Service,Beauty Salon,126.68408371451687,37.49427698625869,대한민국,KOR,KOR,인천광역시,서구,,가좌동,,원적로100번길,16,30-30,2022-08-24 14:41:06,"쇼핑,편의||미용||미용실||미용실-일반",False
73462,73463,20200861,오류이용원,,error user,Shops and Service,Beauty Salon,126.66197074731495,37.603515955736654,대한민국,KOR,KOR,인천광역시,서구,,마전동,,완정로156번길,33,988-2,2022-05-01 12:37:48,"쇼핑,편의||미용||미용실||일반미용실||이용원",False
74019,74020,5669100,안국이용원,,Anguk Lee Yong-won,Shops and Service,Beauty Salon,126.69500662523592,37.44119663868505,대한민국,KOR,KOR,인천광역시,미추홀구,,관교동,,경원대로640번길,23,500-6,2022-05-01 12:37:48,"쇼핑,편의||미용||미용실||일반미용실||이용원",False
74806,74807,2594758,복지이용원,,Welfare User,Shops and Service,Beauty Salon,126.64029999999993,37.47657499999979,대한민국,KOR,KOR,인천광역시,동구,,송림동,,솔빛로,62,169-1,2021-12-23 15:49:18,"쇼핑,편의||미용||미용실||일반미용실||이용원",False
76352,76353,3133159,은하수이용원,,Eunhasu Yongwon,Shops and Service,Beauty Salon,126.64126389999991,37.4770666999998,대한민국,KOR,KOR,인천광역시,동구,,송림동,,솔빛로63번길,14-3,147-3,2021-12-23 15:49:18,"쇼핑,편의||미용||미용실||일반미용실||이용원",False
76588,76589,4347047,머리날다,,head flying,Shops and Service,Beauty Salon,126.67575535410388,37.55857747210311,대한민국,KOR,KOR,인천광역시,서구,,검암동,,도요지로227번길,20,655-2,2022-08-24 14:41:06,"쇼핑,편의||미용||미용실||미용실-일반",False
77656,77657,5704412,머리가하는이야기,,the story of the head,Shops and Service,Beauty Salon,126.7203418548069,37.541926912185886,대한민국,KOR,KOR,인천광역시,계양구,,계산동,,계산천서로,18,977-26,2022-08-24 14:41:06,"쇼핑,편의||미용||미용실||미용실-일반",False
77766,77767,3108869,세종이용원,,Sejong Yongwon,Shops and Service,Beauty Salon,126.64524274827988,37.47621860701256,대한민국,KOR,KOR,인천광역시,동구,,송림동,,송림로,95-1,50-26,2020-01-14 23:41:16,"쇼핑,편의||미용||미용실||일반미용실||이용원",False
78853,78854,4338308,아이쉬스헤어 부평12호점,,ice hair,Shops and Service,Beauty Salon,126.7219727998986,37.50494320065773,대한민국,KOR,KOR,인천광역시,부평구,,부평동,,신트리로6번길,26,417-17,2022-08-24 14:41:06,"쇼핑,편의||미용||미용실||미용실-일반",False
79814,79815,3114968,댕기머리방,,Daenggi Meoribang,Shops and Service,Beauty Salon,126.48420719999984,37.74534989999989,대한민국,KOR,KOR,인천광역시,강화군,,강화읍,신문리,남문안길,21-1,314-1,2022-05-01 12:37:48,"쇼핑,편의||미용||미용실||미용실-일반",False
80082,80083,6206771,머리사랑,,hair love,Shops and Service,Beauty Salon,126.66492092769188,37.44424500432245,대한민국,KOR,KOR,인천광역시,미추홀구,,학익동,,한나루로411번길,3,261-28,2022-05-01 12:37:48,"쇼핑,편의||미용||미용실||미용실-일반",False
80256,80257,4346169,따봉이용원,,Dabong Yongwon,Shops and Service,Beauty Salon,126.67537239058288,37.50539068078008,대한민국,KOR,KOR,인천광역시,서구,,석남동,,거북로119번길,26,550-31,2021-12-23 15:49:18,"쇼핑,편의||미용||미용실||일반미용실||이용원",False
80693,80694,2600607,대영이용원,,Daeyoung Lee Yong-won,Shops and Service,Beauty Salon,126.67488537653188,37.51936940986349,대한민국,KOR,KOR,인천광역시,서구,,가정동,,원창로229번길,21,503-38,2022-08-24 14:41:06,"쇼핑,편의||미용||미용실||일반미용실||이용원",False
81638,81639,4337058,머리사랑,,hair love,Shops and Service,Beauty Salon,126.72569771480092,37.53192730896042,대한민국,KOR,KOR,인천광역시,계양구,,작전동,,봉오대로691번길,13,862-51,2022-08-24 14:41:06,"쇼핑,편의||미용||미용실||미용실-일반",False
81983,81984,3126597,우리이용원,,Woori Yong-won,Shops and Service,Beauty Salon,126.66960989571785,37.500788090191776,대한민국,KOR,KOR,인천광역시,서구,,석남동,,석남로,72-3,592,2021-12-23 15:49:18,"쇼핑,편의||미용||미용실||일반미용실||이용원",False
82113,82114,4344680,가좌이용원,,Gajwa User-won,Shops and Service,Beauty Salon,126.67913950482787,37.49623597400458,대한민국,KOR,KOR,인천광역시,서구,,가좌동,,건지로318번안길,17,186-6,2020-01-14 23:24:57,"쇼핑,편의||미용||미용실||일반미용실||이용원",False
82778,82779,6204303,성지이용원,,Seongji Yong-won,Shops and Service,Beauty Salon,126.6570071704689,37.456126093934266,대한민국,KOR,KOR,인천광역시,미추홀구,,용현동,,인주대로171번길,13,146-193,2021-12-23 15:49:18,"쇼핑,편의||미용||미용실||일반미용실||이용원",False
82791,82792,5677039,머릿결사랑 부평점,,hair love Bupyeong,Shops and Service,Beauty Salon,126.73141656061892,37.502584648024715,대한민국,KOR,KOR,인천광역시,부평구,,부평동,,장제로190번길,6,143-34,2022-08-16 16:52:33,"쇼핑,편의||미용||머리염색||프랜차이즈||머릿결사랑",False
83990,83991,27451533,머리합니다,,head,Shops and Service,Beauty Salon,126.72620192466296,37.45784027930419,대한민국,KOR,KOR,인천광역시,남동구,,만수동,,구월말로100번길,16,892,2022-08-12 13:15:03,"쇼핑,편의||미용||미용실||미용실-일반",False
86069,86070,4346781,미사랑헤어,,Miss love hair,Shops and Service,Beauty Salon,126.71188178476088,37.50472498504529,대한민국,KOR,KOR,인천광역시,부평구,,산곡동,,원길로11번길,45,409-4,2022-08-24 14:41:06,"쇼핑,편의||미용||미용실||미용실-일반",False
86548,86549,5686217,경춘이용원,,Kyungchun Lee Yong-won,Shops and Service,Beauty Salon,126.7264828373948,37.45416250046912,대한민국,KOR,KOR,인천광역시,남동구,,만수동,,구월말로58번길,29,918-8,2022-08-30 9:43:30,"쇼핑,편의||미용||미용실||일반미용실||이용원",False
86750,86751,20203270,황금이용원,,Golden Lee Yong-won,Shops and Service,Beauty Salon,126.72426749509695,37.404377971806476,대한민국,KOR,KOR,인천광역시,남동구,,논현동,,논고개로,152-16,608-3,2022-05-01 12:37:48,"쇼핑,편의||미용||미용실||일반미용실||이용원",False
89071,89072,5656990,푸른이용원,,Blue Yongwon,Shops and Service,Beauty Salon,126.66833185130788,37.515255495789496,대한민국,KOR,KOR,인천광역시,서구,,신현동,,염곡로,341-8,143,2022-05-01 12:37:48,"쇼핑,편의||미용||미용실||일반미용실||이용원",False
89249,89250,27224983,삼삼이용원,,Sam Sam Yi Yong-won,Shops and Service,Beauty Salon,126.72570115724893,37.53184363625512,대한민국,KOR,KOR,인천광역시,계양구,,작전동,,봉오대로691번길,13,862-51,2022-05-01 12:37:48,"쇼핑,편의||미용||미용실||일반미용실||이용원",False
90016,90017,27454582,호박머리,,pumpkin head,Shops and Service,Beauty Salon,126.64198500947695,37.4726839105055,대한민국,KOR,KOR,인천광역시,동구,,금곡동,,금창로,50,54-107,2022-08-16 16:52:33,"쇼핑,편의||미용||미용실||미용실-일반",False
90361,90362,3133114,남매이용원,,Sibling Lee Yong-won,Shops and Service,Beauty Salon,126.62996389999996,37.48005829999981,대한민국,KOR,KOR,인천광역시,동구,,화평동,,화도로,7,232-2,2017-03-14 12:12:12,"쇼핑,편의||미용||미용실||일반미용실||이용원",False
91015,91016,4786848,로이드밤 인천만수점,LLOYDBOMB만수점,Lloyd's Bomb Full Point,Shops and Service,Beauty Salon,126.73854059999996,37.44316339999979,대한민국,KOR,KOR,인천광역시,남동구,,만수동,,담방로,39,1040-4,2022-09-06 15:18:26,"쇼핑,편의||미용||미용실||일반미용실||로이드밤",False
91598,91599,2608148,머리여행,,head trip,Shops and Service,Beauty Salon,126.74143042498793,37.44408924625457,대한민국,KOR,KOR,인천광역시,남동구,,만수동,,장승남로81번길,10,1036,2022-08-12 13:15:03,"쇼핑,편의||미용||미용실||미용실-일반",False
91687,91688,27038211,스타이용원,,Star Lee Yong-won,Shops and Service,Beauty Salon,126.67401334600092,37.50453242147532,대한민국,KOR,KOR,인천광역시,서구,,석남동,,거북로109번길,15,542-52,2022-05-02 21:16:34,"쇼핑,편의||미용||미용실||일반미용실||이용원",False
92217,92218,20201627,사랑스러운미용실,,lovely hair salon,Shops and Service,Beauty Salon,126.7292843449569,37.45589955694648,대한민국,KOR,KOR,인천광역시,남동구,,만수동,,백범로157번길,34-20,886-3,2022-05-01 12:37:48,"쇼핑,편의||미용||미용실||미용실-일반",False
92478,92479,3105481,지정이용원,,Designated user,Shops and Service,Beauty Salon,126.64223277220783,37.47051958608287,대한민국,KOR,KOR,인천광역시,동구,,창영동,,샛골로,85-1,106-2,2020-01-14 0:00:00,"쇼핑,편의||미용||미용실||일반미용실||이용원",False
92712,92713,6221517,다모아이용원,,Damoai Yongwon,Shops and Service,Beauty Salon,126.69216703958992,37.45748062769648,대한민국,KOR,KOR,인천광역시,미추홀구,,주안동,,구월로,18,1583-3,2022-05-18 1:14:04,"쇼핑,편의||미용||미용실||일반미용실||이용원",False
93327,93328,3455381,연희이용원,,Yeonhee Lee Yong-won,Shops and Service,Beauty Salon,126.6747233179569,37.54845493470212,대한민국,KOR,KOR,인천광역시,서구,,연희동,,승학로,297,741-11,2022-08-16 16:52:33,"쇼핑,편의||미용||미용실||일반미용실||이용원",False
93517,93518,4345713,부개이용원,,secondary user,Shops and Service,Beauty Salon,126.73916476218793,37.487518629833914,대한민국,KOR,KOR,인천광역시,부평구,,부개동,,수변로9번길,5,301,2022-08-16 16:52:33,"쇼핑,편의||미용||미용실||일반미용실||이용원",False
93716,93717,2605084,성심이용원,,Sung Shim Yong-won,Shops and Service,Beauty Salon,126.66991872034288,37.50047291134569,대한민국,KOR,KOR,인천광역시,서구,,석남동,,건지로249번길,13,592-14,2021-12-23 15:49:18,"쇼핑,편의||미용||미용실||일반미용실||이용원",False
95687,95688,4329479,우정이용원,,Friendship Lee Yong-won,Shops and Service,Beauty Salon,126.65216069999988,37.481077399999776,대한민국,KOR,KOR,인천광역시,동구,,송림동,,송향로,25,341,2022-05-01 12:37:48,"쇼핑,편의||미용||미용실||일반미용실||이용원",False
97140,97141,3116731,주공이용원,,Joo Gong Yong-won,Shops and Service,Beauty Salon,126.73069099999996,37.419183999999774,대한민국,KOR,KOR,인천광역시,남동구,,도림동,,논고개로334번길,11,629-1,2017-03-14 12:12:12,"쇼핑,편의||미용||미용실||일반미용실||이용원",False
98683,98684,6338355,신임이용원,,new employee,Shops and Service,Beauty Salon,126.7135357753508,37.44989585470714,대한민국,KOR,KOR,인천광역시,남동구,,구월동,,용천로3번길,10,1219-4,2021-03-25 18:29:00,"쇼핑,편의||미용||미용실||일반미용실||이용원",False
99497,99498,4332926,오헤어,,oh hey,Shops and Service,Beauty Salon,126.69942556916592,37.45722787157816,대한민국,KOR,KOR,인천광역시,남동구,,간석동,,구월로,79,749-8,2022-08-24 14:41:06,"쇼핑,편의||미용||미용실||미용실-일반",False
99968,99969,4327733,헤어지존,,break up zone,Shops and Service,Beauty Salon,126.71413430059089,37.46594878778908,대한민국,KOR,KOR,인천광역시,남동구,,간석동,,용천로,183,52-5,2022-08-16 16:52:33,"쇼핑,편의||미용||미용실||미용실-일반",False
100384,100385,3133733,화도이용원,,Hwado Lee Yong-won,Shops and Service,Beauty Salon,126.63058605917584,37.48113376531897,대한민국,KOR,KOR,인천광역시,동구,,화수동,,화도안로,11-1,267-79,2021-12-23 15:49:18,"쇼핑,편의||미용||미용실||일반미용실||이용원",False
101758,101759,2595942,평화이용원,,Peace Service Center,Shops and Service,Beauty Salon,126.70570723842188,37.51733064750099,대한민국,KOR,KOR,인천광역시,부평구,,청천동,,청중로,76,174-13,2019-11-14 23:19:19,"쇼핑,편의||미용||미용실||일반미용실||이용원",False
102462,102463,27182272,태후사랑 만수5동점,,Empress Dowager Mansu 5-dong,Shops and Service,Beauty Salon,126.72183319041793,37.45855885907067,대한민국,KOR,KOR,인천광역시,남동구,,만수동,,백범로247번길,43,904-21,2022-05-01 12:37:48,"쇼핑,편의||미용||머리염색||프랜차이즈||태후사랑",False
102968,102969,20482852,서구이용원,,Seo Gu Yong-won,Shops and Service,Beauty Salon,126.67296254523194,37.511122287827526,대한민국,KOR,KOR,인천광역시,서구,,석남동,,가정로,296,457-7,2022-05-01 12:37:48,"쇼핑,편의||미용||미용실||일반미용실||이용원",False
103077,103078,4342308,황지이용원,,Hwang Ji-yong-won,Shops and Service,Beauty Salon,126.73692024080395,37.48585010458828,대한민국,KOR,KOR,인천광역시,부평구,,부개동,,동수로,167,264-5,2021-12-23 15:49:18,"쇼핑,편의||미용||미용실||일반미용실||이용원",False
104704,104705,6209677,스타이용원,,Star Lee Yong-won,Shops and Service,Beauty Salon,126.64511078945193,37.47559670645259,대한민국,KOR,KOR,인천광역시,동구,,송림동,,송림로,94,60-44,2019-08-13 0:00:00,"쇼핑,편의||미용||미용실||일반미용실||이용원",False
105246,105247,6209928,초원이용원,,grassland user,Shops and Service,Beauty Salon,126.73351475982892,37.49412309442489,대한민국,KOR,KOR,인천광역시,부평구,,부개동,,부평문화로153번길,4,105-8,2021-12-23 15:49:18,"쇼핑,편의||미용||미용실||일반미용실||이용원",False
105885,105886,4339250,미사랑헤어,,Miss love hair,Shops and Service,Beauty Salon,126.70418238214592,37.49753924257951,대한민국,KOR,KOR,인천광역시,부평구,,산곡동,,마장로220번길,30-2,236-15,2022-08-24 14:41:06,"쇼핑,편의||미용||미용실||미용실-일반",False
106095,106096,20185460,황제이용원,,Emperor Lee Yong-won,Shops and Service,Beauty Salon,126.71305178311496,37.5048016420252,대한민국,KOR,KOR,인천광역시,부평구,,산곡동,,원길로11번길,26,408-17,2021-12-23 15:49:18,"쇼핑,편의||미용||미용실||일반미용실||이용원",False
106710,106711,20203254,헤어사랑,,hair love,Shops and Service,Beauty Salon,126.67557159596092,37.50887970838291,대한민국,KOR,KOR,인천광역시,서구,,석남동,,신석로122번길,9-1,496-24,2022-08-16 16:52:33,"쇼핑,편의||미용||미용실||미용실-일반",False
107770,107771,3138395,남부이용원,,Nambu Yongwon,Shops and Service,Beauty Salon,126.67583573760491,37.44989195782256,대한민국,KOR,KOR,인천광역시,미추홀구,,주안동,,인하로247번길,32,1440,2021-12-23 15:49:18,"쇼핑,편의||미용||미용실||일반미용실||이용원",False
109213,109214,5679208,태후사랑 구월모래내점,,Empress Dowager  Go to Guwol Sand,Shops and Service,Beauty Salon,126.72200284692188,37.45199806861818,대한민국,KOR,KOR,인천광역시,남동구,,구월동,,구월남로,292,1274-19,2022-08-16 16:52:33,"쇼핑,편의||미용||머리염색||프랜차이즈||태후사랑",False
109320,109321,2606321,헤어나라,,break up,Shops and Service,Beauty Salon,126.6654843906349,37.5121115758335,대한민국,KOR,KOR,인천광역시,서구,,석남동,,새오개로22번길,3-3,183-6,2022-05-01 12:37:48,"쇼핑,편의||미용||미용실||미용실-일반",False
109416,109417,3142586,우진이용원,,Woojin Lee Yong-won,Shops and Service,Beauty Salon,126.72674470552693,37.46034011987757,대한민국,KOR,KOR,인천광역시,남동구,,만수동,,백범로206번길,13,111-273,2021-12-23 15:49:18,"쇼핑,편의||미용||미용실||일반미용실||이용원",False
110374,110375,20061525,H438 HAIR SALON 부평갈산점,에이치438헤어살롱,H438 HAIR SALON Samsan,Shops and Service,Beauty Salon,126.72680329999996,37.515860599999804,대한민국,KOR,KOR,인천광역시,부평구,,갈산동,,주부토로,236,94,2022-09-06 15:18:26,"쇼핑,편의||미용||미용실||미용실-일반",False
111339,111340,20482622,삼성이용원,,Samsung Lee Yong-won,Shops and Service,Beauty Salon,126.72281851861298,37.501662105487405,대한민국,KOR,KOR,인천광역시,부평구,,부평동,,부흥북로,5,433-191,2022-05-01 12:37:48,"쇼핑,편의||미용||미용실||일반미용실||이용원",False
112043,112044,3133892,헤어지지마,,Don't break up,Shops and Service,Beauty Salon,126.73712939495248,37.49662559507735,대한민국,KOR,KOR,인천광역시,부평구,,부개동,,동수천로,124,86-1,2022-08-24 14:41:06,"쇼핑,편의||미용||미용실||미용실-일반",False
112536,112537,2615065,자연이용원,,nature garden,Shops and Service,Beauty Salon,126.7042357841139,37.51058428832689,대한민국,KOR,KOR,인천광역시,부평구,,청천동,,마장로364번길,7-1,190-121,2019-11-14 0:00:00,"쇼핑,편의||미용||미용실||일반미용실||이용원",False
113090,113091,5680781,뉴금원이용원,,New Geumwon Yongwon,Shops and Service,Beauty Salon,126.6655637612869,37.516602827369184,대한민국,KOR,KOR,인천광역시,서구,,신현동,,새오개로,72-1,173-60,2021-12-23 15:49:18,"쇼핑,편의||미용||미용실||일반미용실||이용원",False
113887,113888,5672290,머리사랑,,hair love,Shops and Service,Beauty Salon,126.73080382344791,37.51882459511399,대한민국,KOR,KOR,인천광역시,부평구,,갈산동,,장제로373번길,30,30-5,2022-05-01 12:37:48,"쇼핑,편의||미용||미용실||미용실-일반",False
114149,114150,5658688,동인이용원,,Dongin Yongwon,Shops and Service,Beauty Salon,126.6314328589578,37.47269102724377,대한민국,KOR,KOR,인천광역시,중구,,용동,,우현로72번길,34,160,2022-05-01 12:37:48,"쇼핑,편의||미용||미용실||일반미용실||이용원",False
115274,115275,20199782,오헤어,,oh hey,Shops and Service,Beauty Salon,126.66474229024092,37.529673823228606,대한민국,KOR,KOR,인천광역시,서구,,가정동,,청중로,480,607-1,2022-08-16 16:52:33,"쇼핑,편의||미용||미용실||미용실-일반",False
115641,115642,6212192,인제이용원,,Inje Yongwon,Shops and Service,Beauty Salon,126.71393361211388,37.461528024196895,대한민국,KOR,KOR,인천광역시,남동구,,간석동,,석산로197번길,19,136-1,2019-11-14 23:30:26,"쇼핑,편의||미용||미용실||일반미용실||이용원",False
115691,115692,26879967,정국이용원,,Jungkook Lee Yong-won,Shops and Service,Beauty Salon,126.73602686899696,37.517569111533305,대한민국,KOR,KOR,인천광역시,부평구,,삼산동,,평천로,409,236-2,2022-05-01 12:37:48,"쇼핑,편의||미용||미용실||일반미용실||이용원",False
115894,115895,2599324,머리이야기,,head story,Shops and Service,Beauty Salon,126.69772439413488,37.42766630026095,대한민국,KOR,KOR,인천광역시,연수구,,선학동,,경원대로483번길,18,402-2,2022-08-24 14:41:06,"쇼핑,편의||미용||미용실||미용실-일반",False
116111,116112,20183972,모범이용원,,model user,Shops and Service,Beauty Salon,126.72150206113396,37.544532901341015,대한민국,KOR,KOR,인천광역시,계양구,,계산동,,경명대로1029번길,8-1,931-14,2021-12-23 15:49:18,"쇼핑,편의||미용||미용실||일반미용실||이용원",False
117223,117224,4352472,머리박사,,head doctor,Shops and Service,Beauty Salon,126.73865280622692,37.548694487999306,대한민국,KOR,KOR,인천광역시,계양구,,병방동,,병방시장로61번길,9,379,2019-11-14 23:06:52,"쇼핑,편의||미용||미용실||미용실-일반",False
118230,118231,2596093,시대이용원,,Age Yong-won,Shops and Service,Beauty Salon,126.64232000443388,37.47560182992188,대한민국,KOR,KOR,인천광역시,동구,,송림동,,안송로,7,56-69,2021-12-23 15:49:18,"쇼핑,편의||미용||미용실||일반미용실||이용원",False
118279,118280,5684096,최신이용원,,latest user,Shops and Service,Beauty Salon,126.68489935774488,37.46046322183497,대한민국,KOR,KOR,인천광역시,미추홀구,,주안동,,석바위로,107-3,89-24,2021-12-23 15:49:18,"쇼핑,편의||미용||미용실||일반미용실||이용원",False
119519,119520,4322278,문화이용원,,Culture User Center,Shops and Service,Beauty Salon,126.69605530756893,37.448147382362976,대한민국,KOR,KOR,인천광역시,남동구,,구월동,,문화서로,33,1354-18,2021-12-23 15:49:18,"쇼핑,편의||미용||미용실||일반미용실||이용원",False
119525,119526,2608343,환영이용원,,welcome user,Shops and Service,Beauty Salon,126.66038965021988,37.455103873760976,대한민국,KOR,KOR,인천광역시,미추홀구,,용현동,,수봉남로6번길,82,124-17,2021-12-23 15:49:18,"쇼핑,편의||미용||미용실||일반미용실||이용원",False
119623,119624,4345367,머리사랑헤어샵,,hair love hair shop,Shops and Service,Beauty Salon,126.7278580509519,37.54486702499461,대한민국,KOR,KOR,인천광역시,계양구,,계산동,,하느재로6번길,33,923-68,2022-08-24 14:41:06,"쇼핑,편의||미용||미용실||미용실-일반",False
120730,120731,2615759,구일이용원,,Guil Yongwon,Shops and Service,Beauty Salon,126.7411099662226,37.549115661387695,대한민국,KOR,KOR,인천광역시,계양구,,병방동,,계양산로215번길,20,407,2022-05-01 12:37:48,"쇼핑,편의||미용||미용실||일반미용실||이용원",False
120832,120833,4327427,사랑뷰티,,love beauty,Shops and Service,Beauty Salon,126.7161866927979,37.46064562673608,대한민국,KOR,KOR,인천광역시,남동구,,구월동,,석산로216번길,3,7-13,2022-05-01 12:37:48,"쇼핑,편의||미용||미용실||미용실-일반",False
122495,122496,20068333,더프라이빗라비에뉴 인천논현점,,The Private Labie New Nonhyeon Branch,Shops and Service,Beauty Salon,126.7243746937377,37.40211588913228,대한민국,KOR,KOR,인천광역시,남동구,,논현동,,논고개로,120,616-1,2022-09-06 15:18:26,"쇼핑,편의||미용||미용실||미용실-일반",False
122541,122542,4347834,머리중독,,head poisoning,Shops and Service,Beauty Salon,126.67352805057791,37.516269061232315,대한민국,KOR,KOR,인천광역시,서구,,가정동,,가정로352번길,3-1,516-28,2022-08-24 14:41:06,"쇼핑,편의||미용||미용실||미용실-일반",False
125770,125771,20762939,댕기머리미용실,,Daenggi Meori Beauty Salon,Shops and Service,Beauty Salon,126.63447542417192,37.47435280018781,대한민국,KOR,KOR,인천광역시,동구,,송현동,,중앙로,38-1,98-200,2022-08-24 14:41:06,"쇼핑,편의||미용||미용실||미용실-일반",False
126184,126185,3128832,남진이용원,,Namjin Lee Yong-won,Shops and Service,Beauty Salon,126.6753156554118,37.42178967228904,대한민국,KOR,KOR,인천광역시,연수구,,연수동,,새말로,40,558-2,2022-05-01 12:37:48,"쇼핑,편의||미용||미용실||일반미용실||이용원",False
126283,126284,4355058,머리하리,,head down,Shops and Service,Beauty Salon,126.6700878389574,37.59249195273492,대한민국,KOR,KOR,인천광역시,서구,,당하동,,청마로34번길,6,1075-9,2022-08-19 9:48:28,"쇼핑,편의||미용||미용실||미용실-일반",False
126810,126811,27225311,남성이용원,,male user,Shops and Service,Beauty Salon,126.74195529607796,37.483898882946086,대한민국,KOR,KOR,인천광역시,부평구,,일신동,,항동로75번길,41,221-20,2022-05-01 12:37:48,"쇼핑,편의||미용||미용실||남성전문미용실||남성전문미용실-일반",False
128626,128627,3117414,신도이용원,,Shindo Yong-won,Shops and Service,Beauty Salon,126.68022354466991,37.44483112977046,대한민국,KOR,KOR,인천광역시,미추홀구,,주안동,,주승로,87,1281-14,2021-12-23 15:49:18,"쇼핑,편의||미용||미용실||일반미용실||이용원",False
129330,129331,4325731,삼성이용원,,Samsung Lee Yong-won,Shops and Service,Beauty Salon,126.68204289999994,37.465692099999785,대한민국,KOR,KOR,인천광역시,미추홀구,,주안동,,염창로,69,23-3,2018-08-11 9:09:09,"쇼핑,편의||미용||미용실||일반미용실||이용원",False
130458,130459,3115752,아주이용원,,Aju Lee Yong-won,Shops and Service,Beauty Salon,126.70150199999992,37.425516999999786,대한민국,KOR,KOR,인천광역시,연수구,,선학동,,선학로,90,353,2022-05-01 12:37:48,"쇼핑,편의||미용||미용실||일반미용실||이용원",False
131240,131241,4347703,사랑미용실,,love beauty salon,Shops and Service,Beauty Salon,126.7304826218879,37.53572657064101,대한민국,KOR,KOR,인천광역시,계양구,,계산동,,장제로755번길,32,298-4,2019-11-14 0:00:00,"쇼핑,편의||미용||미용실||미용실-일반",False
131620,131621,3123662,으뜸이용원,,Choi Yong-won,Shops and Service,Beauty Salon,126.75548159941192,37.563036689868525,대한민국,KOR,KOR,인천광역시,계양구,,동양동,,양지로,49,595-8,2019-11-14 23:20:09,"쇼핑,편의||미용||미용실||일반미용실||이용원",False
132508,132509,3461670,머리사랑,,hair love,Shops and Service,Beauty Salon,126.72774915963292,37.50437446858931,대한민국,KOR,KOR,인천광역시,부평구,,부평동,,길주남로,56,10-725,2022-08-24 14:41:06,"쇼핑,편의||미용||미용실||미용실-일반",False
132791,132792,3131541,태양이용원,,Sun Yongwon,Shops and Service,Beauty Salon,126.67037099999995,37.54236199999982,대한민국,KOR,KOR,인천광역시,서구,,심곡동,,심곡로,9,336-1,2017-03-14 12:12:12,"쇼핑,편의||미용||미용실||일반미용실||이용원",False
132945,132946,4340143,머릿결사랑 석남점,,hair love Seoknam Branch,Shops and Service,Beauty Salon,126.67180209999992,37.5121814999998,대한민국,KOR,KOR,인천광역시,서구,,석남동,,강남로,25,452-16,2022-05-01 12:37:48,"쇼핑,편의||미용||머리염색||프랜차이즈||머릿결사랑",False
134675,134676,4340154,태후사랑 석남1동점,,Empress Dowager  Seoknam 1-dong,Shops and Service,Beauty Salon,126.6719147153079,37.510607186865485,대한민국,KOR,KOR,인천광역시,서구,,석남동,,강남로,8-1,479-7,2022-05-01 12:37:48,"쇼핑,편의||미용||머리염색||프랜차이즈||태후사랑",False
135424,135425,3135052,대우이용원,,Daewoo Lee Yong-won,Shops and Service,Beauty Salon,126.68817999999996,37.416968999999774,대한민국,KOR,KOR,인천광역시,연수구,,연수동,,원인재로,237,579,2017-03-14 12:12:12,"쇼핑,편의||미용||미용실||일반미용실||이용원",False
135604,135605,4339943,KHS헤어모션 부평점,케이에이치에스헤어모션,KHS Hair Motion,Shops and Service,Beauty Salon,126.73029324841958,37.49950534627048,대한민국,KOR,KOR,인천광역시,부평구,,부평동,,장제로,155,377-12,2022-08-24 14:41:06,"쇼핑,편의||미용||미용실||미용실-일반",False
135855,135856,5681835,삼화이용원,,Samhwa Yongwon,Shops and Service,Beauty Salon,126.71884184366093,37.487787286741806,대한민국,KOR,KOR,인천광역시,부평구,,부평동,,경인로891번길,44,751-42,2022-05-01 12:37:48,"쇼핑,편의||미용||미용실||일반미용실||이용원",False
136179,136180,4322548,머리세상,,head world,Shops and Service,Beauty Salon,126.68273913024387,37.44886986311647,대한민국,KOR,KOR,인천광역시,미추홀구,,주안동,,미추홀대로578번길,49,1490-16,2021-12-23 15:49:18,"쇼핑,편의||미용||미용실||미용실-일반",False
136386,136387,4324107,신세계이용원,,Shinsegae User Center,Shops and Service,Beauty Salon,126.67851926896088,37.45492639447495,대한민국,KOR,KOR,인천광역시,미추홀구,,주안동,,미추홀대로645번길,23,494-19,2021-12-23 15:49:18,"쇼핑,편의||미용||미용실||일반미용실||이용원",False
136566,136567,2603158,머리채,,headband,Shops and Service,Beauty Salon,126.6736744673019,37.49618738556767,대한민국,KOR,KOR,인천광역시,서구,,가좌동,,건지로284번길,31-1,142-35,2022-08-24 14:41:06,"쇼핑,편의||미용||미용실||미용실-일반",False
137375,137376,5681097,새사랑미용실,,Bird Love Beauty Salon,Shops and Service,Beauty Salon,126.67525259074093,37.44686392439457,대한민국,KOR,KOR,인천광역시,미추홀구,,주안동,,신기길30번길,26,1333-33,2022-08-16 16:52:33,"쇼핑,편의||미용||미용실||미용실-일반",False
138049,138050,5677489,평택이용원,,Pyeongtaek Yongwon,Shops and Service,Beauty Salon,126.63202770963989,37.481908098018714,대한민국,KOR,KOR,인천광역시,동구,,화수동,,쌍우물로,34,275-61,2022-05-01 12:37:48,"쇼핑,편의||미용||미용실||일반미용실||이용원",False
138165,138166,4332089,큐사랑 신흥점,,Q love,Shops and Service,Beauty Salon,126.63083023554069,37.46841828540965,대한민국,KOR,KOR,인천광역시,중구,,신흥동1가,,제물량로113번길,2-2,36-9,2022-08-12 13:15:03,"쇼핑,편의||미용||머리염색||머리염색-일반",False
138387,138388,5692222,칠동이용원,,Chil-dong Yong-won,Shops and Service,Beauty Salon,126.67565607274092,37.44587377857878,대한민국,KOR,KOR,인천광역시,미추홀구,,주안동,,인하로248번길,51-4,1336-45,2022-05-01 12:37:48,"쇼핑,편의||미용||미용실||일반미용실||이용원",False
138779,138780,5660890,현대이용원,,Hyundai Lee Yong-won,Shops and Service,Beauty Salon,126.71077358948789,37.48996957895767,대한민국,KOR,KOR,인천광역시,부평구,,부평동,,경원대로,1274-1,274-48,2019-11-14 0:00:00,"쇼핑,편의||미용||미용실||일반미용실||이용원",False
139707,139708,4361841,천안이용원,,Cheonan Lee Yong-won,Shops and Service,Beauty Salon,126.6750681668699,37.5414575783884,대한민국,KOR,KOR,인천광역시,서구,,심곡동,,서곶로255번길,14-15,259-6,2020-01-14 23:21:05,"쇼핑,편의||미용||미용실||일반미용실||이용원",False
139798,139799,6226576,사랑헤어,,love hair,Shops and Service,Beauty Salon,126.65062252359888,37.4693831926614,대한민국,KOR,KOR,인천광역시,미추홀구,,도화동,,동산로,10,677-21,2022-05-01 12:37:48,"쇼핑,편의||미용||미용실||미용실-일반",False
140764,140765,3337776,머릿결사랑,,hair love,Shops and Service,Beauty Salon,126.65339489999985,37.45862499999976,대한민국,KOR,KOR,인천광역시,미추홀구,,용현동,,용삼길,69-8,492-200,2021-12-23 15:49:18,"쇼핑,편의||미용||미용실||미용실-일반",False
141317,141318,3132794,태양이용원,,Sun Yongwon,Shops and Service,Beauty Salon,126.67604348493388,37.54698326291861,대한민국,KOR,KOR,인천광역시,서구,,심곡동,,대평로7번길,4,238-2,2020-01-14 0:00:00,"쇼핑,편의||미용||미용실||일반미용실||이용원",False
141332,141333,4341182,헤어사랑,,hair love,Shops and Service,Beauty Salon,126.64747131058388,37.53872691239481,대한민국,KOR,KOR,인천광역시,서구,,청라동,,청라한울로,95,115-1,2022-08-30 9:43:30,"쇼핑,편의||미용||미용실||미용실-일반",False
141349,141350,4322683,닥스이용원,,Dax Lee Yong-won,Shops and Service,Beauty Salon,126.70483475268593,37.44511707548896,대한민국,KOR,KOR,인천광역시,남동구,,구월동,,성말로,38,1172-5,2021-12-23 15:49:18,"쇼핑,편의||미용||미용실||일반미용실||이용원",False
141939,141940,20761605,밀가헤어,,Salon de Milga,Shops and Service,Beauty Salon,126.71253505688392,37.464050068792176,대한민국,KOR,KOR,인천광역시,남동구,,간석동,,용천로153번길,35,125-2,2022-06-13 10:44:13,"쇼핑,편의||미용||미용실||미용실-일반",False
142604,142605,6227063,엘지이용원,,LG Lee Yong-won,Shops and Service,Beauty Salon,126.72621321027492,37.53838008400639,대한민국,KOR,KOR,인천광역시,계양구,,계산동,,계산천동로33번길,8,964-12,2021-12-23 15:49:18,"쇼핑,편의||미용||미용실||일반미용실||이용원",False
143152,143153,3137882,양지이용원,,Ji Yong-won Yang,Shops and Service,Beauty Salon,126.73930914309695,37.465357947428586,대한민국,KOR,KOR,인천광역시,남동구,,만수동,,수현로136번길,20,2-24,2021-12-23 15:49:18,"쇼핑,편의||미용||미용실||일반미용실||이용원",False
143415,143416,4327807,진영이용원,,Jinyoung Lee Yong-won,Shops and Service,Beauty Salon,126.71081507117091,37.46657182927298,대한민국,KOR,KOR,인천광역시,남동구,,간석동,,간석로32번길,19,102-5,2022-05-01 12:37:48,"쇼핑,편의||미용||미용실||일반미용실||이용원",False
144130,144131,5663872,머리사랑,,hair love,Shops and Service,Beauty Salon,126.74468699754993,37.481581873720685,대한민국,KOR,KOR,인천광역시,부평구,,일신동,,일신로40번길,20,126-124,2021-12-23 15:49:18,"쇼핑,편의||미용||미용실||미용실-일반",False
144414,144415,20202495,태후사랑 연수역점,,Love for the Empress Dowager Yeonsu Station Branch,Shops and Service,Beauty Salon,126.67948393590588,37.41908960691035,대한민국,KOR,KOR,인천광역시,연수구,,연수동,,먼우금로252번길,4,570,2022-05-01 12:37:48,"쇼핑,편의||미용||머리염색||프랜차이즈||태후사랑",False
146956,146957,27224753,동양이용원,,Dongyang Yongwon,Shops and Service,Beauty Salon,126.72853785742797,37.4999651624852,대한민국,KOR,KOR,인천광역시,부평구,,부평동,,장제로159번길,34,396-56,2022-05-01 12:37:48,"쇼핑,편의||미용||미용실||일반미용실||이용원",False
