,OID_,id,name,name_alias,name_eng,category,subcategory,lon,lat,country,country_code,language_code,sd,sgg,sgg_sub,emd,ri,street,number_st,number_jb,update_date,dwnm,result
101,102,130835,태화자동차공업사,태화공업사,Taehwa Motor Company,Shops and Service,Auto Maintenance,126.72174548909491,37.4612968499471,대한민국,KOR,KOR,인천광역시,남동구,,간석동,,호구포로888번길,24,921-2,2022-08-24 14:41:06,"산업,유통||자동차||수리||수리-일반",False
1468,1469,2152476,강인설비공업사,,"Kangin Equipment Co., Ltd.",Shops and Service,Auto Maintenance,126.4191544999998,37.633339399999855,대한민국,KOR,KOR,인천광역시,강화군,,화도면,상방리,마니산로,714,810-12,2021-12-23 15:49:18,"산업,유통||자동차||수리||수리-일반",False
1933,1934,1250341,현대자동차정비공업사,현대정비공업사,Hyundai Motor Company,Shops and Service,Auto Maintenance,126.63653749999995,37.612732099999846,대한민국,KOR,KOR,인천광역시,서구,,금곡동,,봉화로223번안길,7,402,2021-12-23 15:49:18,"산업,유통||자동차||수리||현대자동차서비스센터||지정공장",False
2548,2549,1261388,카포스 석남자동차,CARPOS석남자동차,Carpos Seoknam Automobile,Shops and Service,Auto Maintenance,126.67550881556441,37.511030689489886,대한민국,KOR,KOR,인천광역시,서구,,석남동,,신석로121번길,13,465-35,2022-08-24 14:41:06,"산업,유통||자동차||수리||카포스",False
3969,3970,5708826,금손광택,,golden hand luster,Shops and Service,Auto Maintenance,126.68653807430688,37.47023690277279,대한민국,KOR,KOR,인천광역시,남동구,,간석동,,염전로411번길,14,616-46,2022-08-16 16:52:33,"산업,유통||자동차||수리||썬팅,광택||썬팅,광택-일반",False
3990,3991,1258948,지성자동차공업사,지성공업사,Jisung Automobile,Shops and Service,Auto Maintenance,126.67050142218588,37.46871902359958,대한민국,KOR,KOR,인천광역시,미추홀구,,도화동,,석정로323번길,24,119-57,2022-08-16 16:52:33,"산업,유통||자동차||수리||수리-일반",False
4284,4285,27145756,타스자동차공업사,,"TASS Automobile Co., Ltd.",Shops and Service,Auto Maintenance,126.6505583999998,37.487390599999735,대한민국,KOR,KOR,인천광역시,동구,,송현동,,방축로37번길,25-5,140-18,2022-08-12 13:15:03,"산업,유통||자동차||수리||1급정비",False
4382,4383,530964,신현대기아공업사,신현대공업사,New Hyundai Kia Ind.,Shops and Service,Auto Maintenance,126.73249993116092,37.44773320339798,대한민국,KOR,KOR,인천광역시,남동구,,만수동,,인주대로850번길,31-15,986-13,2022-08-24 14:41:06,"산업,유통||자동차||수리||수리-일반",False
4456,4457,12332,카포스화인자동차공업사,CARPOS화인자동차공업사,"Kapos Fine Automobile Co., Ltd.",Shops and Service,Auto Maintenance,126.63218974094886,37.483546390920885,대한민국,KOR,KOR,인천광역시,동구,,화수동,,화수로,55,37-5,2022-08-24 14:41:06,"산업,유통||자동차||수리||카포스",False
4564,4565,27135255,더샤인광택스팀세차,,The Shine Gloss Steam Car Wash,Shops and Service,Auto Maintenance,126.74030119999996,37.524658399999815,대한민국,KOR,KOR,인천광역시,계양구,,작전동,,아나지로438번길,12,610-9,2022-08-12 13:15:03,"산업,유통||자동차||수리||썬팅,광택||썬팅,광택-일반",False
4631,4632,3139756,법원자동차공업사,법원공업사,Court Automobile Company,Shops and Service,Auto Maintenance,126.67128585837192,37.443913376390576,대한민국,KOR,KOR,인천광역시,미추홀구,,학익동,,주승로,7-8,25-28,2022-05-01 12:37:48,"산업,유통||자동차||수리||수리-일반",False
5641,5642,3437773,지후자동차공업사,지후공업사,"Jihoo Automobile Co., Ltd.",Shops and Service,Auto Maintenance,126.63437580438584,37.47063610785148,대한민국,KOR,KOR,인천광역시,중구,,율목동,,서해대로483번길,41,50,2022-08-24 14:41:06,"산업,유통||자동차||수리||수리-일반",False
5789,5790,4324362,플레쥬광택,,Plage Gloss,Shops and Service,Auto Maintenance,126.64475151370085,37.46479337091038,대한민국,KOR,KOR,인천광역시,미추홀구,,숭의동,,석정로,62,161-37,2022-08-16 16:52:33,"산업,유통||자동차||수리||썬팅,광택||썬팅,광택-일반",False
5790,5791,5091134,윤석자동차공업사,,"Yunseok Automobile Co., Ltd.",Shops and Service,Auto Maintenance,126.63725530740685,37.45476856842337,대한민국,KOR,KOR,인천광역시,미추홀구,,용현동,,낙섬서로,64,623-53,2022-08-12 13:15:03,"산업,유통||자동차||수리||수리-일반",False
5877,5878,5909668,허브자동차공업사,허브공업사,Herb Automobile Company,Shops and Service,Auto Maintenance,126.52856808076174,37.50521163132648,대한민국,KOR,KOR,인천광역시,중구,,운북동,,백운로,264,56-18,2022-08-24 14:41:06,"산업,유통||자동차||수리||수리-일반",False
5912,5913,1121678,우리자동차공업사,우리공업사,Woori Automobile,Shops and Service,Auto Maintenance,126.63447454455384,37.47088341551788,대한민국,KOR,KOR,인천광역시,중구,,율목동,,서해대로483번길,46,18,2021-12-23 15:49:18,"산업,유통||자동차||수리||1급정비",False
6266,6267,3135165,엄지자동차공업사,엄지공업사,"Umji Automobile Co., Ltd.",Shops and Service,Auto Maintenance,126.72200738041892,37.504694905289995,대한민국,KOR,KOR,인천광역시,부평구,,부평동,,길주남로,6,431-1,2022-08-12 13:15:03,"산업,유통||자동차||수리||수리-일반",False
6400,6401,847601,영광자동차공업사,영광공업사,"Yeonggwang Automobile Co., Ltd.",Shops and Service,Auto Maintenance,126.63757248399884,37.46281848676737,대한민국,KOR,KOR,인천광역시,중구,,신흥동3가,,제물량로24번길,3,35-3,2021-12-23 15:49:18,"산업,유통||자동차||수리||수리-일반",False
6546,6547,4335160,대명자동차공업사,대명공업사,Daemyung Automobile,Shops and Service,Auto Maintenance,126.62041459457286,37.59460973284423,대한민국,KOR,KOR,인천광역시,서구,,오류동,,원당대로117번길,47,369-5,2020-01-14 23:26:10,"산업,유통||자동차||수리||수리-일반",False
6665,6666,3119689,대원공업사,,Daewon Industries,Shops and Service,Auto Maintenance,126.64117786019087,37.46883461521928,대한민국,KOR,KOR,인천광역시,중구,,도원동,,참외전로,238,14-7,2021-12-23 15:49:18,"산업,유통||자동차||수리||수리-일반",False
7495,7496,905638,월드카서비스공업사,월드카공업사,World car service company,Shops and Service,Auto Maintenance,126.48853919999968,37.74135739999964,대한민국,KOR,KOR,인천광역시,강화군,,강화읍,남산리,남문로,38,26-1,2022-08-24 14:41:06,"산업,유통||자동차||수리||수리-일반",False
7655,7656,4342180,프로광택,,pro gloss,Shops and Service,Auto Maintenance,126.6708653075419,37.49321563462857,대한민국,KOR,KOR,인천광역시,서구,,가좌동,,가정로97번길,3,151-9,2021-12-23 15:49:18,"산업,유통||자동차||수리||썬팅,광택||썬팅,광택-일반",False
7674,7675,1269805,코스모스자동차정비공업사,코스모스카센터,Cosmos Automobile Maintenance Company,Shops and Service,Auto Maintenance,126.72456184038391,37.501595905550985,대한민국,KOR,KOR,인천광역시,부평구,,부평동,,부흥북로23번길,1,433-43,2022-05-01 12:37:48,"산업,유통||자동차||수리||수리-일반",False
8101,8102,2595930,한라오토정비,한라정비센터,Halla Auto Maintenance,Shops and Service,Auto Maintenance,126.72870000000007,37.517491699999695,대한민국,KOR,KOR,인천광역시,부평구,,갈산동,,평천로,346,81-4,2022-05-01 12:37:48,"산업,유통||자동차||수리||수리-일반",False
8565,8566,544755,쌍용자동차 인천정비사업소,쌍용 인천정비사업소,Ssangyong Motor Incheon Maintenance Office,Shops and Service,Auto Maintenance,126.64913520019188,37.48809779603639,대한민국,KOR,KOR,인천광역시,동구,,송현동,,방축로,17,140-11,2022-08-18 12:00:50,"산업,유통||자동차||수리||쌍용자동차정비사업소||쌍용자동차정비사업소-일반",False
8689,8690,777689,럭키자동차공업사,럭키공업사,"Lucky Automobile Co., Ltd.",Shops and Service,Auto Maintenance,126.64183256643285,37.452246999383554,대한민국,KOR,KOR,인천광역시,미추홀구,,용현동,,낙섬동로76번길,4,612-8,2022-08-24 14:41:06,"산업,유통||자동차||수리||수리-일반",False
8778,8779,1259197,현대공업사,,Hyundai Industrial Co.,Shops and Service,Auto Maintenance,126.68465559548596,37.42474523266806,대한민국,KOR,KOR,인천광역시,연수구,,연수동,,함박로88번길,27,510-6,2022-05-01 12:37:48,"산업,유통||자동차||수리||수리-일반",False
8784,8785,5660261,선우광택,,Sunwoo Gloss,Shops and Service,Auto Maintenance,126.66663716865588,37.48929988015216,대한민국,KOR,KOR,인천광역시,서구,,가좌동,,가정로47번길,38,150-38,2021-12-23 15:49:18,"산업,유통||자동차||수리||썬팅,광택||썬팅,광택-일반",False
8836,8837,1052202,10년타기정비센터도화점현대1급카공업사,10년타기정비도화점현대1급카공업사,10-year Tagi Maintenance Center Dohwa Branch Hyundai First Class Car Industry Company,Shops and Service,Auto Maintenance,126.67165047344892,37.45743113090566,대한민국,KOR,KOR,인천광역시,미추홀구,,도화동,,한나루로,576,464-6,2022-08-12 13:15:03,"산업,유통||자동차||수리||1급정비",False
8949,8950,863190,준영자동차공업사,준영공업사,"Junyoung Automobile Co., Ltd.",Shops and Service,Auto Maintenance,126.67890248527588,37.50933684959439,대한민국,KOR,KOR,인천광역시,서구,,석남동,,서달로,120,109-30,2022-05-01 12:37:48,"산업,유통||자동차||수리||수리-일반",False
9204,9205,5687912,탑자동차공업사,탑공업사,Top Automobile Company,Shops and Service,Auto Maintenance,126.64718449999992,37.43496439999978,대한민국,KOR,KOR,인천광역시,미추홀구,,학익동,,독배로,161,624-2,2021-12-23 15:49:18,"산업,유통||자동차||수리||수리-일반",False
9325,9326,5678702,가우자동차정비공장,가우정비공장,Gau Automobile Maintenance Factory,Shops and Service,Auto Maintenance,126.65574745118688,37.50194796982638,대한민국,KOR,KOR,인천광역시,서구,,석남동,,건지로153번길,25-20,223-400,2022-05-01 12:37:48,"산업,유통||자동차||수리||수리-일반",False
9495,9496,186528,일신카센터 일신자동차공업사,일신공업사,"Ilshin Car Center Ilshin Automobile Co., Ltd.",Shops and Service,Auto Maintenance,126.63942322880384,37.46400772668928,대한민국,KOR,KOR,인천광역시,중구,,신흥동3가,,인중로34번길,14,18-24,2022-08-12 13:15:03,"산업,유통||자동차||수리||수리-일반",False
9565,9566,4349979,만도자동차공업사,만도공업사,"Mando Automobile Co., Ltd.",Shops and Service,Auto Maintenance,126.70566452513987,37.52226284460228,대한민국,KOR,KOR,인천광역시,부평구,,청천동,,부평북로,116,391-18,2022-05-01 12:37:48,"산업,유통||자동차||수리||수리-일반",False
9595,9596,57059,공고자동차공업사,공고공업사,Gonggo Automobile Company,Shops and Service,Auto Maintenance,126.64505983845588,37.46392038547768,대한민국,KOR,KOR,인천광역시,미추홀구,,숭의동,,석정로50번길,13,160-19,2022-08-12 13:15:03,"산업,유통||자동차||수리||수리-일반",False
9654,9655,503156,유명자동차공업사,유명공업사,famous automobile company,Shops and Service,Auto Maintenance,126.68311093133087,37.496467061698496,대한민국,KOR,KOR,인천광역시,서구,,가좌동,,건지로,374,89-8,2022-08-18 12:00:50,"산업,유통||자동차||수리||수리-일반",False
10402,10403,1255092,명성공업사,,"Myeongseong Industrial Co., Ltd.",Shops and Service,Auto Maintenance,126.47941029999984,37.61017679999984,대한민국,KOR,KOR,인천광역시,강화군,,길상면,선두리,해안남로,826,854-10,2017-03-21 12:12:12,"산업,유통||자동차||수리||수리-일반",False
10429,10430,4334138,스마트자동차공업사,스마트공업사,Smart Automobile Company,Shops and Service,Auto Maintenance,126.69185299999997,37.4638104999998,대한민국,KOR,KOR,인천광역시,미추홀구,,주안동,,주안로,197,880-4,2022-05-01 12:37:48,"산업,유통||자동차||수리||수리-일반",False
10729,10730,354410,세진자동차공업사,세진공업사,Sejin Automobile,Shops and Service,Auto Maintenance,126.72830610561492,37.416263367161854,대한민국,KOR,KOR,인천광역시,남동구,,도림동,,오봉로10번길,6,633-4,2022-08-24 14:41:06,"산업,유통||자동차||수리||수리-일반",False
10833,10834,163153,카맨자동차공업사,카맨공업사,"Carman Automobile Co., Ltd.",Shops and Service,Auto Maintenance,126.6812030052849,37.445149393121056,대한민국,KOR,KOR,인천광역시,미추홀구,,주안동,,인하로298번길,59,1240-4,2022-08-16 16:52:33,"산업,유통||자동차||수리||수리-일반",False
11749,11750,27036969,영종자동차공업사,,"Yeongjong Automobile Co., Ltd.",Shops and Service,Auto Maintenance,126.65860263636495,37.461213328770704,대한민국,KOR,KOR,인천광역시,미추홀구,,숭의동,,수봉로,61,14-30,2022-08-12 13:15:03,"산업,유통||자동차||수리||수리-일반",False
11822,11823,1256736,대한자동차공업사,대한공업사,Korea Automobile Corporation,Shops and Service,Auto Maintenance,126.62818389999993,37.46589869999978,대한민국,KOR,KOR,인천광역시,중구,,신생동,,서해대로417번길,48,38-8,2022-08-16 16:52:33,"산업,유통||자동차||수리||수리-일반",False
12084,12085,824543,모든자동차공업사,모든공업사,All automobile companies,Shops and Service,Auto Maintenance,126.73302983362396,37.53264398589701,대한민국,KOR,KOR,인천광역시,계양구,,작전동,,장제로,719-15,897-3,2022-08-24 14:41:06,"산업,유통||자동차||수리||수리-일반",False
12399,12400,163111,카포스 기륜자동차공업사,CARPOS 기륜자동차공업사,"Carpos Kiryun Automobile Co., Ltd.",Shops and Service,Auto Maintenance,126.63134869755184,37.588861586434014,대한민국,KOR,KOR,인천광역시,서구,,오류동,,원당대로265번길,8,850-6,2022-05-01 12:37:48,"산업,유통||자동차||수리||카포스",False
12622,12623,3119679,영진공업사,,Youngjin Industrial Co.,Shops and Service,Auto Maintenance,126.63810902359286,37.47038758929628,대한민국,KOR,KOR,인천광역시,중구,,유동,,참외전로,206-1,2-46,2022-08-18 12:00:50,"산업,유통||자동차||수리||수리-일반",False
12705,12706,903502,농장자동차공업사,농장공업사,Farm Automobile Company,Shops and Service,Auto Maintenance,126.7191395196619,37.47057325988028,대한민국,KOR,KOR,인천광역시,남동구,,간석동,,만월북로44번길,12,1-411,2022-08-24 14:41:06,"산업,유통||자동차||수리||수리-일반",False
12813,12814,1255116,동양자동차공업사,동양공업사,"Dongyang Automobile Co., Ltd.",Shops and Service,Auto Maintenance,126.61575688916083,37.47810159703488,대한민국,KOR,KOR,인천광역시,중구,,북성동1가,,월미로50번길,12,7-11,2022-08-12 13:15:03,"산업,유통||자동차||수리||수리-일반",False
12916,12917,55162,카포스 정우자동차공업사,CARPOS 정우자동차공업사,"Carpos Jungwoo Automobile Co., Ltd.",Shops and Service,Auto Maintenance,126.70331697193689,37.46911055576776,대한민국,KOR,KOR,인천광역시,부평구,,십정동,,아트센터로,12-1,465-2,2022-08-24 14:41:06,"산업,유통||자동차||수리||카포스",False
13024,13025,3127914,친절한CAR서비스공업사 검암점,친절한카공업사 검암점,Friendly car service company  Geomam,Shops and Service,Auto Maintenance,126.67876719999992,37.56629369999984,대한민국,KOR,KOR,인천광역시,서구,,검암동,,승학로,531,498-1,2022-08-16 16:52:33,"산업,유통||자동차||수리||수리-일반",False
13029,13030,20203025,명품광택,,luxury gloss,Shops and Service,Auto Maintenance,126.68206298783493,37.473874845796594,대한민국,KOR,KOR,인천광역시,서구,,가좌동,,방축로,351,606-28,2022-08-24 14:41:06,"산업,유통||자동차||수리||썬팅,광택||썬팅,광택-일반",False
13071,13072,15306,카포스 재경카센타,CARPOS 재경카센타,Carpos Finance Car Center,Shops and Service,Auto Maintenance,126.6684754585159,37.50767610387168,대한민국,KOR,KOR,인천광역시,서구,,석남동,,염곡로,258,526,2021-12-23 15:49:18,"산업,유통||자동차||수리||카포스",False
13138,13139,3130883,카포스우정오토자동차공업사,CARPOS우정오토자동차공업사,"Capos Friendship Auto Automobile Co., Ltd.",Shops and Service,Auto Maintenance,126.66822779062689,37.5104223011308,대한민국,KOR,KOR,인천광역시,서구,,석남동,,염곡로,289,174-3,2022-08-12 13:15:03,"산업,유통||자동차||수리||카포스",False
13393,13394,4335260,카맨샵 조은자동차공업사,조은공업사,"Carman Shop Joeun Automobile Co., Ltd.",Shops and Service,Auto Maintenance,126.73037939999996,37.52998389999983,대한민국,KOR,KOR,인천광역시,계양구,,작전동,,,,53-11,2022-08-12 13:15:03,"산업,유통||자동차||수리||카맨샵",False
13475,13476,3849678,쌍용자동차백령자동차1급정비공업사,쌍용백령자동차1급정비공업사,Ssangyong Motor Baengnyeong Automobile Class 1 Maintenance Company,Shops and Service,Auto Maintenance,124.70947699873892,37.974384999382494,대한민국,KOR,KOR,인천광역시,옹진군,,백령면,진촌리,,,1488-2,2022-08-04 10:04:43,"산업,유통||자동차||수리||쌍용자동차정비사업소||지정공장",False
14114,14115,621979,하이카프라자 송월점 하인천자동차공업사,Hicar송월점하인천자동차공업사,"Hi-Car Plaza Songwol Branch Haincheon Automobile Co., Ltd.",Shops and Service,Auto Maintenance,126.61914915410986,37.47869498335994,대한민국,KOR,KOR,인천광역시,중구,,송월동2가,,제물량로,308,5-15,2022-05-01 12:37:48,"산업,유통||자동차||수리||Hicar현대보험정비소",False
14955,14956,147169,제일자동차공업사,제일공업사,Jeil Automobile,Shops and Service,Auto Maintenance,126.63460839999992,37.44108789999978,대한민국,KOR,KOR,인천광역시,미추홀구,,학익동,,아암대로253번길,31,587-68,2022-08-18 12:00:50,"산업,유통||자동차||수리||수리-일반",False
14983,14984,942154,준카공업사,,Junka Industrial Co.,Shops and Service,Auto Maintenance,126.65250420485788,37.42309124298546,대한민국,KOR,KOR,인천광역시,연수구,,옥련동,,청량로185번길,5,399-1,2022-05-01 12:37:48,"산업,유통||자동차||수리||수리-일반",False
15298,15299,5208710,타타대우상용차 인천직영정비사업소,,Tata Daewoo Commercial Vehicle Incheon Direct Maintenance Office,Shops and Service,Auto Maintenance,126.64441509189584,37.502107941897485,대한민국,KOR,KOR,인천광역시,서구,,석남동,,북항로31번길,52,655-35,2022-05-01 12:37:48,"산업,유통||자동차||수리||수리-일반",False
15534,15535,157554,세진자동차공업사,세진공업사,Sejin Automobile,Shops and Service,Auto Maintenance,126.63158209109181,37.48393414034407,대한민국,KOR,KOR,인천광역시,동구,,화수동,,화수로63번길,1,37-175,2022-08-18 12:00:50,"산업,유통||자동차||수리||수리-일반",False
15623,15624,4006127,나라자동차정비공업사,나라자동차공업사,Nara Auto Repair Company,Shops and Service,Auto Maintenance,126.65359430033284,37.44408240124336,대한민국,KOR,KOR,인천광역시,미추홀구,,학익동,,매소홀로,280,493-6,2022-08-18 12:00:50,"산업,유통||자동차||수리||수리-일반",False
16118,16119,43318,카포스 신한자동차공업사,CARPOS신한자동차공업사,Carpos Shinhan Automobile Ind.,Shops and Service,Auto Maintenance,126.6477053550419,37.48772209067788,대한민국,KOR,KOR,인천광역시,동구,,송현동,,방축로,8,2-97,2022-05-01 12:37:48,"산업,유통||자동차||수리||카포스",False
16492,16493,3126861,행복한정비샵,,happy maintenance shop,Shops and Service,Auto Maintenance,126.73227624540192,37.403251036019874,대한민국,KOR,KOR,인천광역시,남동구,,논현동,,앵고개로941번길,39-33,659-1,2022-08-16 16:52:33,"산업,유통||자동차||수리||수리-일반",False
16516,16517,718002,성용자동차공업사,성용공업사,"Sungyong Automobile Co., Ltd.",Shops and Service,Auto Maintenance,126.73265307418087,37.51888204633769,대한민국,KOR,KOR,인천광역시,부평구,,삼산동,,장제로,374,225-4,2022-05-01 12:37:48,"산업,유통||자동차||수리||수리-일반",False
16930,16931,5723013,SJ자동차공업사,SJ공업사,SJ Automobile,Shops and Service,Auto Maintenance,126.71464249999995,37.389083599999765,대한민국,KOR,KOR,인천광역시,남동구,,고잔동,,앵고개로697번길,17-21,327-2,2022-08-16 16:52:33,"산업,유통||자동차||수리||수리-일반",False
16960,16961,318701,기아오토큐 남인천서비스,기아모터스오토큐 동서자동차,Kia AutoQ Dongseo Motors,Shops and Service,Auto Maintenance,126.63320815192483,37.46229513587548,대한민국,KOR,KOR,인천광역시,중구,,신흥동3가,,서해대로,402,7-320,2022-08-16 16:52:33,"산업,유통||자동차||수리||기아오토큐||기아오토큐-일반",False
17036,17037,41577,금곡자동차공업사,금곡공업사,"Geumgok Automobile Co., Ltd.",Shops and Service,Auto Maintenance,126.64152710082388,37.61364641015663,대한민국,KOR,KOR,인천광역시,서구,,금곡동,,봉수대로,1590,340-12,2022-08-24 14:41:06,"산업,유통||자동차||수리||수리-일반",False
17040,17041,389969,카포스은혜자동차공업사,CARPOS은혜자동차공업사,"Capos Grace Automobile Co., Ltd.",Shops and Service,Auto Maintenance,126.70182194778188,37.5286741551348,대한민국,KOR,KOR,인천광역시,계양구,,효성동,,봉오대로477번길,1,580-11,2022-08-16 16:52:33,"산업,유통||자동차||수리||수리-일반",False
17415,17416,606807,동진자동차공업사,동진공업사,Dongjin Automobile,Shops and Service,Auto Maintenance,126.6898427319294,37.477424040741326,대한민국,KOR,KOR,인천광역시,부평구,,십정동,,가좌로96번길,58,228,2022-08-24 14:41:06,"산업,유통||자동차||수리||1급정비",False
17848,17849,586601,그랜드카센터,,Grand Car Center,Shops and Service,Auto Maintenance,126.73590829999996,37.540800999999824,대한민국,KOR,KOR,인천광역시,계양구,,계산동,,장제로,822,1059-1,2017-09-29 7:07:07,"산업,유통||자동차||수리||수리-일반",False
18438,18439,1260632,한정자동차공업사,한정공업사,"Hanjeong Automobile Co., Ltd.",Shops and Service,Auto Maintenance,126.69758000931388,37.46909863501888,대한민국,KOR,KOR,인천광역시,부평구,,십정동,,백범로487번길,1,449-1,2022-08-18 12:00:50,"산업,유통||자동차||수리||수리-일반",False
18834,18835,1262948,카포스 월드카25시,CARPOS 월드카25시,Carpos World Car 25 Hours,Shops and Service,Auto Maintenance,126.70494404969588,37.46019684570107,대한민국,KOR,KOR,인천광역시,남동구,,간석동,,석산로,118,342-1,2022-05-01 12:37:48,"산업,유통||자동차||수리||카포스",False
18913,18914,3146145,형제자동차공업사,형제공업사,Brothers Automobile Co.,Shops and Service,Auto Maintenance,126.76733001764595,37.438413310713074,대한민국,KOR,KOR,인천광역시,남동구,,운연동,,음실로,55,315-1,2022-05-01 12:37:48,"산업,유통||자동차||수리||수리-일반",False
19100,19101,21038,청송자동차공업사,청송공업사,"Cheongsong Automobile Co., Ltd.",Shops and Service,Auto Maintenance,126.67426226255888,37.41778666038367,대한민국,KOR,KOR,인천광역시,연수구,,청학동,,용담로,72,488-3,2022-08-18 12:00:50,"산업,유통||자동차||수리||수리-일반",False
19687,19688,407935,착한정비센터계양점,환영자동차계양점,Good Maintenance Center Gyeyang,Shops and Service,Auto Maintenance,126.7272609666769,37.5361874943721,대한민국,KOR,KOR,인천광역시,계양구,,작전동,,주부토로471번길,5,857-17,2021-12-23 15:49:18,"산업,유통||자동차||수리||수리-일반",False
19701,19702,696407,돼지카공업사,돼지공업사세차장,pig car maker,Shops and Service,Auto Maintenance,126.73581709993395,37.49079590106028,대한민국,KOR,KOR,인천광역시,부평구,,부개동,,동수천로,60,133-10,2022-08-12 13:15:03,"산업,유통||자동차||수리||수리-일반",False
20828,20829,20063708,운연공업사,,transportation company,Shops and Service,Auto Maintenance,126.76601798521598,37.43743882940537,대한민국,KOR,KOR,인천광역시,남동구,,운연동,,운연로,148-18,273,2022-05-01 12:37:48,"산업,유통||자동차||수리||외형복원,덴트,도색||외형복원,덴트,도색-일반",False
20925,20926,1270118,대평자동차공업사,대평공업사,"Daepyeong Automobile Co., Ltd.",Shops and Service,Auto Maintenance,126.70831894339588,37.522373465678086,대한민국,KOR,KOR,인천광역시,부평구,,청천동,,부평북로,138,395-4,2022-08-24 14:41:06,"산업,유통||자동차||수리||수리-일반",False
20950,20951,2153148,한우리자동차공업사,한우리공업사,"Hanwoori Automobile Co., Ltd.",Shops and Service,Auto Maintenance,126.64966456198488,37.46023471357936,대한민국,KOR,KOR,인천광역시,미추홀구,,숭의동,,장천로,46-2,281-5,2022-08-24 14:41:06,"산업,유통||자동차||수리||수리-일반",False
21716,21717,681929,새신자동차공업사,새신공업사,"Saesin Automobile Co., Ltd.",Shops and Service,Auto Maintenance,126.6849790331869,37.46624512318468,대한민국,KOR,KOR,인천광역시,미추홀구,,주안동,,석정로,446,22-22,2022-05-01 12:37:48,"산업,유통||자동차||수리||수리-일반",False
21969,21970,934746,10년타기정비센터부개2점,10년타기정비부개2점,10 Years Ride Maintenance Center Bulkhead 2 Points,Shops and Service,Auto Maintenance,126.73627493791696,37.50047695509629,대한민국,KOR,KOR,인천광역시,부평구,,부개동,,충선로,126,63-23,2022-05-01 12:37:48,"산업,유통||자동차||수리||수리-일반",False
22201,22202,9749,승진자동차공업사,승진공업사,"Jinjin Automobile Co., Ltd.",Shops and Service,Auto Maintenance,126.74386733384291,37.54228427782711,대한민국,KOR,KOR,인천광역시,계양구,,용종동,,용종로96번길,15-1,226-12,2022-08-24 14:41:06,"산업,유통||자동차||수리||수리-일반",False
22329,22330,336312,신일자동차공업사,신일공업사,Shinil Automobile,Shops and Service,Auto Maintenance,126.7150707169109,37.44965667875868,대한민국,KOR,KOR,인천광역시,남동구,,구월동,,용천로4번길,16,1221-4,2022-08-24 14:41:06,"산업,유통||자동차||수리||수리-일반",False
22418,22419,4325899,현대오토자동차공업사,,"Hyundai Automobile Co., Ltd.",Shops and Service,Auto Maintenance,126.77923830033394,37.578118854594535,대한민국,KOR,KOR,인천광역시,계양구,,상야동,,벌말로566번길,8-1,36-8,2022-05-01 12:37:48,"산업,유통||자동차||수리||수리-일반",False
22776,22777,1269495,10년타기정비센터부평점선진자동차마을,10년타기정비부평점선진자동차마을,10-Year Maintenance Center Bupyeongjeom Sunjin Automobile Village,Shops and Service,Auto Maintenance,126.73045526504193,37.50440317014938,대한민국,KOR,KOR,인천광역시,부평구,,부평동,,길주남로,79,10-513,2022-08-18 12:00:50,"산업,유통||자동차||수리||수리-일반",False
22787,22788,27069644,남양자동차공업사,,"Namyang Automobile Co., Ltd.",Shops and Service,Auto Maintenance,126.68065141763992,37.477845138107874,대한민국,KOR,KOR,인천광역시,서구,,가좌동,,가좌로,41,539-12,2022-08-12 13:15:03,"산업,유통||자동차||수리||수리-일반",False
23062,23063,27083166,정민자동차공업사,,"Jeongmin Automobile Co., Ltd.",Shops and Service,Auto Maintenance,126.63479955841984,37.441276164799966,대한민국,KOR,KOR,인천광역시,미추홀구,,학익동,,아암대로227번길,34-1,587-277,2022-08-12 13:15:03,"산업,유통||자동차||수리||수리-일반",False
23240,23241,847923,투투정비 대한1급자동차공장,투투정비 대한자동차공장,Tutu Maintenance Daehan First Class Automobile Factory,Shops and Service,Auto Maintenance,126.73367277760394,37.52639281533741,대한민국,KOR,KOR,인천광역시,계양구,,작전동,,장제로,658,160,2019-11-14 23:29:08,"산업,유통||자동차||수리||1급정비",False
23299,23300,6214585,1970광택,일구칠공광택,1970 gloss,Shops and Service,Auto Maintenance,126.64765146652536,37.46838410626727,대한민국,KOR,KOR,인천광역시,미추홀구,,숭의동,,석정로,110,82-26,2022-05-01 12:37:48,"산업,유통||자동차||수리||썬팅,광택||썬팅,광택-일반",False
23355,23356,1271026,부광자동차공업사,부광공업사,Bukwang Automobile,Shops and Service,Auto Maintenance,126.73914799747995,37.527280303156886,대한민국,KOR,KOR,인천광역시,계양구,,작전동,,효서로,386,614-3,2022-08-24 14:41:06,"산업,유통||자동차||수리||1급정비",False
23392,23393,374765,카포스 공진카공업사,CARPOS 공진카공업사,"Carpos Gongjin Car Industry Co., Ltd.",Shops and Service,Auto Maintenance,126.73018583351688,37.52021300756079,대한민국,KOR,KOR,인천광역시,부평구,,갈산동,,새갈로,25,21-2,2019-11-14 23:28:51,"산업,유통||자동차||수리||카포스",False
23783,23784,4349285,매직카공업사,,Magic car company,Shops and Service,Auto Maintenance,126.73483969849995,37.54747040548061,대한민국,KOR,KOR,인천광역시,계양구,,임학동,,계양산로,172,29,2022-08-24 14:41:06,"산업,유통||자동차||수리||수리-일반",False
23807,23808,487339,서울자동차공업사,서울자동차전문정비,Seoul Automobile Corporation,Shops and Service,Auto Maintenance,126.71209419999992,37.533386399999806,대한민국,KOR,KOR,인천광역시,계양구,,효성동,,봉오대로569번길,30,23-8,2022-08-24 14:41:06,"산업,유통||자동차||수리||카포스",False
23887,23888,80453,카포스 간석자동차공업사,CARPOS 간석자동차공업사,"Carpos Ganseok Automobile Co., Ltd.",Shops and Service,Auto Maintenance,126.68763313839887,37.47071906555167,대한민국,KOR,KOR,인천광역시,남동구,,간석동,,방축로,414,616-85,2022-08-24 14:41:06,"산업,유통||자동차||수리||카포스",False
23973,23974,557032,카포스명석자동차공업사,CARPOS명석자동차공업사,"Carpos Myeongseok Automobile Co., Ltd.",Shops and Service,Auto Maintenance,126.72094598544396,37.5471010548459,대한민국,KOR,KOR,인천광역시,계양구,,계산동,,계양산로,48,897-113,2022-08-24 14:41:06,"산업,유통||자동차||수리||카포스",False
24141,24142,467360,영국자동차공업사,영국공업사,British automaker,Shops and Service,Auto Maintenance,126.70456302649988,37.493050439206,대한민국,KOR,KOR,인천광역시,부평구,,산곡동,,마장로,166-3,369-301,2022-08-24 14:41:06,"산업,유통||자동차||수리||수리-일반",False
24688,24689,1100852,10년타기정비센터 산곡점,10년타기정비산곡점대박자동차공업사,10-Year Maintenance Center Sangok Branch,Shops and Service,Auto Maintenance,126.70839414632589,37.50808612519169,대한민국,KOR,KOR,인천광역시,부평구,,산곡동,,길주로,416-5,119-38,2022-08-12 13:15:03,"산업,유통||자동차||수리||10년타기정비센터",False
24730,24731,460099,부부자동차공업사,부부공업사,couple automobile company,Shops and Service,Auto Maintenance,126.72179751839992,37.4494292461316,대한민국,KOR,KOR,인천광역시,남동구,,구월동,,구월말로3번길,44,1279-17,2022-08-24 14:41:06,"산업,유통||자동차||수리||수리-일반",False
25014,25015,869389,르노코리아자동차 서비스코너 옥련점,르노삼성지정정비코너옥련점,Renault Korea Automobile  Designated Maintenance Corner  Ongnyeon Branch,Shops and Service,Auto Maintenance,126.65242645348783,37.422335320623056,대한민국,KOR,KOR,인천광역시,연수구,,옥련동,,한나루로,132,417-12,2022-05-01 12:37:48,"산업,유통||자동차||수리||르노삼성자동차서비스",False
25341,25342,288517,카포스경기자동차공업사,CARPOS경기자동차공업사,"Carpos Gyeonggi Automobile Co., Ltd.",Shops and Service,Auto Maintenance,126.7181644603219,37.449500994392565,대한민국,KOR,KOR,인천광역시,남동구,,구월동,,인주대로,729,1235-10,2019-11-14 23:29:26,"산업,유통||자동차||수리||카포스",False
25526,25527,4342105,10년타기정비센터카프정비센터 십정점,십년타기정비센터십정점,10 Years Tagi Maintenance Center Carp Maintenance Center Sipjeong Branch,Shops and Service,Auto Maintenance,126.69736001933812,37.469905169694,대한민국,KOR,KOR,인천광역시,부평구,,십정동,,백범로,492,447-30,2022-08-30 9:43:30,"산업,유통||자동차||수리||수리-일반",False
25750,25751,5665463,영진자동차공업사,영진공업사,Youngjin Automobile,Shops and Service,Auto Maintenance,126.65556529999996,37.4890593999998,대한민국,KOR,KOR,인천광역시,서구,,가좌동,,백범로934번길,8,178-397,2022-05-01 12:37:48,"산업,유통||자동차||수리||수리-일반",False
25889,25890,4327452,CN바이크충남오토바이,씨엔모터스,CN Bike Chungnam Motorcycle,Shops and Service,Auto Maintenance,126.68429477970012,37.45073685524369,대한민국,KOR,KOR,인천광역시,미추홀구,,주안동,,인주대로,430,1486-5,2022-08-18 12:00:50,"산업,유통||자동차||수리||오토바이수리",False
26913,26914,890703,카포스세광자동차공업사,CARPOS세광자동차공업사,"Carpos Segwang Automobile Industry Co., Ltd.",Shops and Service,Auto Maintenance,126.71948560140488,37.5424771676252,대한민국,KOR,KOR,인천광역시,계양구,,계산동,,계산천서로,8,977,2022-05-02 21:16:34,"산업,유통||자동차||수리||카포스",False
27748,27749,5702916,카포스 신안자동차공업사 검단점,CARPOS 신안자동차공업사 검단점,Carpos Shinan Automobile Industry Geomdan Branch,Shops and Service,Auto Maintenance,126.6744758350549,37.59692230806952,대한민국,KOR,KOR,인천광역시,서구,,마전동,,완정로10번길,31,1006-2,2022-09-06 15:18:26,"산업,유통||자동차||수리||카포스",False
27760,27761,601694,카포스 플러스카공업사,CARPOS플러스카공업사,"Carpos Plus Car Industry Co., Ltd.",Shops and Service,Auto Maintenance,126.7253694952254,37.45618877596311,대한민국,KOR,KOR,인천광역시,남동구,,만수동,,구월말로80번길,1,890-20,2022-08-24 14:41:06,"산업,유통||자동차||수리||카포스",False
27889,27890,962254,스피드자동차공업사,스피드공업사,speed car company,Shops and Service,Auto Maintenance,126.72972564407593,37.539790501785006,대한민국,KOR,KOR,인천광역시,계양구,,계산동,,주부토로496번길,21,334-13,2022-08-24 14:41:06,"산업,유통||자동차||수리||수리-일반",False
27974,27975,4383222,전진하이테크자동차정비센터,전진하이테크자동차센터,Jeonjin High-Tech Automobile Maintenance Center,Shops and Service,Auto Maintenance,126.73049862189691,37.44966991873097,대한민국,KOR,KOR,인천광역시,남동구,,만수동,,하촌로,11,979-5,2022-05-01 12:37:48,"산업,유통||자동차||수리||수리-일반",False
27984,27985,27081032,인천정비,,Incheon Maintenance,Shops and Service,Auto Maintenance,126.68645184643988,37.469441424316,대한민국,KOR,KOR,인천광역시,남동구,,간석동,,염전로,417,616-46,2022-08-12 13:15:03,"산업,유통||자동차||수리||수리-일반",False
28089,28090,1870578,인천자동차공업사,인천공업사,Incheon Automobile Corporation,Shops and Service,Auto Maintenance,126.6727751533489,37.450261987039774,대한민국,KOR,KOR,인천광역시,미추홀구,,주안동,,한나루로490번길,97,1418-86,2022-08-16 16:52:33,"산업,유통||자동차||수리||수리-일반",False
28092,28093,4339166,르노코리아자동차 서비스코너 인천논현점,르노삼성지정정비코너인천논현점,Renault Korea Automobile Designated Maintenance Corner  Incheon Nonhyeon Branch,Shops and Service,Auto Maintenance,126.73610824936988,37.40340455182782,대한민국,KOR,KOR,인천광역시,남동구,,논현동,,장도로,24,109-73,2022-05-01 12:37:48,"산업,유통||자동차||수리||르노삼성자동차서비스",False
28144,28145,25188667,백마자동차공업사,,"Baekma Automobile Co., Ltd.",Shops and Service,Auto Maintenance,126.70985060922588,37.518081153872586,대한민국,KOR,KOR,인천광역시,부평구,,청천동,,안남로,393,400-9,2022-08-12 13:15:03,"산업,유통||자동차||수리||수리-일반",False
28465,28466,27216377,상훈자동차공업사,,"Sanghoon Automobile Co., Ltd.",Shops and Service,Auto Maintenance,126.64772629598588,37.51324113507626,대한민국,KOR,KOR,인천광역시,서구,,원창동,,원석로196번안길,4-6,493-3,2022-08-12 13:15:03,"산업,유통||자동차||수리||수리-일반",False
28500,28501,4325633,광은밍광택,,luster,Shops and Service,Auto Maintenance,126.6659428537919,37.46771821235238,대한민국,KOR,KOR,인천광역시,미추홀구,,도화동,,숙골로,54,222-19,2022-08-16 16:52:33,"산업,유통||자동차||수리||썬팅,광택||썬팅,광택-일반",False
28655,28656,1122018,유식자동차공업사,유식공업사,Yusik Automobile Company,Shops and Service,Auto Maintenance,126.47833079999984,37.72206469999979,대한민국,KOR,KOR,인천광역시,강화군,,선원면,창리,중앙로,284,669-2,2021-12-23 15:49:18,"산업,유통||자동차||수리||수리-일반",False
28657,28658,2595293,현대그린공업사,CARPOS 현대그린공업사,Hyundai Green Industries,Shops and Service,Auto Maintenance,126.71216201308548,37.52244912984516,대한민국,KOR,KOR,인천광역시,부평구,,청천동,,안남로434번길,23,409-7,2022-08-18 12:00:50,"산업,유통||자동차||수리||수리-일반",False
28713,28714,118283,카포스 대성자동차공업사,CARPOS 대성자동차공업사,"Carpos Daesung Automobile Co., Ltd.",Shops and Service,Auto Maintenance,126.7075868462999,37.533565130342105,대한민국,KOR,KOR,인천광역시,계양구,,효성동,,봉오대로531번길,32,96-4,2022-08-12 13:15:03,"산업,유통||자동차||수리||카포스",False
29561,29562,6226856,신흥자동차공업사,신흥공업사,Shinheung Automobile,Shops and Service,Auto Maintenance,126.65204459619788,37.42284300532064,대한민국,KOR,KOR,인천광역시,연수구,,옥련동,,한나루로,125-2,423-6,2022-08-24 14:41:06,"산업,유통||자동차||수리||수리-일반",False
29820,29821,1254135,카포스 동연자동차공업사,CARPOS 동연자동차공업사,"Carpos Dongyeon Automobile Co., Ltd.",Shops and Service,Auto Maintenance,126.7346233900789,37.40302211116428,대한민국,KOR,KOR,인천광역시,남동구,,논현동,,앵고개로941번길,11-1,667-10,2019-11-14 23:11:36,"산업,유통||자동차||수리||카포스",False
30107,30108,27184967,천우광택,,Chunwoo Gloss,Shops and Service,Auto Maintenance,126.7039776659192,37.51144290312868,대한민국,KOR,KOR,인천광역시,부평구,,청천동,,마장로,374,190-100,2022-05-01 12:37:48,"산업,유통||자동차||수리||썬팅,광택||썬팅,광택-일반",False
30134,30135,27228103,영일자동차공업사,,"Youngil Automobile Co., Ltd.",Shops and Service,Auto Maintenance,126.6958707300099,37.40823793807876,대한민국,KOR,KOR,인천광역시,남동구,,논현동,,남동대로239번길,68,447-1,2022-08-24 14:41:06,"산업,유통||자동차||수리||수리-일반",False
30324,30325,1093969,레디카서비스OK자동차공업사,레디카서비스오케이자동차공업사,"Ready Car Service OK Automobile Co., Ltd.",Shops and Service,Auto Maintenance,126.69551103492392,37.40607626242175,대한민국,KOR,KOR,인천광역시,남동구,,고잔동,,은청로,26-10,634-2,2022-08-24 14:41:06,"산업,유통||자동차||수리||수리-일반",False
30598,30599,900957,카포스 화성자동차공업사,화성공업사,Hwaseong Automobile Co.,Shops and Service,Auto Maintenance,126.70212006242139,37.46845398186255,대한민국,KOR,KOR,인천광역시,부평구,,십정동,,백범로,442,414-9,2022-08-30 9:43:30,"산업,유통||자동차||수리||카포스",False
30628,30629,964330,동영자동차공업사,동영자동차공업사,Dongyoung Automobile,Shops and Service,Auto Maintenance,126.70605549999993,37.524889199999805,대한민국,KOR,KOR,인천광역시,계양구,,효성동,,마장로522번길,7,412-6,2022-05-01 12:37:48,"산업,유통||자동차||수리||외형복원,덴트,도색||외형복원,덴트,도색-일반",False
30735,30736,5658235,카포스 장한자동차,CARPOS장한자동차,carposing car,Shops and Service,Auto Maintenance,126.67557001794812,37.45499293723035,대한민국,KOR,KOR,인천광역시,미추홀구,,주안동,,경인로326번길,82,557-1,2022-08-16 16:52:33,"산업,유통||자동차||수리||카포스",False
30849,30850,269349,하이카프라자뉴현대자동차공업사,Hicar뉴현대자동차공업사,Hi-Car Plaza New Hyundai Motor Company,Shops and Service,Auto Maintenance,126.67238825560392,37.594324782167035,대한민국,KOR,KOR,인천광역시,서구,,마전동,,완정로,9,1016-10,2022-05-01 12:37:48,"산업,유통||자동차||수리||Hicar현대보험정비소",False
31016,31017,27056557,무주지포트 인천서구점 신화정비공업사,,Mujuji Port Incheon Seogu Branch Shinhwa Maintenance Company,Shops and Service,Auto Maintenance,126.66243949999993,37.49880789999981,대한민국,KOR,KOR,인천광역시,서구,,가좌동,,건지로,186,173-354,2022-05-01 12:37:48,"산업,유통||자동차||수리||수리-일반",False
31177,31178,1116635,서일자동차공업사,서일공업사,Seoil Automobile,Shops and Service,Auto Maintenance,126.7151433398079,37.39443005716913,대한민국,KOR,KOR,인천광역시,남동구,,고잔동,,논현고잔로130번길,25,182-7,2022-08-16 16:52:33,"산업,유통||자동차||수리||수리-일반",False
31233,31234,1258240,국제자동차공업사,국제공업사,International Automobile Company,Shops and Service,Auto Maintenance,126.6791401568139,37.463129873551885,대한민국,KOR,KOR,인천광역시,미추홀구,,주안동,,미추홀대로733번길,20,229-4,2022-08-24 14:41:06,"산업,유통||자동차||수리||수리-일반",False
31246,31247,123222,착한정비센터연수자동차청학점,연수자동차 청학점,Good Maintenance Center Training Automobile Administration Credit,Shops and Service,Auto Maintenance,126.67606536081388,37.41863212814047,대한민국,KOR,KOR,인천광역시,연수구,,청학동,,벚꽃로,90-1,494-4,2022-08-18 12:00:50,"산업,유통||자동차||수리||수리-일반",False
31399,31400,341646,하이카프라자 윤성자동차공업사 선학점,Hicar 윤성자동차공업사 선학점,Hi-Car Plaza Yunseong Automobile Company Seon Credit,Shops and Service,Auto Maintenance,126.6967444291439,37.42560809812497,대한민국,KOR,KOR,인천광역시,연수구,,선학동,,학나래로46번길,3,382-12,2022-05-01 12:37:48,"산업,유통||자동차||수리||수리-일반",False
31475,31476,4348212,오토밸리1급공업사,오토밸리공업사,Auto Valley 1st class company,Shops and Service,Auto Maintenance,126.6970222766529,37.39438061903656,대한민국,KOR,KOR,인천광역시,남동구,,고잔동,,남동동로,104,721,2022-05-01 12:37:48,"산업,유통||자동차||수리||1급정비",False
31662,31663,236337,카포스인천자동차공업사,CARPOS인천자동차공업사,"Carpos Incheon Automobile Industry Co., Ltd.",Shops and Service,Auto Maintenance,126.66442548936888,37.480560819164985,대한민국,KOR,KOR,인천광역시,동구,,송림동,,방축로177번길,9,297-28,2022-05-01 12:37:48,"산업,유통||자동차||수리||카포스",False
31664,31665,1268586,카포스정성자동차공업사,정성자동차공업사,"Carpos Jeongseong Automobile Co., Ltd.",Shops and Service,Auto Maintenance,126.69061382058388,37.52082801758189,대한민국,KOR,KOR,인천광역시,부평구,,청천동,,청농로,21,67-38,2022-05-01 12:37:48,"산업,유통||자동차||수리||카포스",False
31673,31674,5310468,1급 팀 자동차 정비사업소,자동차관리샵,Level 1 Team Automobile Maintenance Office,Shops and Service,Auto Maintenance,126.6661638834599,37.48086683659958,대한민국,KOR,KOR,인천광역시,동구,,송림동,,방축로191번길,21-6,297-49,2022-08-08 10:29:42,"산업,유통||자동차||수리||수리-일반",False
31720,31721,758245,흥인자동차공업사,흥인공업사,Heungin Automobile,Shops and Service,Auto Maintenance,126.68611113295488,37.44824843804897,대한민국,KOR,KOR,인천광역시,미추홀구,,주안동,,인하로,341,1522-15,2022-08-18 12:00:50,"산업,유통||자동차||수리||수리-일반",False
31927,31928,233734,오시오자동차공업사,오시오공업사,"Oshio Automobile Co., Ltd.",Shops and Service,Auto Maintenance,126.63663343976984,37.46375521274437,대한민국,KOR,KOR,인천광역시,중구,,신흥동3가,,제물량로,36-3,36-10,2021-12-23 15:49:18,"산업,유통||자동차||수리||수리-일반",False
31965,31966,1263657,미추홀자동차공업사,미추홀공업사,"Michuhol Automobile Co., Ltd.",Shops and Service,Auto Maintenance,126.68008434140587,37.566475970280415,대한민국,KOR,KOR,인천광역시,서구,,검암동,,승학로,545,498-5,2022-05-01 12:37:48,"산업,유통||자동차||수리||수리-일반",False
32007,32008,1255357,10년타기정비센터 석남점,10년타기정비 석남점,10-Year Maintenance Center  Seoknam Branch,Shops and Service,Auto Maintenance,126.6603490199799,37.49943869904818,대한민국,KOR,KOR,인천광역시,서구,,석남동,,건지로,163,223-58,2022-05-01 12:37:48,"산업,유통||자동차||수리||10년타기정비센터",False
32333,32334,733168,쌍용자동차 남동정비센터,쌍용전문정비공장,Ssangyong Motor Namdong Maintenance Center,Shops and Service,Auto Maintenance,126.6961677746999,37.405713067454855,대한민국,KOR,KOR,인천광역시,남동구,,고잔동,,은청로,26-13,635-3,2022-08-16 16:52:33,"산업,유통||자동차||수리||쌍용자동차정비사업소||쌍용자동차정비사업소-일반",False
32370,32371,474392,길상정비공업사,길상공업사,Gilsang maintenance company,Shops and Service,Auto Maintenance,126.48954009999984,37.642116199999855,대한민국,KOR,KOR,인천광역시,강화군,,길상면,온수리,마니산로,20,481-7,2022-08-24 14:41:06,"산업,유통||자동차||수리||수리-일반",False
32425,32426,20168631,일진광택,,Iljin Gloss,Shops and Service,Auto Maintenance,126.734065519626,37.54498010594802,대한민국,KOR,KOR,인천광역시,계양구,,임학동,,임학서로6번길,10-1,63,2021-12-23 15:49:18,"산업,유통||자동차||수리||썬팅,광택||썬팅,광택-일반",False
33215,33216,1102143,영부자동차공업사,CARPOS 영부자동차공업사,Youngbu Automobile Co.,Shops and Service,Auto Maintenance,126.70814168883688,37.52503403169022,대한민국,KOR,KOR,인천광역시,계양구,,효성동,,아나지로,148,331-20,2022-08-18 12:00:50,"산업,유통||자동차||수리||수리-일반",False
33253,33254,1855967,카포스동남자동차공업사,CARPOS동남자동차공업사,"Carpos Dongnam Automobile Co., Ltd.",Shops and Service,Auto Maintenance,126.73243036722393,37.403573880807166,대한민국,KOR,KOR,인천광역시,남동구,,논현동,,앵고개로941번길,39-28,658-4,2022-08-16 16:52:33,"산업,유통||자동차||수리||수리-일반",False
33778,33779,873096,영남자동차공업사,영남공업사,Yeongnam Automobile Co.,Shops and Service,Auto Maintenance,126.67171849159888,37.46383907297868,대한민국,KOR,KOR,인천광역시,미추홀구,,도화동,,주안로,20,553-7,2022-08-24 14:41:06,"산업,유통||자동차||수리||수리-일반",False
33937,33938,4343858,희망자동차공업사,희망공업사,"Hope Automobile Co., Ltd.",Shops and Service,Auto Maintenance,126.63573300762184,37.5871868993989,대한민국,KOR,KOR,인천광역시,서구,,왕길동,,원당대로302번길,2,601-4,2020-06-15 0:00:00,"산업,유통||자동차||수리||수리-일반",False
34093,34094,248930,자동차수리공업사,자동차공업사,auto repair company,Shops and Service,Auto Maintenance,126.67683628633488,37.49710171609328,대한민국,KOR,KOR,인천광역시,서구,,가좌동,,가석로156번길,18,192-84,2022-08-24 14:41:06,"산업,유통||자동차||수리||수리-일반",False
34139,34140,1032319,쌍용전문정비센터,쌍용전문정비센타,Ssangyong Specialized Maintenance Center,Shops and Service,Auto Maintenance,126.74286627540094,37.55014715520212,대한민국,KOR,KOR,인천광역시,계양구,,병방동,,장제로,944,92-1,2022-08-16 16:52:33,"산업,유통||자동차||수리||수리-일반",False
34189,34190,2616400,우일자동차공업사,만석현대공업사,Wooil Automobile,Shops and Service,Auto Maintenance,126.61676389999992,37.48574999999981,대한민국,KOR,KOR,인천광역시,동구,,만석동,,보세로,65,2-122,2022-08-18 12:00:50,"산업,유통||자동차||수리||수리-일반",False
34247,34248,523676,카포스 콜정비자동차공업사,CARPOS콜정비공업사,"Carpos Call Maintenance Automobile Co., Ltd.",Shops and Service,Auto Maintenance,126.72971092903896,37.45192473012076,대한민국,KOR,KOR,인천광역시,남동구,,만수동,,하촌서로,35,941-15,2022-05-01 12:37:48,"산업,유통||자동차||수리||카포스",False
34382,34383,1121771,진자동차정비,,Jin car maintenance,Shops and Service,Auto Maintenance,126.67652271775688,37.42116008145456,대한민국,KOR,KOR,인천광역시,연수구,,연수동,,새말로45번길,8-12,551-3,2022-08-12 13:15:03,"산업,유통||자동차||수리||수리-일반",False
34512,34513,20184501,주안자동차공업사,주안공업사,"Juan Automobile Co., Ltd.",Shops and Service,Auto Maintenance,126.68846958242196,37.445547464638096,대한민국,KOR,KOR,인천광역시,미추홀구,,관교동,,주승로,163,514-4,2021-12-23 15:49:18,"산업,유통||자동차||수리||수리-일반",False
34843,34844,861794,현대자동차블루핸즈대원자동차공업사,현대블루핸즈대원자동차공업사,"Hyundai Motor Blue Hands Daewon Automobile Co., Ltd.",Shops and Service,Auto Maintenance,126.67206329064491,37.50977975585819,대한민국,KOR,KOR,인천광역시,서구,,석남동,,신석로,90,512,2022-09-06 15:18:26,"산업,유통||자동차||수리||현대자동차서비스센터||블루핸즈",False
35024,35025,5675383,프로광택,,pro gloss,Shops and Service,Auto Maintenance,126.66359333652785,37.49018110282128,대한민국,KOR,KOR,인천광역시,서구,,가좌동,,봉수대로162번길,21,173-55,2022-08-24 14:41:06,"산업,유통||자동차||수리||썬팅,광택||썬팅,광택-일반",False
35448,35449,1003509,소리카공업사,소리공업사,"SORIKA CO., LTD.",Shops and Service,Auto Maintenance,126.69045302680291,37.44989791064728,대한민국,KOR,KOR,인천광역시,미추홀구,,주안동,,경원대로752번길,5,1564-3,2021-12-23 15:49:18,"산업,유통||자동차||수리||수리-일반",False
35459,35460,20184521,카포스 조은모터스,CARPOS 조은모터스,Carpos Joeun Motors,Shops and Service,Auto Maintenance,126.70548977160492,37.50821286837519,대한민국,KOR,KOR,인천광역시,부평구,,산곡동,,길주로,392,102-21,2021-12-23 15:49:18,"산업,유통||자동차||수리||카포스",False
35469,35470,577299,카포스하이탑자동차서비스,CARPOS하이탑자동차서비스,Carpos High Top Car Service,Shops and Service,Auto Maintenance,126.71225501901888,37.5255416385042,대한민국,KOR,KOR,인천광역시,계양구,,효성동,,아나지로,183-1,273-62,2019-11-14 0:00:00,"산업,유통||자동차||수리||카포스",False
35976,35977,909472,1급애니오토자동차공업사,애니오토자동차1급공업사,1st grade Ani Auto Automobile Company,Shops and Service,Auto Maintenance,126.72938912110791,37.52103072645811,대한민국,KOR,KOR,인천광역시,부평구,,갈산동,,주부토로,300,8-15,2022-08-24 14:41:06,"산업,유통||자동차||수리||1급정비",False
35991,35992,6221485,카포스 한국자동차공업사,CARPOS 한국자동차공업사,"Carpos Korea Automobile Industry Co., Ltd.",Shops and Service,Auto Maintenance,126.69939846530488,37.473214944619485,대한민국,KOR,KOR,인천광역시,부평구,,십정동,,열우물로,61,403-1,2019-11-14 0:00:00,"산업,유통||자동차||수리||카포스",False
36069,36070,92454,수석3급자동차공업사,수석자동차공업사,Senior Level 3 Automobile Manufacturer,Shops and Service,Auto Maintenance,126.67742789454987,37.496869334737575,대한민국,KOR,KOR,인천광역시,서구,,가좌동,,건지로318번길,17,189,2022-05-01 12:37:48,"산업,유통||자동차||수리||수리-일반",False
36179,36180,619538,보령종합카정비,보령종합정비,Boryeong car maintenance,Shops and Service,Auto Maintenance,126.6697009349549,37.49801510246287,대한민국,KOR,KOR,인천광역시,서구,,가좌동,,건지로250번길,12,119-17,2022-08-24 14:41:06,"산업,유통||자동차||수리||수리-일반",False
36211,36212,794369,카포스 태평자동차공업사,CARPOS태평자동차공업사,"Carpos Taepyeong Automobile Co., Ltd.",Shops and Service,Auto Maintenance,126.67730396633893,37.542591015865625,대한민국,KOR,KOR,인천광역시,서구,,심곡동,,서곶로,282,303-3,2022-05-01 12:37:48,"산업,유통||자동차||수리||카포스",False
36529,36530,27554041,부부광택,,couple gloss,Shops and Service,Auto Maintenance,126.68731239279796,37.47060699271421,대한민국,KOR,KOR,인천광역시,남동구,,간석동,,주염로,82-50,616-50,2022-09-06 15:18:26,"산업,유통||자동차||수리||썬팅,광택||썬팅,광택-일반",False
36790,36791,761674,그린자동차공업사,그린공업사,Green Automobile Company,Shops and Service,Auto Maintenance,126.7144751149429,37.465168574260886,대한민국,KOR,KOR,인천광역시,남동구,,간석동,,용천로,174-1,43-1,2022-08-16 16:52:33,"산업,유통||자동차||수리||수리-일반",False
36886,36887,27184217,플러스카케어 손세차와 정비,,Plus Car Care hand washing and maintenance,Shops and Service,Auto Maintenance,126.73005779218116,37.5042024089142,대한민국,KOR,KOR,인천광역시,부평구,,부평동,,길주남로,76-1,12-190,2022-09-06 15:18:26,"산업,유통||자동차||수리||수리-일반",False
37092,37093,789210,르노코리아자동차서비스코너 구월점,르노삼성지정정비코너구월점,Renault Korea Automobile Designated Maintenance Corner  Guwol,Shops and Service,Auto Maintenance,126.713719643336,37.4490943538514,대한민국,KOR,KOR,인천광역시,남동구,,구월동,,인주대로,690,288-24,2022-08-16 16:52:33,"산업,유통||자동차||수리||르노삼성자동차서비스",False
37180,37181,464893,현대자동차공업사,현대공업사,Hyundai Motor Company,Shops and Service,Auto Maintenance,126.37087286855548,37.46118194152345,대한민국,KOR,KOR,인천광역시,중구,,을왕동,,용유서로479번길,8,859-9,2022-08-24 14:41:06,"산업,유통||자동차||수리||수리-일반",False
37266,37267,344687,카포스 현대카픽스,CARPOS현대카픽스,Carpos Hyundai Carfix,Shops and Service,Auto Maintenance,126.67383286483587,37.42153363353516,대한민국,KOR,KOR,인천광역시,연수구,,연수동,,함박뫼로,54,557-12,2022-08-30 9:43:30,"산업,유통||자동차||수리||카포스",False
37282,37283,185480,진도자동차공업사,진도공업사,"Jindo Automobile Co., Ltd.",Shops and Service,Auto Maintenance,126.68152796459393,37.54335036988631,대한민국,KOR,KOR,인천광역시,서구,,심곡동,,심곡로,117,295-4,2022-08-16 16:52:33,"산업,유통||자동차||수리||수리-일반",False
37406,37407,1266450,희망자동차공업사,희망공업사,"Hope Automobile Co., Ltd.",Shops and Service,Auto Maintenance,126.7088749450789,37.46276452653027,대한민국,KOR,KOR,인천광역시,남동구,,간석동,,석촌로,25,208-6,2022-08-24 14:41:06,"산업,유통||자동차||수리||수리-일반",False
37572,37573,27089070,1급 디케이 자동차공업사,,1st grade DK Automobile Company,Shops and Service,Auto Maintenance,126.73373169999996,37.52505679999982,대한민국,KOR,KOR,인천광역시,계양구,,작전동,,아나지로374번길,5,708-5,2022-08-24 14:41:06,"산업,유통||자동차||수리||외형복원,덴트,도색||외형복원,덴트,도색-일반",False
39112,39113,163119,태창정비공업사,태창공업사,Taechang Maintenance,Shops and Service,Auto Maintenance,126.68215948204985,37.5523329719443,대한민국,KOR,KOR,인천광역시,서구,,공촌동,,경명대로659번길,2,300,2022-05-01 12:37:48,"산업,유통||자동차||수리||수리-일반",False
39844,39845,27113349,영주자동차공업사,,Yeongju Automobile,Shops and Service,Auto Maintenance,126.65632869999985,37.41629159999976,대한민국,KOR,KOR,인천광역시,연수구,,동춘동,,청량로,93,820-71,2022-08-12 13:15:03,"산업,유통||자동차||수리||수리-일반",False
40074,40075,2598736,카포스오토메인라인,CARPOS오토메인라인,Capos Auto Main Line,Shops and Service,Auto Maintenance,126.66307524916388,37.482206720540574,대한민국,KOR,KOR,인천광역시,동구,,송림동,,방축로157번길,17,296-29,2022-05-01 12:37:48,"산업,유통||자동차||수리||카포스",False
40129,40130,3964868,차차자동차정비공업사,차차자동차공업사,Cha Cha Automobile Maintenance Company,Shops and Service,Auto Maintenance,126.63667214804684,37.613058477039615,대한민국,KOR,KOR,인천광역시,서구,,금곡동,,봉화로223번안길,8,404-13,2022-08-16 16:52:33,"산업,유통||자동차||수리||수리-일반",False
40609,40610,4346633,오토맨,AutoMan,ottoman,Shops and Service,Auto Maintenance,126.63736383759412,37.463762953760416,대한민국,KOR,KOR,인천광역시,중구,,신흥동3가,,인중로,47-1,34-14,2022-05-01 12:37:48,"산업,유통||자동차||수리||외형복원,덴트,도색||외형복원,덴트,도색-일반",False
41969,41970,576934,기아오토큐 남동서비스,기아오토큐 승일자동차,Kia AutoQ Seungil Automotive Industry,Shops and Service,Auto Maintenance,126.71103665324588,37.399474226662434,대한민국,KOR,KOR,인천광역시,남동구,,고잔동,,청능대로,459,257-48,2022-08-26 9:52:19,"산업,유통||자동차||수리||기아오토큐||기아오토큐-일반",False
42189,42190,4343050,대지자동차공업사,대지공업사,"Daeji Automobile Co., Ltd.",Shops and Service,Auto Maintenance,126.64408517454387,37.59780099555613,대한민국,KOR,KOR,인천광역시,서구,,왕길동,,단봉로,66,418-4,2022-05-01 12:37:48,"산업,유통||자동차||수리||수리-일반",False
42228,42229,95624,카포스 두영자동차공업사,CARPOS두영자동차공업사,Carpos Dooyoung Automobile Ind.,Shops and Service,Auto Maintenance,126.73560065031997,37.463043634569104,대한민국,KOR,KOR,인천광역시,남동구,,만수동,,만수로75번길,19,5-219,2022-09-06 15:18:26,"산업,유통||자동차||수리||카포스",False
42578,42579,4331885,형제자동차공업사,형제공업사,Brothers Automobile Co.,Shops and Service,Auto Maintenance,126.73211200360991,37.45137012868227,대한민국,KOR,KOR,인천광역시,남동구,,만수동,,하촌로35번길,2,975-12,2022-08-16 16:52:33,"산업,유통||자동차||수리||수리-일반",False
42678,42679,177307,태창자동차공업사,태창공업사,Taechang Automobile,Shops and Service,Auto Maintenance,126.63900141554784,37.61268800680051,대한민국,KOR,KOR,인천광역시,서구,,금곡동,,봉수대로1581번길,25,345-2,2022-05-01 12:37:48,"산업,유통||자동차||수리||수리-일반",False
42682,42683,957699,세진자동차공업사,세진공업사,Sejin Automobile,Shops and Service,Auto Maintenance,126.72592682038892,37.53670885677992,대한민국,KOR,KOR,인천광역시,계양구,,계산동,,계산로126번길,6,989-43,2022-05-01 12:37:48,"산업,유통||자동차||수리||수리-일반",False
43151,43152,5700204,카포스올레파크,CARPOS올레파크,Capos Olle Park,Shops and Service,Auto Maintenance,126.66644463736888,37.489393156570486,대한민국,KOR,KOR,인천광역시,서구,,가좌동,,가정로47번길,38,150-38,2022-08-24 14:41:06,"산업,유통||자동차||수리||카포스",False
43269,43270,723937,현대자동차공업사,현대카공업사,Hyundai Motor Company,Shops and Service,Auto Maintenance,126.62141036477384,37.47177858079037,대한민국,KOR,KOR,인천광역시,중구,,해안동2가,,,,10-5,2021-12-23 15:49:18,"산업,유통||자동차||수리||수리-일반",False
43796,43797,5679618,해강자동차정비공업사,마스타자동차관리해강자동차정비공업사,Haegang Automobile Maintenance Company,Shops and Service,Auto Maintenance,126.73227588354796,37.5243308612158,대한민국,KOR,KOR,인천광역시,계양구,,작전동,,계양대로16번길,93,738-6,2022-08-18 12:00:50,"산업,유통||자동차||수리||수리-일반",False
43996,43997,936932,삼성자동차정비공업사,삼성자동차공업사,Samsung Auto Repair Company,Shops and Service,Auto Maintenance,126.68586691426889,37.46343560274446,대한민국,KOR,KOR,인천광역시,미추홀구,,주안동,,주안동로,57,116-2,2021-12-23 15:49:18,"산업,유통||자동차||수리||수리-일반",False
44338,44339,969892,한승자동차공업사,카포스 한승자동차공업사,Hanseung Motor Company,Shops and Service,Auto Maintenance,126.73738321428692,37.52689082796061,대한민국,KOR,KOR,인천광역시,계양구,,작전동,,까치말로16번길,10,635-8,2022-08-18 12:00:50,"산업,유통||자동차||수리||수리-일반",False
44371,44372,1856869,공항자동차공업사,,Airport Automobile Company,Shops and Service,Auto Maintenance,126.5042532835227,37.51245281263206,대한민국,KOR,KOR,인천광역시,중구,,운북동,,백운로527번길,51,775-2,2022-08-16 16:52:33,"산업,유통||자동차||수리||수리-일반",False
44548,44549,219230,카포스 서부자동차공업사,CARPOS서부자동차공업사,"Carpos Western Automobile Co., Ltd.",Shops and Service,Auto Maintenance,126.72404858782193,37.4593861276918,대한민국,KOR,KOR,인천광역시,남동구,,만수동,,백범로227번길,19,899,2022-08-24 14:41:06,"산업,유통||자동차||수리||카포스",False
44886,44887,1066732,승제자동차공업사,승제공업사,"Seungje Automobile Co., Ltd.",Shops and Service,Auto Maintenance,126.6724071722529,37.49347920561648,대한민국,KOR,KOR,인천광역시,서구,,가좌동,,가정로98번길,7,145-85,2021-12-23 15:49:18,"산업,유통||자동차||수리||수리-일반",False
45266,45267,4783469,영일사자동차공업사,,Youngilsa Automobile Corporation,Shops and Service,Auto Maintenance,126.73562080074792,37.57762049682744,대한민국,KOR,KOR,인천광역시,계양구,,장기동,,장기로,14,149,2022-08-24 14:41:06,"산업,유통||자동차||수리||수리-일반",False
45410,45411,793846,국제자동차공업사,국제공업사,International Automobile Company,Shops and Service,Auto Maintenance,126.6056758532708,37.45501816463345,대한민국,KOR,KOR,인천광역시,중구,,항동7가,,축항대로86번길,20,27-128,2022-05-01 12:37:48,"산업,유통||자동차||수리||수리-일반",False
45592,45593,4330718,형통자동차공업사,형통공업사,"Hyeongtong Automobile Co., Ltd.",Shops and Service,Auto Maintenance,126.6982630869019,37.45116801151735,대한민국,KOR,KOR,인천광역시,남동구,,구월동,,인주대로551번길,18,1109-10,2022-08-12 13:15:03,"산업,유통||자동차||수리||수리-일반",False
45632,45633,450197,현대자동차공업사,현대공업사,Hyundai Motor Company,Shops and Service,Auto Maintenance,126.72106347177191,37.51140232042779,대한민국,KOR,KOR,인천광역시,부평구,,갈산동,,부평대로,224,185-4,2022-08-18 12:00:50,"산업,유통||자동차||수리||수리-일반",False
45633,45634,5919175,태원자동차공업사,,Taewon Automobile,Shops and Service,Auto Maintenance,126.65323197979392,37.495182945293074,대한민국,KOR,KOR,인천광역시,서구,,가좌동,,보도진로41번길,8,173-235,2022-05-01 12:37:48,"산업,유통||자동차||수리||수리-일반",False
45792,45793,3121714,메트로자동차공업사,메트로공업사,"Metro Automobile Co., Ltd.",Shops and Service,Auto Maintenance,126.66761067257895,37.43970187733119,대한민국,KOR,KOR,인천광역시,미추홀구,,학익동,,매소홀로,412,683-5,2022-05-01 12:37:48,"산업,유통||자동차||수리||수리-일반",False
45892,45893,2594592,동광공업사,,Dongkwang Industrial Co.,Shops and Service,Auto Maintenance,126.74955462009343,37.481482688852395,대한민국,KOR,KOR,인천광역시,부평구,,일신동,,항동로143번길,2,79-10,2022-09-06 15:18:26,"산업,유통||자동차||수리||수리-일반",False
46085,46086,2601582,남향자동차공업사,남향공업사,Namhyang Automobile Co.,Shops and Service,Auto Maintenance,126.45944292643064,37.25102242976444,대한민국,KOR,KOR,인천광역시,옹진군,,영흥면,외리,영흥남로,422-1,739-6,2022-05-01 12:37:48,"산업,유통||자동차||수리||수리-일반",False
46111,46112,306658,광명자동차공업사,광명공업사,Gwangmyeong Automobile,Shops and Service,Auto Maintenance,126.7015662483779,37.40670613672425,대한민국,KOR,KOR,인천광역시,남동구,,논현동,,남동대로262번길,30-5,442-66,2022-08-24 14:41:06,"산업,유통||자동차||수리||수리-일반",False
46783,46784,509846,정기자동차공업사,정기공업사,Regular Automobile Company,Shops and Service,Auto Maintenance,126.4358395232506,37.700298210153086,대한민국,KOR,KOR,인천광역시,강화군,,불은면,삼성리,중앙로,755-2,1038-11,2022-08-24 14:41:06,"산업,유통||자동차||수리||수리-일반",False
46792,46793,1256721,투투정비 인천남동센터,투투정비인천남동센타,Tutu Maintenance Incheon Namdong Center,Shops and Service,Auto Maintenance,126.71883648074392,37.39209518248445,대한민국,KOR,KOR,인천광역시,남동구,,고잔동,,앵고개로719번길,82,407-3,2021-12-23 15:49:18,"산업,유통||자동차||수리||수리-일반",False
46961,46962,1258588,태양자동차공업사,태양공업사,"Solar Automobile Co., Ltd.",Shops and Service,Auto Maintenance,126.6746787503619,37.41751540112525,대한민국,KOR,KOR,인천광역시,연수구,,청학동,,용담로,75,489-7,2022-08-18 12:00:50,"산업,유통||자동차||수리||수리-일반",False
47165,47166,27216847,10년타기정비센터 주안남부점,,10-Year Tagi Maintenance Center Juan Nambu Branch,Shops and Service,Auto Maintenance,126.66982923576788,37.44853023202037,대한민국,KOR,KOR,인천광역시,미추홀구,,주안동,,인하로,196-1,748-2,2022-08-12 13:15:03,"산업,유통||자동차||수리||10년타기정비센터",False
47834,47835,26786343,드림카공업사,,dream car company,Shops and Service,Auto Maintenance,126.6334964667029,37.480009312775,대한민국,KOR,KOR,인천광역시,동구,,송현동,,송화로42번길,16,66-756,2022-05-01 12:37:48,"산업,유통||자동차||수리||수리-일반",False
47903,47904,746272,공성자동차정비공업사,공성공업사,Gongseong Automobile Maintenance Company,Shops and Service,Auto Maintenance,126.65191259534485,37.49673243427188,대한민국,KOR,KOR,인천광역시,서구,,가좌동,,중봉대로198번길,34,602-28,2020-01-14 23:42:28,"산업,유통||자동차||수리||수리-일반",False
47997,47998,2594593,성삼자동차공업사,성삼공업사,Seongsam Automobile,Shops and Service,Auto Maintenance,126.74948087152886,37.481490607308295,대한민국,KOR,KOR,인천광역시,부평구,,일신동,,항동로143번길,2,79-10,2022-09-06 15:18:26,"산업,유통||자동차||수리||수리-일반",False
48023,48024,3123371,원우공업사,,Wonwoo Industries,Shops and Service,Auto Maintenance,126.62582214583487,37.442465626118754,대한민국,KOR,KOR,인천광역시,중구,,신흥동3가,,서해대로180번길,40,42-11,2021-12-23 15:49:18,"산업,유통||자동차||수리||수리-일반",False
48181,48182,1266923,카포스 청수카공업사,CARPOS 청수카공업사,"Carpos Cheongsu Car Industry Co., Ltd.",Shops and Service,Auto Maintenance,126.73600690093092,37.527566720290494,대한민국,KOR,KOR,인천광역시,계양구,,작전동,,까치말로,21,654-2,2022-08-16 16:52:33,"산업,유통||자동차||수리||카포스",False
48310,48311,27220055,10년타기정비센터 만수1점,,10 Years Ride Maintenance Center Mansu 1 point,Shops and Service,Auto Maintenance,126.72886210392092,37.45732887831967,대한민국,KOR,KOR,인천광역시,남동구,,만수동,,백범로169번길,8,876-3,2022-08-12 13:15:03,"산업,유통||자동차||수리||10년타기정비센터",False
48386,48387,195864,대진자동차공업사,대진공업사,Daejin Motor Company,Shops and Service,Auto Maintenance,126.47146299999967,37.71710999999972,대한민국,KOR,KOR,인천광역시,강화군,,선원면,냉정리,중앙로,374,550-5,2022-08-16 16:52:33,"산업,유통||자동차||수리||수리-일반",False
48515,48516,3104879,카포스 옥림카서비스,CARPOS 옥림카서비스,Carpos Okrim Car Service,Shops and Service,Auto Maintenance,126.49238755987072,37.75076840747354,대한민국,KOR,KOR,인천광역시,강화군,,강화읍,옥림리,동문로,75,1054-4,2022-05-01 12:37:48,"산업,유통||자동차||수리||카포스",False
49785,49786,593310,동호자동차공업사,동호공업사,"Dongho Automobile Co., Ltd.",Shops and Service,Auto Maintenance,126.67705419999996,37.46685239999979,대한민국,KOR,KOR,인천광역시,미추홀구,,주안동,,석정로376번길,2,26-28,2022-05-01 12:37:48,"산업,유통||자동차||수리||수리-일반",False
49871,49872,5724897,태흥오토바이 서구총판,태흥오토바이서구총판,Taeheung Motorcycle Seo-gu Distributor,Shops and Service,Auto Maintenance,126.67704605029996,37.556405616138015,대한민국,KOR,KOR,인천광역시,서구,,검암동,,승학로372번길,39,666-3,2022-05-01 12:37:48,"산업,유통||자동차||수리||오토바이수리",False
49911,49912,65151,부흥자동차공업사,부흥공업사,"Buheung Automobile Co., Ltd.",Shops and Service,Auto Maintenance,126.68600219999996,37.4716844999998,대한민국,KOR,KOR,인천광역시,남동구,,간석동,,방축로,394,616-87,2022-08-18 12:00:50,"산업,유통||자동차||수리||1급정비",False
50124,50125,1855538,청양자동차정비 논현점,청양정비 논현점,Cheongyang Auto Maintenance Nonhyeon Branch,Shops and Service,Auto Maintenance,126.73030465208092,37.40245015645947,대한민국,KOR,KOR,인천광역시,남동구,,논현동,,소래역서로2번길,40,651-3,2022-05-01 12:37:48,"산업,유통||자동차||수리||수리-일반",False
50240,50241,687825,류카공업사,,Ryuka Industrial Co.,Shops and Service,Auto Maintenance,126.71476098285396,37.4626663636857,대한민국,KOR,KOR,인천광역시,남동구,,간석동,,용천로,146,34-6,2022-08-24 14:41:06,"산업,유통||자동차||수리||수리-일반",False
50277,50278,5713611,현대기아정비센터,,Hyundai Kia Maintenance Center,Shops and Service,Auto Maintenance,126.69789843965688,37.42424039571036,대한민국,KOR,KOR,인천광역시,연수구,,선학동,,학나래로6번길,30-4,412-1,2022-08-18 12:00:50,"산업,유통||자동차||수리||수리-일반",False
50519,50520,27115021,블루텍광택세차,,Blue Tech Glossy Car Wash,Shops and Service,Auto Maintenance,126.61502742778782,37.5960280141161,대한민국,KOR,KOR,인천광역시,서구,,오류동,,보듬로,158,1656-1,2022-05-01 12:37:48,"산업,유통||자동차||수리||썬팅,광택||썬팅,광택-일반",False
50611,50612,963167,명진자동차공업사,,"Myungjin Automobile Co., Ltd.",Shops and Service,Auto Maintenance,126.65476076619588,37.5522011940537,대한민국,KOR,KOR,인천광역시,서구,,경서동,,경명대로,420,249-67,2022-08-24 14:41:06,"산업,유통||자동차||수리||수리-일반",False
50811,50812,27048949,스타광택,,star gloss,Shops and Service,Auto Maintenance,126.68612599999996,37.4708246999998,대한민국,KOR,KOR,인천광역시,남동구,,간석동,,염전로411번길,31,616-35,2022-08-16 16:52:33,"산업,유통||자동차||수리||썬팅,광택||썬팅,광택-일반",False
51061,51062,3127847,풍산자동차공업사,풍산공업사,Poongsan Automobile,Shops and Service,Auto Maintenance,126.66830394094188,37.50317532793638,대한민국,KOR,KOR,인천광역시,서구,,석남동,,거북로,60,587-105,2022-08-24 14:41:06,"산업,유통||자동차||수리||수리-일반",False
51068,51069,20201469,카포스 기남자동차공업사,CARPOS 기남자동차공업사,"Carpos Kinam Automobile Industry Co., Ltd.",Shops and Service,Auto Maintenance,126.65047936669485,37.58284061161202,대한민국,KOR,KOR,인천광역시,서구,,왕길동,,거월로,1,61-2,2022-05-01 12:37:48,"산업,유통||자동차||수리||카포스",False
51136,51137,5662893,마스타영광자동차공업사인천주안7호점,마스타자동차관리영광자동차공업사인천주안7호점,"Master Youngkwang Automobile Industry 7th Branch, Cheonjuan",Shops and Service,Auto Maintenance,126.68173033337288,37.45108453134368,대한민국,KOR,KOR,인천광역시,미추홀구,,주안동,,인주대로,406,1468-14,2022-08-24 14:41:06,"산업,유통||자동차||수리||마스타자동차관리",False
51553,51554,203412,프로모터스정비세차장,프로모터스세차장,Promoters Maintenance Car Wash,Shops and Service,Auto Maintenance,126.69676993523188,37.455511241210274,대한민국,KOR,KOR,인천광역시,남동구,,간석동,,문화로169번길,66,508-64,2022-08-24 14:41:06,"산업,유통||자동차||수리||수리-일반",False
51751,51752,20199329,진광택,,Jin Kwang Taek,Shops and Service,Auto Maintenance,126.66362659988793,37.49017063577831,대한민국,KOR,KOR,인천광역시,서구,,가좌동,,봉수대로162번길,21,173-55,2022-08-24 14:41:06,"산업,유통||자동차||수리||썬팅,광택||썬팅,광택-일반",False
51921,51922,5686698,중앙자동차공업사,중앙공업사,"JoongAng Automobile Co., Ltd.",Shops and Service,Auto Maintenance,126.61872664215284,37.437098979688656,대한민국,KOR,KOR,인천광역시,중구,,신흥동3가,,서해대로94번길,11,60-13,2022-08-18 12:00:50,"산업,유통||자동차||수리||1급정비",False
51972,51973,756103,서구자동차공업사,서구공업사,Seogu Automobile,Shops and Service,Auto Maintenance,126.67294916659093,37.5473955814459,대한민국,KOR,KOR,인천광역시,서구,,연희동,,대평로,36-1,747-16,2021-12-23 15:49:18,"산업,유통||자동차||수리||수리-일반",False
52129,52130,863991,부중자동차공업사,,"Bujung Automobile Co., Ltd.",Shops and Service,Auto Maintenance,126.7049226316909,37.50827560008639,대한민국,KOR,KOR,인천광역시,부평구,,산곡동,,길주로,388,101-9,2022-08-12 13:15:03,"산업,유통||자동차||수리||수리-일반",False
52455,52456,793242,카포스 장봉자동차공업사,CARPOS 장봉자동차공업사,"Carpos Jangbong Automobile Co., Ltd.",Shops and Service,Auto Maintenance,126.68784214349589,37.47022430518047,대한민국,KOR,KOR,인천광역시,남동구,,간석동,,염전로425번길,25,616-65,2022-05-01 12:37:48,"산업,유통||자동차||수리||카포스",False
53203,53204,994074,1급세운자동차공업사,세운자동차공업사,1st Class Sewoon Automobile Company,Shops and Service,Auto Maintenance,126.65083286806689,37.48743358585229,대한민국,KOR,KOR,인천광역시,동구,,송현동,,방축로37번길,25-5,140-18,2022-05-01 12:37:48,"산업,유통||자동차||수리||1급정비",False
53219,53220,6223496,JT판금도색광택,JT판금광택,JT sheet metal luster,Shops and Service,Auto Maintenance,126.6867620703569,37.470127296823264,대한민국,KOR,KOR,인천광역시,남동구,,간석동,,염전로411번길,14,616-46,2019-11-14 23:30:26,"산업,유통||자동차||수리||썬팅,광택||썬팅,광택-일반",False
53241,53242,382226,창일자동차공업사,창일공업사,"Changil Automobile Co., Ltd.",Shops and Service,Auto Maintenance,126.70970596736588,37.39388100059656,대한민국,KOR,KOR,인천광역시,남동구,,고잔동,,논현고잔로109번길,68,269-5,2022-08-24 14:41:06,"산업,유통||자동차||수리||1급정비",False
53312,53313,26929556,듀얼자동차광택,,dual car gloss,Shops and Service,Auto Maintenance,126.73923527137104,37.524268755440055,대한민국,KOR,KOR,인천광역시,계양구,,작전동,,아나지로424번길,13,619-6,2022-05-01 12:37:48,"산업,유통||자동차||수리||썬팅,광택||썬팅,광택-일반",False
53683,53684,852383,에코현대자동차공업사,에코현대공업사,Eco Hyundai Motor Company,Shops and Service,Auto Maintenance,126.72064409999996,37.465357999999775,대한민국,KOR,KOR,인천광역시,남동구,,간석동,,용천로176번길,115,225-270,2022-08-16 16:52:33,"산업,유통||자동차||수리||수리-일반",False
53988,53989,27081679,예손자동차공업사,,Yeson Automobile,Shops and Service,Auto Maintenance,126.66807119999288,37.5006825999689,대한민국,KOR,KOR,인천광역시,서구,,석남동,,염곡로,182,589-1,2022-08-16 16:52:33,"산업,유통||자동차||수리||수리-일반",False
54024,54025,1272444,카포스 대명자동차공업사,CARPOS대명자동차공업사,"Carpos Daemyung Automobile Co., Ltd.",Shops and Service,Auto Maintenance,126.72865028628279,37.50109319330598,대한민국,KOR,KOR,인천광역시,부평구,,부평동,,부흥북로,60,379-5,2022-08-24 14:41:06,"산업,유통||자동차||수리||카포스",False
54301,54302,1012080,태원공업사,태원자동차공업사,Taewon Industries,Shops and Service,Auto Maintenance,126.63605561524783,37.44016027249816,대한민국,KOR,KOR,인천광역시,미추홀구,,학익동,,아암대로253번길,50,587-82,2022-05-01 12:37:48,"산업,유통||자동차||수리||1급정비",False
54480,54481,360614,강화운수1급정비공장,1급강화운수정비공장,Ganghwa Transport Class 1 Maintenance Plant,Shops and Service,Auto Maintenance,126.47528699999984,37.71761799999989,대한민국,KOR,KOR,인천광역시,강화군,,선원면,냉정리,강화동로,994,523-12,2017-03-21 12:12:12,"산업,유통||자동차||수리||1급정비",False
55083,55084,233921,카포스 성실자동차공업사,CARPOS 성실자동차공업사,"Carpos Sincerity Automobile Co., Ltd.",Shops and Service,Auto Maintenance,126.71998710819913,37.54732417985231,대한민국,KOR,KOR,인천광역시,계양구,,계산동,,계양산로,39,722-90,2022-05-01 12:37:48,"산업,유통||자동차||수리||카포스",False
55351,55352,3143829,하영자동차공업사,하영공업사,Hayoung Automobile,Shops and Service,Auto Maintenance,126.67079138725003,37.45260486180563,대한민국,KOR,KOR,인천광역시,미추홀구,,주안동,,한나루로516번길,46,720-12,2022-05-02 21:16:34,"산업,유통||자동차||수리||출장정비",False
55389,55390,5680496,성원차광택,,Sungwon Cha Gloss,Shops and Service,Auto Maintenance,126.63519809999993,37.44162219999978,대한민국,KOR,KOR,인천광역시,미추홀구,,학익동,,아암대로227번길,38,587-368,2018-08-16 0:00:00,"산업,유통||자동차||수리||썬팅,광택||썬팅,광택-일반",False
55903,55904,873299,현대&기아자동차공업사,현대엔기아자동차공업사,Hyundai & Kia Motor Company,Shops and Service,Auto Maintenance,126.67734447155885,37.42042131059375,대한민국,KOR,KOR,인천광역시,연수구,,연수동,,먼우금로251번길,41,550-4,2022-08-24 14:41:06,"산업,유통||자동차||수리||수리-일반",False
55942,55943,2621400,SD덴트광택 송도점,에스디덴트광택 송도점,SD Dent Gloss Songdo Branch,Shops and Service,Auto Maintenance,126.65250420485788,37.42309124298546,대한민국,KOR,KOR,인천광역시,연수구,,옥련동,,청량로185번길,5,399-1,2020-06-15 0:00:00,"산업,유통||자동차||수리||썬팅,광택||썬팅,광택-일반",False
56283,56284,756529,라이프자동차공업사,라이프공업사,"Life Automobile Co., Ltd.",Shops and Service,Auto Maintenance,126.72887828007892,37.50870291519589,대한민국,KOR,KOR,인천광역시,부평구,,갈산동,,주부토로150번길,56,385,2019-11-14 23:11:36,"산업,유통||자동차||수리||수리-일반",False
56334,56335,377927,카포스새한자동차공업사,CARPOS새한자동차공업사,"Carpos Saehan Automobile Co., Ltd.",Shops and Service,Auto Maintenance,126.72666266989928,37.458885084209406,대한민국,KOR,KOR,인천광역시,남동구,,만수동,,구월말로120번길,22,894-21,2022-08-18 12:00:50,"산업,유통||자동차||수리||수리-일반",False
56947,56948,5668817,서광자동차공업사,서광공업사,Seokwang Automobile,Shops and Service,Auto Maintenance,126.69854113728088,37.468334489129866,대한민국,KOR,KOR,인천광역시,남동구,,간석동,,백범로,471,570-4,2022-08-16 16:52:33,"산업,유통||자동차||수리||수리-일반",False
57005,57006,805823,자동차정비마을,,car maintenance village,Shops and Service,Auto Maintenance,126.68032399999994,37.543419999999834,대한민국,KOR,KOR,인천광역시,서구,,심곡동,,탁옥로98번길,4,298-23,2022-08-24 14:41:06,"산업,유통||자동차||수리||수리-일반",False
57359,57360,783361,진석자동차공업사,진석공업사,"Jinseok Automobile Co., Ltd.",Shops and Service,Auto Maintenance,126.6610758350439,37.42945938021826,대한민국,KOR,KOR,인천광역시,연수구,,청학동,,청솔로,48,37-25,2022-08-24 14:41:06,"산업,유통||자동차||수리||수리-일반",False
57377,57378,613389,우진자동차공업사,우진공업사,Woojin Automobile,Shops and Service,Auto Maintenance,126.67889419770188,37.44883957546497,대한민국,KOR,KOR,인천광역시,미추홀구,,주안동,,미추홀대로575번길,14,1460-22,2022-08-24 14:41:06,"산업,유통||자동차||수리||수리-일반",False
57742,57743,20073992,백마자동차공업사,백마공업사,"Baekma Automobile Co., Ltd.",Shops and Service,Auto Maintenance,126.67457477157092,37.548951459341296,대한민국,KOR,KOR,인천광역시,서구,,연희동,,승학로,303,740-8,2022-08-16 16:52:33,"산업,유통||자동차||수리||수리-일반",False
57846,57847,6227079,다산광택,,fertility gloss,Shops and Service,Auto Maintenance,126.6770333688119,37.469855529477286,대한민국,KOR,KOR,인천광역시,미추홀구,,주안동,,길파로41번길,47,10-68,2019-11-14 0:00:00,"산업,유통||자동차||수리||썬팅,광택||썬팅,광택-일반",False
58124,58125,1041837,오토프로업자동차공업사,오토프로업공업사,"Auto Pro-up Automobile Co., Ltd.",Shops and Service,Auto Maintenance,126.67333292582688,37.4890735689705,대한민국,KOR,KOR,인천광역시,서구,,가좌동,,건지로284번길,111,560-22,2022-08-08 10:29:42,"산업,유통||자동차||수리||수리-일반",False
58993,58994,875980,카포스황제자동차공업사,CARPOS황제자동차공업사,"Carpos Emperor Automobile Co., Ltd.",Shops and Service,Auto Maintenance,126.73637189040896,37.46325705045927,대한민국,KOR,KOR,인천광역시,남동구,,만수동,,만수로,91-1,822-17,2021-12-23 15:49:18,"산업,유통||자동차||수리||카포스",False
59840,59841,1058880,성민자동차공업사,성민공업사,"Sungmin Automobile Co., Ltd.",Shops and Service,Auto Maintenance,126.74430947818594,37.54276177816621,대한민국,KOR,KOR,인천광역시,계양구,,용종동,,용마루6길,3,220-7,2022-08-24 14:41:06,"산업,유통||자동차||수리||수리-일반",False
59843,59844,5676195,미광광택,,matte gloss,Shops and Service,Auto Maintenance,126.66368213676388,37.490188502392094,대한민국,KOR,KOR,인천광역시,서구,,가좌동,,봉수대로162번길,21,173-55,2020-01-14 23:24:59,"산업,유통||자동차||수리||썬팅,광택||썬팅,광택-일반",False
60010,60011,1855099,대부모터스공업사,대부공업사,Daebu Motors,Shops and Service,Auto Maintenance,126.65306765343892,37.46643745475527,대한민국,KOR,KOR,인천광역시,미추홀구,,숭의동,,참외전로,349,76-8,2022-08-18 12:00:50,"산업,유통||자동차||수리||수리-일반",False
60430,60431,1871893,동양자동차공업사,동양공업사,"Dongyang Automobile Co., Ltd.",Shops and Service,Auto Maintenance,126.75582091552296,37.561973547594015,대한민국,KOR,KOR,인천광역시,계양구,,동양동,,양지말2길,8,606,2022-09-06 15:18:26,"산업,유통||자동차||수리||수리-일반",False
60620,60621,1109154,대덕자동차공업사,대덕공업사,"Daedeok Automobile Co., Ltd.",Shops and Service,Auto Maintenance,126.72134336663989,37.541497316987126,대한민국,KOR,KOR,인천광역시,계양구,,계산동,,계산천서로,27,940-38,2022-05-01 12:37:48,"산업,유통||자동차||수리||수리-일반",False
60664,60665,5703591,home광택,홈광택,home gloss,Shops and Service,Auto Maintenance,126.66398914882691,37.490109720403865,대한민국,KOR,KOR,인천광역시,서구,,가좌동,,봉수대로162번길,25,173-76,2020-01-14 23:21:05,"산업,유통||자동차||수리||썬팅,광택||썬팅,광택-일반",False
61131,61132,1872464,카포스 진보자동차공업사,CARPOS 진보자동차공업사,"Carpos Jinbo Automobile Co., Ltd.",Shops and Service,Auto Maintenance,126.70797295761191,37.53079218499221,대한민국,KOR,KOR,인천광역시,계양구,,효성동,,봉오대로531번길,2,163-1,2022-08-24 14:41:06,"산업,유통||자동차||수리||카포스",False
61520,61521,751109,신자동차공업사,신공업사,new automobile company,Shops and Service,Auto Maintenance,126.73486672753492,37.45117433104358,대한민국,KOR,KOR,인천광역시,남동구,,만수동,,하촌로70번길,75,961-23,2022-08-24 14:41:06,"산업,유통||자동차||수리||수리-일반",False
61840,61841,1270461,부평택시미터자동차공업사,택시미터공업사,"Bupyeong Taxi Meter Automobile Co., Ltd.",Shops and Service,Auto Maintenance,126.7038487269469,37.516083263758894,대한민국,KOR,KOR,인천광역시,부평구,,청천동,,마장로,423-4,107-29,2022-08-24 14:41:06,"산업,유통||자동차||수리||수리-일반",False
62175,62176,3435691,해안자동차공업사,해안공업사,"Haeahn Automobile Co., Ltd.",Shops and Service,Auto Maintenance,126.62171997904684,37.471649783192476,대한민국,KOR,KOR,인천광역시,중구,,해안동3가,,제물량로206번길,2,2-16,2022-05-01 12:37:48,"산업,유통||자동차||수리||수리-일반",False
62225,62226,444,바로바로자동차공업사,바로바로공업사,Baro Baro Automobile Co.,Shops and Service,Auto Maintenance,126.71406179676588,37.5045906953219,대한민국,KOR,KOR,인천광역시,부평구,,산곡동,,원길로,9-1,412-2,2021-12-23 15:49:18,"산업,유통||자동차||수리||수리-일반",False
62471,62472,2607521,세븐코팅광택전문점,세븐코팅전문점,Seven Coating Glossy Store,Shops and Service,Auto Maintenance,126.70731036686288,37.508142089633694,대한민국,KOR,KOR,인천광역시,부평구,,산곡동,,길주로,408,118-10,2021-12-23 15:49:18,"산업,유통||자동차||수리||썬팅,광택||썬팅,광택-일반",False
62735,62736,939056,카포스 월드자동차공업사,CARPOS 월드자동차공업사,"Carpos World Automobile Co., Ltd.",Shops and Service,Auto Maintenance,126.64001467678187,37.47325504264576,대한민국,KOR,KOR,인천광역시,동구,,금곡동,,금곡로,40,43-3,2022-05-01 12:37:48,"산업,유통||자동차||수리||카포스",False
62816,62817,6209736,신자동차공업사,신공업사,new automobile company,Shops and Service,Auto Maintenance,126.64210093460485,37.457929891793675,대한민국,KOR,KOR,인천광역시,미추홀구,,용현동,,능해길,83,684-125,2019-11-14 23:30:01,"산업,유통||자동차||수리||수리-일반",False
62950,62951,460303,카포스 현대24시자동차공업사,현대공업사,"Carpos Hyundai 24 Hour Automobile Co., Ltd.",Shops and Service,Auto Maintenance,126.72535935507392,37.529813373505114,대한민국,KOR,KOR,인천광역시,계양구,,작전동,,봉오대로686번길,1,869,2022-05-01 12:37:48,"산업,유통||자동차||수리||카포스",False
63298,63299,2611441,실로암자동차공업사,실로암공업사,"Siloam Automobile Co., Ltd.",Shops and Service,Auto Maintenance,126.6638260347229,37.443442741836456,대한민국,KOR,KOR,인천광역시,미추홀구,,학익동,,소성로135번길,3,260-46,2022-05-01 12:37:48,"산업,유통||자동차||수리||수리-일반",False
63312,63313,389180,동우공업사,,Dongwoo Industries,Shops and Service,Auto Maintenance,126.7155837746689,37.42767882806367,대한민국,KOR,KOR,인천광역시,남동구,,남촌동,,남촌로69번길,2,256-1,2022-05-01 12:37:48,"산업,유통||자동차||수리||수리-일반",False
63354,63355,995888,카포스 오토라인자동차공업사,CARPOS 오토라인자동차공업사,"Carpos Autoline Automobile Co., Ltd.",Shops and Service,Auto Maintenance,126.72392116534992,37.45513914797488,대한민국,KOR,KOR,인천광역시,남동구,,만수동,,구월말로,69-19,911,2022-08-24 14:41:06,"산업,유통||자동차||수리||카포스",False
63852,63853,826634,카포스 미래자동차공업사,CARPOS 미래자동차공업사,"Carpos Future Automobile Co., Ltd.",Shops and Service,Auto Maintenance,126.72385962349392,37.5084136651198,대한민국,KOR,KOR,인천광역시,부평구,,갈산동,,주부토로151번길,35,377-5,2022-05-01 12:37:48,"산업,유통||자동차||수리||카포스",False
63999,64000,3848897,예스모터스 수입차정비,예스모터스,Yes Motors Imported car maintenance,Shops and Service,Auto Maintenance,126.73489563886292,37.40321940622386,대한민국,KOR,KOR,인천광역시,남동구,,논현동,,앵고개로941번길,8,664-2,2022-08-12 13:15:03,"산업,유통||자동차||수리||수리-일반",False
64682,64683,5678935,자유자동차공업사,자유공업사,Freedom Automobile Company,Shops and Service,Auto Maintenance,126.68521091644887,37.46619027004196,대한민국,KOR,KOR,인천광역시,미추홀구,,주안동,,석정로,448,22-28,2022-08-24 14:41:06,"산업,유통||자동차||수리||수리-일반",False
64780,64781,2598541,모비스정비센타,,Mobis Maintenance Center,Shops and Service,Auto Maintenance,126.70612042437588,37.4938765994513,대한민국,KOR,KOR,인천광역시,부평구,,산곡동,,마장로168번길,37,311-27,2022-05-01 12:37:48,"산업,유통||자동차||수리||수리-일반",False
64786,64787,4338426,유명자동차공업사,유명공업사,famous automobile company,Shops and Service,Auto Maintenance,126.64646273695988,37.421141859725566,대한민국,KOR,KOR,인천광역시,연수구,,옥련동,,능허대로149번길,6,507-9,2022-05-01 12:37:48,"산업,유통||자동차||수리||수리-일반",False
64986,64987,49397,카포스 진성자동차,CARPOS진성자동차,Carpos Jinsung Motors,Shops and Service,Auto Maintenance,126.62932009837844,37.47990906787164,대한민국,KOR,KOR,인천광역시,동구,,화평동,,화도진로95번길,2,227,2022-08-24 14:41:06,"산업,유통||자동차||수리||카포스",False
65222,65223,3131547,동일자동차공업사,동일공업사,Dongil Automobile Co.,Shops and Service,Auto Maintenance,126.6700371557999,37.54690834229591,대한민국,KOR,KOR,인천광역시,서구,,심곡동,,대평로,61-1,322-4,2021-12-23 15:49:18,"산업,유통||자동차||수리||수리-일반",False
65405,65406,395292,신비자동차공업사,신비공업사,"Sinb Automobile Co., Ltd.",Shops and Service,Auto Maintenance,126.68628153992088,37.445956222532175,대한민국,KOR,KOR,인천광역시,미추홀구,,주안동,,주승로,141-16,1205,2022-08-18 12:00:50,"산업,유통||자동차||수리||수리-일반",False
65564,65565,1852742,준자동차공업사,,semi-automotive company,Shops and Service,Auto Maintenance,126.64478026986784,37.45885825668226,대한민국,KOR,KOR,인천광역시,미추홀구,,숭의동,,인주대로,63,309-15,2022-08-24 14:41:06,"산업,유통||자동차||수리||수리-일반",False
65618,65619,918452,코리아모터스자동차공업사,코리아공업사,"Korea Motors Automobile Co., Ltd.",Shops and Service,Auto Maintenance,126.69660359999995,37.4657164999998,대한민국,KOR,KOR,인천광역시,남동구,,간석동,,석정로,548,608-3,2022-05-01 12:37:48,"산업,유통||자동차||수리||수리-일반",False
65702,65703,197694,진영자동차공업사,진영공업사,Jinyoung Automobile,Shops and Service,Auto Maintenance,126.68990248082288,37.477244435768185,대한민국,KOR,KOR,인천광역시,부평구,,십정동,,가좌로96번길,60,228,2022-08-18 12:00:50,"산업,유통||자동차||수리||수리-일반",False
65806,65807,1258313,성산자동차공업사,성산공업사,"Seongsan Automobile Co., Ltd.",Shops and Service,Auto Maintenance,126.6948170280779,37.44990333078928,대한민국,KOR,KOR,인천광역시,남동구,,구월동,,문화서로49번길,26,1121-1,2022-08-24 14:41:06,"산업,유통||자동차||수리||수리-일반",False
65812,65813,5692596,청우자동차공업사,청우공업사,"Cheongwoo Automobile Co., Ltd.",Shops and Service,Auto Maintenance,126.66828130249267,37.452795124490954,대한민국,KOR,KOR,인천광역시,미추홀구,,주안동,,인주대로,285,717-2,2022-08-16 16:52:33,"산업,유통||자동차||수리||수리-일반",False
65848,65849,1038561,카포스 킹자동차공업사,CARPOS 킹자동차공업사,"Carpos King Automobile Co., Ltd.",Shops and Service,Auto Maintenance,126.73048401560392,37.44986167209648,대한민국,KOR,KOR,인천광역시,남동구,,만수동,,하촌로,9-12,979-4,2022-08-24 14:41:06,"산업,유통||자동차||수리||카포스",False
65946,65947,6208412,카포스 청풍자동차공업사,CARPOS 청풍자동차공업사,"Carpos Cheongpung Automobile Co., Ltd.",Shops and Service,Auto Maintenance,126.73561734063595,37.44711954883448,대한민국,KOR,KOR,인천광역시,남동구,,만수동,,인주대로888번길,27,1082,2022-08-24 14:41:06,"산업,유통||자동차||수리||카포스",False
66182,66183,798305,정재자동차공업사,정재공업사,"Jeongjae Automobile Co., Ltd.",Shops and Service,Auto Maintenance,126.67203721145324,37.44471745324739,대한민국,KOR,KOR,인천광역시,미추홀구,,주안동,,학익소로37번길,31,866-16,2022-08-16 16:52:33,"산업,유통||자동차||수리||수리-일반",False
66308,66309,801228,동서자동차공업사,동서공업사,Dongseo Automobile Co.,Shops and Service,Auto Maintenance,126.71095798304088,37.45052041276738,대한민국,KOR,KOR,인천광역시,남동구,,구월동,,독점로,10,1209-8,2022-08-24 14:41:06,"산업,유통||자동차||수리||수리-일반",False
66703,66704,5663878,신세기광택,,New Century Gloss,Shops and Service,Auto Maintenance,126.66546695527788,37.479663718745385,대한민국,KOR,KOR,인천광역시,동구,,송림동,,방축로,191,297-37,2022-05-01 12:37:48,"산업,유통||자동차||수리||썬팅,광택||썬팅,광택-일반",False
67087,67088,1252300,우성자동차공업사,우성공업사,"Woosung Automobile Co., Ltd.",Shops and Service,Auto Maintenance,126.63082799986184,37.45174700021397,대한민국,KOR,KOR,인천광역시,미추홀구,,용현동,,매소홀로,35-1,627-635,2022-05-01 12:37:48,"산업,유통||자동차||수리||수리-일반",False
67372,67373,611042,삼흥자동차공업사,삼흥공업사,Samheung Automobile,Shops and Service,Auto Maintenance,126.71171896449792,37.38762242887947,대한민국,KOR,KOR,인천광역시,남동구,,고잔동,,논현고잔로,44,763-3,2022-08-24 14:41:06,"산업,유통||자동차||수리||수리-일반",False
68037,68038,20762479,도영자동차공업사,,Doyoung Automobile,Shops and Service,Auto Maintenance,126.71974330767593,37.45995478217368,대한민국,KOR,KOR,인천광역시,남동구,,구월동,,호구포로,869,1248-53,2022-05-18 1:21:38,"산업,유통||자동차||수리||수리-일반",False
68692,68693,2598745,주안자동차공업사,,"Juan Automobile Co., Ltd.",Shops and Service,Auto Maintenance,126.67325051104896,37.4604608062246,대한민국,KOR,KOR,인천광역시,미추홀구,,도화동,,경인로,294,425-1,2022-08-18 12:00:50,"산업,유통||자동차||수리||민간자동차검사소",False
69212,69213,5703603,밍광택,MIng광택,luster,Shops and Service,Auto Maintenance,126.71973041391789,37.45970921100834,대한민국,KOR,KOR,인천광역시,남동구,,구월동,,호구포로,865,1248-51,2022-08-12 13:15:03,"산업,유통||자동차||수리||썬팅,광택||썬팅,광택-일반",False
69310,69311,6212188,정광택,,Jung Gwang-taek,Shops and Service,Auto Maintenance,126.68766382338887,37.470633193335296,대한민국,KOR,KOR,인천광역시,남동구,,간석동,,방축로,414,616-85,2019-11-14 23:30:26,"산업,유통||자동차||수리||썬팅,광택||썬팅,광택-일반",False
69640,69641,847632,미진자동차공업사,미진공업사,"Mijin Automobile Co., Ltd.",Shops and Service,Auto Maintenance,126.67514897908988,37.42183956459756,대한민국,KOR,KOR,인천광역시,연수구,,연수동,,새말로,38,558-1,2022-08-12 13:15:03,"산업,유통||자동차||수리||수리-일반",False
69776,69777,5209090,극동공업사,,Kukdong Industrial Co.,Shops and Service,Auto Maintenance,126.75466569980392,37.474418799762574,대한민국,KOR,KOR,인천광역시,부평구,,구산동,,무네미로,418-1,74-4,2021-12-23 15:49:18,"산업,유통||자동차||수리||수리-일반",False
70082,70083,2615060,카포스 한일카서비스,CARPOS 한일카서비스,Carpos Hanil Car Service,Shops and Service,Auto Maintenance,126.74724498777795,37.48135898762889,대한민국,KOR,KOR,인천광역시,부평구,,일신동,,항동로,124,79-117,2022-05-01 12:37:48,"산업,유통||자동차||수리||카포스",False
70200,70201,19659631,자동차정비마을공업사,자동차정비마을 도화중부점,Automobile Maintenance Village,Shops and Service,Auto Maintenance,126.66649506008793,37.469726833249474,대한민국,KOR,KOR,인천광역시,미추홀구,,도화동,,장고개로,18,115-14,2022-08-18 12:00:50,"산업,유통||자동차||수리||수리-일반",False
70395,70396,27228283,우림자동차공업사,,"Woolim Automobile Co., Ltd.",Shops and Service,Auto Maintenance,126.71937040923588,37.517043715053205,대한민국,KOR,KOR,인천광역시,부평구,,청천동,,부평대로,283,425,2022-08-24 14:41:06,"산업,유통||자동차||수리||수리-일반",False
71355,71356,777866,신우자동차공업사,신우공업사,Shinwoo Automobile,Shops and Service,Auto Maintenance,126.65586549999992,37.50165349999981,대한민국,KOR,KOR,인천광역시,서구,,석남동,,건지로153번길,25-20,223-400,2022-05-01 12:37:48,"산업,유통||자동차||수리||수리-일반",False
71408,71409,1110985,창원자동차공업사,창원공업사,"Changwon Automobile Co., Ltd.",Shops and Service,Auto Maintenance,126.65316935968488,37.461637574488165,대한민국,KOR,KOR,인천광역시,미추홀구,,숭의동,,장천로,80-1,244-36,2022-08-24 14:41:06,"산업,유통||자동차||수리||수리-일반",False
71629,71630,4022212,성진자동차공업사,성진공업사,Sungjin Automobile,Shops and Service,Auto Maintenance,126.65311889999997,37.443116799999785,대한민국,KOR,KOR,인천광역시,미추홀구,,학익동,,노적산로,21,493-9,2022-08-16 16:52:33,"산업,유통||자동차||수리||민간자동차검사소",False
72428,72429,4331872,올레모터스종합정비센터,,Olle Motors Maintenance Center,Shops and Service,Auto Maintenance,126.6625715170459,37.48154907440259,대한민국,KOR,KOR,인천광역시,동구,,송림동,,방축로,153,296-30,2022-08-16 16:52:33,"산업,유통||자동차||수리||수리-일반",False
72536,72537,1252521,그린자동차공업사,그린공업사,Green Automobile Company,Shops and Service,Auto Maintenance,126.5547927194258,37.49942740873296,대한민국,KOR,KOR,인천광역시,중구,,중산동,,운중로,214,1005,2022-05-01 12:37:48,"산업,유통||자동차||수리||수리-일반",False
72767,72768,3110892,카포스동원자동차공업사,CARPOS동원자동차공업사,"Carpos Dongwon Automobile Co., Ltd.",Shops and Service,Auto Maintenance,126.6649936552489,37.47990411895737,대한민국,KOR,KOR,인천광역시,동구,,송림동,,방축로,191,297-37,2022-05-01 12:37:48,"산업,유통||자동차||수리||카포스",False
73017,73018,1042575,카포스 주연자동차공업사,CARPOS주연자동차공업사,Carpos Joo-yeon Automobile Industry Company,Shops and Service,Auto Maintenance,126.72523383006506,37.45501259506484,대한민국,KOR,KOR,인천광역시,남동구,,만수동,,구월말로,70,913,2022-08-24 14:41:06,"산업,유통||자동차||수리||카포스",False
73052,73053,5662027,대왕자동차공업사,대왕공업사,Daewang Automobile,Shops and Service,Auto Maintenance,126.63758820236237,37.61805777772694,대한민국,KOR,KOR,인천광역시,서구,,금곡동,,봉수대로,1646,511-3,2022-08-12 13:15:03,"산업,유통||자동차||수리||수리-일반",False
74053,74054,27153594,김도영정비,,Kim Do-young maintenance,Shops and Service,Auto Maintenance,126.72998862650888,37.49723450545389,대한민국,KOR,KOR,인천광역시,부평구,,부평동,,장제로,129-1,146-3,2022-08-08 10:29:42,"산업,유통||자동차||수리||수리-일반",False
74436,74437,27121953,이상한데 오토바이,,weird motorcycle,Shops and Service,Auto Maintenance,126.65844105818093,37.533526642677685,대한민국,KOR,KOR,인천광역시,서구,,청라동,,청라에메랄드로102번길,8-18,167-9,2022-08-16 16:52:33,"산업,유통||자동차||수리||오토바이수리",False
74900,74901,1014110,한샘자동차공업사,한샘공업사,Hanssem Automobile,Shops and Service,Auto Maintenance,126.6790869384549,37.46185087125647,대한민국,KOR,KOR,인천광역시,미추홀구,,주안동,,미추홀대로719번길,18,222-20,2019-11-14 23:28:46,"산업,유통||자동차||수리||수리-일반",False
75064,75065,2152349,남도자동차공업사,남도공업사,Namdo Automobile Co.,Shops and Service,Auto Maintenance,126.48448729999984,37.72616459999989,대한민국,KOR,KOR,인천광역시,강화군,,선원면,창리,중앙로,222,580-1,2022-08-24 14:41:06,"산업,유통||자동차||수리||1급정비",False
75643,75644,2598037,용인자동차공업사,용인공업사,Yongin Automobile,Shops and Service,Auto Maintenance,126.65335344859488,37.42430110358546,대한민국,KOR,KOR,인천광역시,연수구,,옥련동,,청량로194번길,16-1,374-10,2022-05-01 12:37:48,"산업,유통||자동차||수리||수리-일반",False
76029,76030,4345627,1급케이비자동차공업사,케이비자동차공업사,1st class KB Automobile Company,Shops and Service,Auto Maintenance,126.67021343403988,37.490673930630166,대한민국,KOR,KOR,인천광역시,서구,,가좌동,,가정로67번길,7,162-13,2022-08-24 14:41:06,"산업,유통||자동차||수리||1급정비",False
76118,76119,1264772,카포스 서인천자동차공업사,서인천공업사,"Seoincheon Automobile Co., Ltd.",Shops and Service,Auto Maintenance,126.67007035007694,37.507215603343504,대한민국,KOR,KOR,인천광역시,서구,,석남동,,길주로75번길,7,520-2,2022-08-16 16:52:33,"산업,유통||자동차||수리||카포스",False
76594,76595,5714794,대화자동차정비공업사,대화정비공업사,Daehwa Automobile Maintenance Company,Shops and Service,Auto Maintenance,126.71581449001292,37.388905433820845,대한민국,KOR,KOR,인천광역시,남동구,,고잔동,,앵고개로,703,355,2019-11-14 0:00:00,"산업,유통||자동차||수리||1급정비",False
76729,76730,27117751,럭키광택,,lucky gloss,Shops and Service,Auto Maintenance,126.66248493901188,37.48958379607818,대한민국,KOR,KOR,인천광역시,서구,,가좌동,,봉수대로,158,178-105,2022-08-16 16:52:33,"산업,유통||자동차||수리||썬팅,광택||썬팅,광택-일반",False
76834,76835,177678,만수현대자동차공업사,현대자동차공업사,Mansu Hyundai Motor Company,Shops and Service,Auto Maintenance,126.73216895598792,37.45363196457048,대한민국,KOR,KOR,인천광역시,남동구,,만수동,,하촌로59번길,16-7,953-3,2022-05-01 12:37:48,"산업,유통||자동차||수리||수리-일반",False
77944,77945,2623197,진주자동차공업사,진주공업사,Jinju Automobile Co.,Shops and Service,Auto Maintenance,126.64823960285788,37.45246457297717,대한민국,KOR,KOR,인천광역시,미추홀구,,용현동,,경인북길,1,203-37,2022-08-24 14:41:06,"산업,유통||자동차||수리||수리-일반",False
78022,78023,4327711,카포스 한조자동차공업사,CARPOS 한조자동차공업사,"Carpos Hanzo Automobile Co., Ltd.",Shops and Service,Auto Maintenance,126.74290462846795,37.519265946491686,대한민국,KOR,KOR,인천광역시,부평구,,삼산동,,영성서로,12-1,125-18,2022-08-16 16:52:33,"산업,유통||자동차||수리||카포스",False
78048,78049,459964,경인로자동차공업사,경인로공업사,"Gyeonginro Automobile Co., Ltd.",Shops and Service,Auto Maintenance,126.67823292003888,37.49906963516428,대한민국,KOR,KOR,인천광역시,서구,,석남동,,서달로,4,329,2022-08-24 14:41:06,"산업,유통||자동차||수리||수리-일반",False
78192,78193,730995,십정자동차공업사,십정공업사,"Sipjeong Automobile Co., Ltd.",Shops and Service,Auto Maintenance,126.6893772370729,37.47933390906709,대한민국,KOR,KOR,인천광역시,서구,,가좌동,,열우물로,175,480-6,2022-08-18 12:00:50,"산업,유통||자동차||수리||수리-일반",False
78614,78615,476390,서해안자동차공업사,서해안공업사,"Seohaean Automobile Co., Ltd.",Shops and Service,Auto Maintenance,126.6952048491179,37.43970831368396,대한민국,KOR,KOR,인천광역시,미추홀구,,관교동,,경원대로628번길,11,507-7,2022-08-24 14:41:06,"산업,유통||자동차||수리||수리-일반",False
78646,78647,1272654,YES카 정비본부,예스카정비,YES Car Maintenance Headquarters,Shops and Service,Auto Maintenance,126.75799299999998,37.55925099999983,대한민국,KOR,KOR,인천광역시,계양구,,동양동,,,,640-5,2022-08-18 12:00:50,"산업,유통||자동차||수리||수리-일반",False
78702,78703,4323538,민성광택코팅전문점,민성광택코팅전문점,Minseong Glossy Coating Store,Shops and Service,Auto Maintenance,126.64446199999996,37.46434629999978,대한민국,KOR,KOR,인천광역시,미추홀구,,숭의동,,석정로,54-1,161-10,2022-08-08 10:29:42,"산업,유통||자동차||수리||썬팅,광택||썬팅,광택-일반",False
78704,78705,27162980,마일레오토서비스 인천 간석점 동신카센터,,Mileoto Service Incheon Ganseok Branch Dongshin Car Center,Shops and Service,Auto Maintenance,126.70290469999988,37.465686999999775,대한민국,KOR,KOR,인천광역시,남동구,,간석동,,예술로352번길,1,267-6,2022-08-08 10:29:42,"산업,유통||자동차||수리||마일레오토서비스",False
79228,79229,1263857,앤트비자동차공업사,앤트비공업사,"Antby Automobile Co., Ltd.",Shops and Service,Auto Maintenance,126.72456510190892,37.45334378138848,대한민국,KOR,KOR,인천광역시,남동구,,구월동,,구월말로,49-1,1259-16,2022-08-24 14:41:06,"산업,유통||자동차||수리||수리-일반",False
79323,79324,4343814,알파자동차공업사,알파공업사,"Alpha Automobile Co., Ltd.",Shops and Service,Auto Maintenance,126.64891402746387,37.599309003204006,대한민국,KOR,KOR,인천광역시,서구,,왕길동,,단봉로,18,299,2022-05-01 12:37:48,"산업,유통||자동차||수리||수리-일반",False
79668,79669,27184794,차오름 모터스 1급정비,,Chaoreum Motors Class 1 Maintenance,Shops and Service,Auto Maintenance,126.7023169454258,37.521688035275886,대한민국,KOR,KOR,인천광역시,부평구,,청천동,,평천로93번길,13,384-2,2022-08-16 16:52:33,"산업,유통||자동차||수리||1급정비",False
79854,79855,656811,현자동차공업사,현공업사,"Hyeon Automobile Co., Ltd.",Shops and Service,Auto Maintenance,126.6374481999999,37.4550271999998,대한민국,KOR,KOR,인천광역시,미추홀구,,용현동,,낙섬서로,68,623-2,2022-08-12 13:15:03,"산업,유통||자동차||수리||수리-일반",False
79949,79950,1873065,스피드카공업사,스피드공업사,speed car company,Shops and Service,Auto Maintenance,126.67012410140588,37.54688207381422,대한민국,KOR,KOR,인천광역시,서구,,심곡동,,대평로,61,322-18,2022-05-01 12:37:48,"산업,유통||자동차||수리||수리-일반",False
79967,79968,2147414,성심자동차공업사,성심공업사,"Sungshim Automobile Co., Ltd.",Shops and Service,Auto Maintenance,126.69894277602496,37.46158297098279,대한민국,KOR,KOR,인천광역시,남동구,,간석동,,경인로,540,556-1,2022-08-24 14:41:06,"산업,유통||자동차||수리||수리-일반",False
80151,80152,4455,한국타이어현대카공업사,현대카공업사,Hankook Tire Hyundai Motor Company,Shops and Service,Auto Maintenance,126.73538633161094,37.547454829192816,대한민국,KOR,KOR,인천광역시,계양구,,임학동,,계양산로,176,29-6,2022-05-01 12:37:48,"산업,유통||자동차||수리||수리-일반",False
80210,80211,4360992,원종합자동차공업사,원자동차공업사,"Won General Automobile Co., Ltd.",Shops and Service,Auto Maintenance,126.66972719999994,37.546533599999805,대한민국,KOR,KOR,인천광역시,서구,,심곡동,,염곡로,692,322-11,2022-08-24 14:41:06,"산업,유통||자동차||수리||수리-일반",False
80506,80507,3458874,동부자동차공업사,금강공업사,"Dongbu Automobile Co., Ltd.",Shops and Service,Auto Maintenance,126.68605833571289,37.47176124737718,대한민국,KOR,KOR,인천광역시,남동구,,간석동,,방축로,394,616-87,2022-08-12 13:15:03,"산업,유통||자동차||수리||수리-일반",False
80700,80701,27228260,아주자동차공업사,,Ajou Automobile Co.,Shops and Service,Auto Maintenance,126.68620877186287,37.47156763587488,대한민국,KOR,KOR,인천광역시,남동구,,간석동,,방축로,396,616-88,2022-08-24 14:41:06,"산업,유통||자동차||수리||민간자동차검사소",False
80933,80934,27219647,10년타기정비센터 효성점,,10-Year Maintenance Center Hyosung Branch,Shops and Service,Auto Maintenance,126.71211680715288,37.525579940146415,대한민국,KOR,KOR,인천광역시,계양구,,효성동,,아나지로,183,273-63,2022-08-12 13:15:03,"산업,유통||자동차||수리||10년타기정비센터",False
81999,82000,968891,효성자동차공업사,십년타기정비센터효성점,Hyosung Motor Company,Shops and Service,Auto Maintenance,126.71208780637689,37.52556764076009,대한민국,KOR,KOR,인천광역시,계양구,,효성동,,아나지로,183,273-63,2022-05-01 12:37:48,"산업,유통||자동차||수리||수리-일반",False
82213,82214,5667748,홍광택전문점,,Hong Kwang Taek Specialty Store,Shops and Service,Auto Maintenance,126.66175858231088,37.490258462488185,대한민국,KOR,KOR,인천광역시,서구,,가좌동,,봉수대로162번길,3,178-113,2020-01-14 23:22:24,"산업,유통||자동차||수리||썬팅,광택||썬팅,광택-일반",False
82543,82544,268151,성연자동차공업사,성연공업사,"Sungyeon Automobile Co., Ltd.",Shops and Service,Auto Maintenance,126.65283205508987,37.47841871186427,대한민국,KOR,KOR,인천광역시,동구,,송림동,,봉수대로,4,4-237,2022-08-24 14:41:06,"산업,유통||자동차||수리||1급정비",False
82873,82874,506541,풍창자동차정비공업사,풍창자동차공업사,Poongchang Automobile Maintenance Company,Shops and Service,Auto Maintenance,126.72808351956192,37.4877442096658,대한민국,KOR,KOR,인천광역시,부평구,,부평동,,경인로,975,610-5,2022-08-24 14:41:06,"산업,유통||자동차||수리||수리-일반",False
82881,82882,1006712,아트카광택,,art car gloss,Shops and Service,Auto Maintenance,126.68790606708887,37.47212548864087,대한민국,KOR,KOR,인천광역시,부평구,,십정동,,가재울로,174,558-7,2021-12-23 15:49:18,"산업,유통||자동차||수리||썬팅,광택||썬팅,광택-일반",False
82943,82944,3645358,마일레오토서비스 인천서구점 좋은차정비,마일레서비스인천서구점,Mile Auto Service  Incheon Seogu Branch  Good Car Maintenance,Shops and Service,Auto Maintenance,126.67290296342088,37.55759597121581,대한민국,KOR,KOR,인천광역시,서구,,검암동,,승학로,401-1,676-8,2022-08-16 16:52:33,"산업,유통||자동차||수리||마일레오토서비스",False
82967,82968,4359416,신현대자동차공업사,신현대공업사,New Hyundai Motor Company,Shops and Service,Auto Maintenance,126.67782649218292,37.43763819605847,대한민국,KOR,KOR,인천광역시,미추홀구,,문학동,,소성로,275,352-11,2022-05-01 12:37:48,"산업,유통||자동차||수리||수리-일반",False
83871,83872,894742,카포스 태일자동차공업사,CARPOS 태일자동차공업사,"Carpos Taeil Automobile Co., Ltd.",Shops and Service,Auto Maintenance,126.72214643504688,37.53573653243701,대한민국,KOR,KOR,인천광역시,계양구,,작전동,,계양대로,133,852-67,2021-12-23 15:49:18,"산업,유통||자동차||수리||카포스",False
83903,83904,5686490,스피드광택,,speed gloss,Shops and Service,Auto Maintenance,126.66209093273584,37.466228707965215,대한민국,KOR,KOR,인천광역시,미추홀구,,도화동,,경인로,173,640-7,2022-08-12 13:15:03,"산업,유통||자동차||수리||썬팅,광택||썬팅,광택-일반",False
84067,84068,111827,엄지자동차공업사,엄지공업사,"Umji Automobile Co., Ltd.",Shops and Service,Auto Maintenance,126.7154168165199,37.39604090344605,대한민국,KOR,KOR,인천광역시,남동구,,고잔동,,고잔로,1,160-1,2022-08-12 13:15:03,"산업,유통||자동차||수리||수리-일반",False
84144,84145,585248,화이트모터스 수입차정비,,White Motors Imported car maintenance,Shops and Service,Auto Maintenance,126.71474239999996,37.389212799999775,대한민국,KOR,KOR,인천광역시,남동구,,고잔동,,앵고개로697번길,17-13,327,2022-05-01 12:37:48,"산업,유통||자동차||수리||수리-일반",False
84234,84235,283552,제일자동차공업사,제일공업사,Jeil Automobile,Shops and Service,Auto Maintenance,126.60576250019284,37.45746790043866,대한민국,KOR,KOR,인천광역시,중구,,항동7가,,,,49-28,2022-05-01 12:37:48,"산업,유통||자동차||수리||수리-일반",False
84692,84693,2154187,대산자동차공업사,대산공업사,Daesan Motor Company,Shops and Service,Auto Maintenance,126.63612119991583,37.44170719949784,대한민국,KOR,KOR,인천광역시,미추홀구,,학익동,,아암대로227번길,70-24,587-147,2022-08-16 16:52:33,"산업,유통||자동차||수리||수리-일반",False
84756,84757,4346254,대림오토바이 인천점,대림모터사이클 인천점,Daelim Motorcycle Incheon Branch,Shops and Service,Auto Maintenance,126.72913791958992,37.52931300955879,대한민국,KOR,KOR,인천광역시,계양구,,작전동,,주부토로,392,200,2022-06-29 11:25:35,"산업,유통||자동차||수리||오토바이수리",False
85281,85282,595039,1급 아주공업사,아주자동차공업사,1st grade Aju company,Shops and Service,Auto Maintenance,126.70407840055088,37.52577410089619,대한민국,KOR,KOR,인천광역시,계양구,,효성동,,아나지로,111,515-1,2022-05-01 12:37:48,"산업,유통||자동차||수리||1급정비",False
85824,85825,1255756,홍일자동차공업사,홍일공업사,"Hongil Automobile Co., Ltd.",Shops and Service,Auto Maintenance,126.67392370365816,37.5948852003195,대한민국,KOR,KOR,인천광역시,서구,,마전동,,완정로10번길,6-9,1009-5,2022-05-01 12:37:48,"산업,유통||자동차||수리||수리-일반",False
85833,85834,135009,그린카공업사,,Green car company,Shops and Service,Auto Maintenance,126.46820170031864,37.75829030031313,대한민국,KOR,KOR,인천광역시,강화군,,송해면,하도리,강화대로,644,376-1,2022-05-01 12:37:48,"산업,유통||자동차||수리||수리-일반",False
85919,85920,27069000,바름정비 부개동점,,Barum Maintenance Bugae-dong,Shops and Service,Auto Maintenance,126.73624393797392,37.5004866550465,대한민국,KOR,KOR,인천광역시,부평구,,부개동,,충선로,126,63-23,2022-08-12 13:15:03,"산업,유통||자동차||수리||수리-일반",False
87151,87152,829814,붕붕자동차공업사,붕붕공업사,"Bungbung Automobile Co., Ltd.",Shops and Service,Auto Maintenance,126.68133404723788,37.44722688939857,대한민국,KOR,KOR,인천광역시,미추홀구,,주안동,,인하로298번길,15,1257-8,2022-08-24 14:41:06,"산업,유통||자동차||수리||수리-일반",False
87312,87313,625125,현대자동차공업사,현대공업사,Hyundai Motor Company,Shops and Service,Auto Maintenance,126.67783588081689,37.41942793144915,대한민국,KOR,KOR,인천광역시,연수구,,연수동,,새말로,74,568-2,2021-12-23 15:49:18,"산업,유통||자동차||수리||수리-일반",False
87376,87377,4347663,신화자동차정비,신화정비,Shinhwa Automobile Maintenance,Shops and Service,Auto Maintenance,126.66242936682188,37.49855297018381,대한민국,KOR,KOR,인천광역시,서구,,가좌동,,건지로,186,173-354,2021-12-23 15:49:18,"산업,유통||자동차||수리||수리-일반",False
87973,87974,4733273,대경자동차정비공업사,,"Daekyung Automobile Maintenance Co., Ltd.",Shops and Service,Auto Maintenance,126.65617410589888,37.52131311231281,대한민국,KOR,KOR,인천광역시,서구,,원창동,,봉수대로501번길,58-12,21-17,2022-08-16 16:52:33,"산업,유통||자동차||수리||수리-일반",False
88177,88178,618809,오토모빌정비센터,,Automobile Maintenance Center,Shops and Service,Auto Maintenance,126.6703828827989,37.50474154096088,대한민국,KOR,KOR,인천광역시,서구,,석남동,,길주로76번길,17,535-32,2022-08-24 14:41:06,"산업,유통||자동차||수리||수리-일반",False
88339,88340,793876,제물포자동차공업사,제물포공업사,"Jemulpo Automobile Co., Ltd.",Shops and Service,Auto Maintenance,126.6629406979209,37.466361763319966,대한민국,KOR,KOR,인천광역시,미추홀구,,도화동,,경인로,187,635-8,2022-08-24 14:41:06,"산업,유통||자동차||수리||수리-일반",False
88359,88360,1252451,대원자동차공업사,대원공업사,"Daewon Automobile Co., Ltd.",Shops and Service,Auto Maintenance,124.7075646274865,37.84007636277575,대한민국,KOR,KOR,인천광역시,옹진군,,대청면,대청리,대청북로,61,469-12,2021-12-23 15:49:18,"산업,유통||자동차||수리||수리-일반",False
88457,88458,1106576,대동자동차정비,대동정비,Daedong Automobile Maintenance,Shops and Service,Auto Maintenance,126.6737753209714,37.41861228270599,대한민국,KOR,KOR,인천광역시,연수구,,청학동,,용담로,60-1,469-5,2022-08-16 16:52:33,"산업,유통||자동차||수리||수리-일반",False
88546,88547,4335284,털보자동차공업사,털보공업사,"Tulbo Automobile Co., Ltd.",Shops and Service,Auto Maintenance,126.61484158402384,37.59253119219663,대한민국,KOR,KOR,인천광역시,서구,,오류동,,검단천로,359,1640-11,2022-05-01 12:37:48,"산업,유통||자동차||수리||수리-일반",False
89159,89160,4321645,유성자동차공업사,유성공업사,"Yuseong Automobile Co., Ltd.",Shops and Service,Auto Maintenance,126.6744907223489,37.44888463001367,대한민국,KOR,KOR,인천광역시,미추홀구,,주안동,,인하로235번길,10,1432,2022-08-24 14:41:06,"산업,유통||자동차||수리||수리-일반",False
89665,89666,1253188,대진자동차정비,대진정비,Daejin Auto Maintenance,Shops and Service,Auto Maintenance,124.68201861327148,37.966347212980445,대한민국,KOR,KOR,인천광역시,옹진군,,백령면,북포리,백령로,643,203,2021-12-23 15:49:18,"산업,유통||자동차||수리||수리-일반",False
89888,89889,5724171,서창자동차정비공업사,CARPOS서창자동차정비공업사,Seochang Automobile Maintenance Company,Shops and Service,Auto Maintenance,126.75125775770395,37.42439449663068,대한민국,KOR,KOR,인천광역시,남동구,,서창동,,서창남순환로10번길,16-10,665,2022-08-16 16:52:33,"산업,유통||자동차||수리||수리-일반",False
89981,89982,1093997,1급우일자동차정비,우일자동차1급정비,1st class car maintenance,Shops and Service,Auto Maintenance,126.6580926767759,37.47911872079368,대한민국,KOR,KOR,인천광역시,미추홀구,,도화동,,염전로,138,939-1,2022-08-24 14:41:06,"산업,유통||자동차||수리||1급정비",False
90096,90097,1872472,쌍용자동차 부평정비사업소,쌍용 부평정비사업소,Ssangyong Motor Bupyeong Maintenance Office,Shops and Service,Auto Maintenance,126.731101462343,37.52084885998542,대한민국,KOR,KOR,인천광역시,부평구,,갈산동,,장제로381번길,12-15,14-3,2022-08-18 12:00:50,"산업,유통||자동차||수리||쌍용자동차정비사업소||쌍용자동차정비사업소-일반",False
90298,90299,5691165,카포스 수인자동차공업사,CARPOS수인자동차공업사,"Carpos Suin Automobile Co., Ltd.",Shops and Service,Auto Maintenance,126.72066065848136,37.44926415944935,대한민국,KOR,KOR,인천광역시,남동구,,구월동,,인주대로,751,1285-11,2022-08-24 14:41:06,"산업,유통||자동차||수리||카포스",False
90549,90550,4347072,현대코팅광택,,Hyundai Coating Gloss,Shops and Service,Auto Maintenance,126.67895158784091,37.486382725467166,대한민국,KOR,KOR,인천광역시,서구,,가좌동,,장고개로,237,283-13,2022-08-24 14:41:06,"산업,유통||자동차||수리||썬팅,광택||썬팅,광택-일반",False
91245,91246,1253031,논현모터스정비센터,논현모터스정비센타,Nonhyeon Motors Maintenance Center,Shops and Service,Auto Maintenance,126.72459548225493,37.40333075337564,대한민국,KOR,KOR,인천광역시,남동구,,논현동,,논고개로136번길,10,614-2,2022-05-01 12:37:48,"산업,유통||자동차||수리||수리-일반",False
91289,91290,20027910,한독자동차공업사,한독공업사,Handok Automobile Co.,Shops and Service,Auto Maintenance,126.6526693925839,37.46138486994577,대한민국,KOR,KOR,인천광역시,미추홀구,,숭의동,,장천로,76,244-23,2022-08-24 14:41:06,"산업,유통||자동차||수리||수리-일반",False
91299,91300,904190,정일자동차공업사,정일공업사,"Jungil Automobile Co., Ltd.",Shops and Service,Auto Maintenance,126.64885874930587,37.50596814875769,대한민국,KOR,KOR,인천광역시,서구,,석남동,,중봉대로,298,650-59,2022-08-24 14:41:06,"산업,유통||자동차||수리||수리-일반",False
91631,91632,1256445,카포스 한양카센타,CARPOS 한양카센타,Carpos Hanyang Car Center,Shops and Service,Auto Maintenance,126.64975049999885,37.469900499995674,대한민국,KOR,KOR,인천광역시,동구,,송림동,,동산로,17,94-5,2022-08-24 14:41:06,"산업,유통||자동차||수리||카포스",False
91674,91675,3122166,영종기아현대자동차공업사,영종기아현대공업사,Youngjong Kia Hyundai Motor Company,Shops and Service,Auto Maintenance,126.54818516997476,37.49482026771006,대한민국,KOR,KOR,인천광역시,중구,,중산동,,운중로,134,1457-1,2022-08-24 14:41:06,"산업,유통||자동차||수리||수리-일반",False
91966,91967,656261,화이트자동차정비공업사,화이트정비공업사,White Auto Repair Company,Shops and Service,Auto Maintenance,126.72387543525596,37.535148129999605,대한민국,KOR,KOR,인천광역시,계양구,,작전동,,계산로108번길,26,855-22,2022-08-24 14:41:06,"산업,유통||자동차||수리||수리-일반",False
92693,92694,1114332,그린자동차공업사,그린공업사,Green Automobile Company,Shops and Service,Auto Maintenance,126.66890199999987,37.474644999999775,대한민국,KOR,KOR,인천광역시,미추홀구,,도화동,,장고개로,75,53-27,2022-08-24 14:41:06,"산업,유통||자동차||수리||수리-일반",False
92783,92784,235800,카포스 돌고래카공업사,CARPOS 돌고래카공업사,"Carpos Dolphin Car Industry Co., Ltd.",Shops and Service,Auto Maintenance,126.72085717474889,37.468127859865966,대한민국,KOR,KOR,인천광역시,남동구,,간석동,,만월로,22,1-485,2022-05-01 12:37:48,"산업,유통||자동차||수리||카포스",False
93377,93378,453375,웰컴자동차정비,웰컴정비,Welcome car maintenance,Shops and Service,Auto Maintenance,126.72392012836592,37.45886772104127,대한민국,KOR,KOR,인천광역시,남동구,,만수동,,구월말로109번길,27,900,2021-12-23 15:49:18,"산업,유통||자동차||수리||수리-일반",False
93418,93419,199331,그린오토자동차공업사,그린오토공업사,"Green Auto Automobile Co., Ltd.",Shops and Service,Auto Maintenance,126.66664582691088,37.51314760564551,대한민국,KOR,KOR,인천광역시,서구,,석남동,,율도로42번길,6,179-58,2022-08-24 14:41:06,"산업,유통||자동차||수리||수리-일반",False
93432,93433,3844513,랜드자동차공업사,랜드공업사,"Land Automobile Co., Ltd.",Shops and Service,Auto Maintenance,126.66778861505192,37.49765183190988,대한민국,KOR,KOR,인천광역시,서구,,가좌동,,염곡로,148,119-1,2022-08-24 14:41:06,"산업,유통||자동차||수리||수리-일반",False
93689,93690,1268378,대우자동차공업사,대우공업사,Daewoo Motor Company,Shops and Service,Auto Maintenance,126.72958237924692,37.53943623939789,대한민국,KOR,KOR,인천광역시,계양구,,계산동,,주부토로496번길,18,334-32,2022-05-01 12:37:48,"산업,유통||자동차||수리||수리-일반",False
93694,93695,5659471,우리광택,,Woori Gloss,Shops and Service,Auto Maintenance,126.68201709995787,37.47008980062918,대한민국,KOR,KOR,인천광역시,미추홀구,,주안동,,염전로,377,1412-58,2022-08-24 14:41:06,"산업,유통||자동차||수리||썬팅,광택||썬팅,광택-일반",False
93865,93866,3138367,두리자동차공업사,두리공업사,"Doori Automobile Co., Ltd.",Shops and Service,Auto Maintenance,126.66450353627188,37.48067676394828,대한민국,KOR,KOR,인천광역시,동구,,송림동,,방축로177번길,11,297-27,2022-08-24 14:41:06,"산업,유통||자동차||수리||수리-일반",False
93951,93952,1271172,전진자동차전문정비,전진자동차정비,Jeonjin Automobile Maintenance,Shops and Service,Auto Maintenance,126.75367220221194,37.525881126120105,대한민국,KOR,KOR,인천광역시,계양구,,서운동,,아나지로,549,142-21,2022-08-18 12:00:50,"산업,유통||자동차||수리||수리-일반",False
93997,93998,3104752,청농모터스카공업사,청농모터스공업사,"Cheongnong Motor Car Industry Co., Ltd.",Shops and Service,Auto Maintenance,126.68976367993488,37.5200879377604,대한민국,KOR,KOR,인천광역시,부평구,,청천동,,청농로,35,59-1,2022-08-16 16:52:33,"산업,유통||자동차||수리||수리-일반",False
95365,95366,311523,진달래자동차공업사,진달래공업사,"Jindalae Automobile Co., Ltd.",Shops and Service,Auto Maintenance,126.68189999999996,37.48699099999981,대한민국,KOR,KOR,인천광역시,서구,,가좌동,,열우물로282번길,12,324-2,2022-08-16 16:52:33,"산업,유통||자동차||수리||수리-일반",False
95383,95384,1038087,카포스 건효자동차공업사,CARPOS건효자동차공업사,"Carpos Geonhyo Automobile Co., Ltd.",Shops and Service,Auto Maintenance,126.70007262650722,37.50921999525782,대한민국,KOR,KOR,인천광역시,부평구,,산곡동,,길주로341번길,2,13-116,2022-05-01 12:37:48,"산업,유통||자동차||수리||카포스",False
95569,95570,4330739,한성광택,,Hansung Gloss,Shops and Service,Auto Maintenance,126.66379596938188,37.46588022111956,대한민국,KOR,KOR,인천광역시,미추홀구,,도화동,,경인로,187,635-8,2019-11-14 23:06:52,"산업,유통||자동차||수리||썬팅,광택||썬팅,광택-일반",False
95820,95821,425018,간석현대자동차공업사,간석현대공업사,Ganseok Hyundai Motor Company,Shops and Service,Auto Maintenance,126.68697082771592,37.471152332335194,대한민국,KOR,KOR,인천광역시,남동구,,간석동,,방축로,404,616-91,2022-08-16 16:52:33,"산업,유통||자동차||수리||수리-일반",False
96188,96189,5661432,국제광택,,international gloss,Shops and Service,Auto Maintenance,126.65831699999994,37.4902482999998,대한민국,KOR,KOR,인천광역시,서구,,가좌동,,봉수대로161번길,22,178-45,2021-12-23 15:49:18,"산업,유통||자동차||수리||썬팅,광택||썬팅,광택-일반",False
97148,97149,460288,카포스 제일자동차공업사,CARPOS제일자동차공업사,"Carpos Jeil Automobile Co., Ltd.",Shops and Service,Auto Maintenance,126.73004909292393,37.49879854056937,대한민국,KOR,KOR,인천광역시,부평구,,부평동,,장제로,151,378-2,2022-08-24 14:41:06,"산업,유통||자동차||수리||카포스",False
97192,97193,27099519,자동차검사정비카123텍,,Auto Inspection Maintenance Car 123 Tech,Shops and Service,Auto Maintenance,126.6924238063459,37.40771401236714,대한민국,KOR,KOR,인천광역시,남동구,,고잔동,,남동서로,202,629,2022-08-16 16:52:33,"산업,유통||자동차||수리||수리-일반",False
97613,97614,27228275,오성자동차공업사,,Ohsung Motor Company,Shops and Service,Auto Maintenance,126.7130762084289,37.388933839354245,대한민국,KOR,KOR,인천광역시,남동구,,고잔동,,앵고개로,678,298,2022-08-24 14:41:06,"산업,유통||자동차||수리||수리-일반",False
98789,98790,601679,행복자동차공업사,행복공업사,"Happy Automobile Co., Ltd.",Shops and Service,Auto Maintenance,126.71432497563988,37.44988796996167,대한민국,KOR,KOR,인천광역시,남동구,,구월동,,용천로4번길,1,1222-9,2022-05-01 12:37:48,"산업,유통||자동차||수리||수리-일반",False
98795,98796,1269370,카포스태양카센타공업사,CARPOS태양카센타공업사,"Capos Sun Car Center Industry Co., Ltd.",Shops and Service,Auto Maintenance,126.70783049201188,37.525163002271896,대한민국,KOR,KOR,인천광역시,계양구,,효성동,,아나지로,146,404-1,2022-08-24 14:41:06,"산업,유통||자동차||수리||카포스",False
98831,98832,3123360,1급현대자동차공업사,현대자동차1급공업사,1st class Hyundai Motor Company,Shops and Service,Auto Maintenance,126.6202918977948,37.43738911272735,대한민국,KOR,KOR,인천광역시,중구,,신흥동3가,,축항대로290번길,134,60-16,2022-08-16 16:52:33,"산업,유통||자동차||수리||수리-일반",False
99020,99021,3122751,내트럭하우스 인천사업소 종합정비센터,내트럭하우스인천사업소정비센터,My Truck House Incheon Office Comprehensive Maintenance Center,Shops and Service,Auto Maintenance,126.62417492353188,37.4308542424559,대한민국,KOR,KOR,인천광역시,중구,,신흥동3가,,축항대로296번길,183,70,2022-05-01 12:37:48,"산업,유통||자동차||수리||수리-일반",False
99276,99277,601750,1급신일자동차종합정비검사소,신일자동차종합정비검사소,Class 1 Shinil Automobile Maintenance Inspection Center,Shops and Service,Auto Maintenance,126.70554225780685,37.5206308305823,대한민국,KOR,KOR,인천광역시,부평구,,청천동,,평천로,118,9-12,2019-11-14 23:28:51,"산업,유통||자동차||수리||1급정비",False
99625,99626,433170,가야자동차공업사,가야공업사,"Gaya Automobile Co., Ltd.",Shops and Service,Auto Maintenance,126.50261689999988,37.7410496999999,대한민국,KOR,KOR,인천광역시,강화군,,강화읍,갑곳리,강화대로248번길,6,418,2022-08-24 14:41:06,"산업,유통||자동차||수리||수리-일반",False
99637,99638,1271611,애니카랜드1급부평자동차정비공업사,애니카1급부평자동차정비공업사,Anycar Land Class 1 Bupyeong Automobile Maintenance Company,Shops and Service,Auto Maintenance,126.70965866188688,37.51606958266439,대한민국,KOR,KOR,인천광역시,부평구,,청천동,,안남로369번길,2,175-48,2022-05-01 12:37:48,"산업,유통||자동차||수리||1급정비",False
99681,99682,294659,21세기공업사,21C공업사,21st century industrial history,Shops and Service,Auto Maintenance,126.73629416309495,37.529944734218304,대한민국,KOR,KOR,인천광역시,계양구,,작전동,,까치말로49번길,1,922-10,2022-05-01 12:37:48,"산업,유통||자동차||수리||수리-일반",False
100026,100027,27044132,광일자동차정비공업사,,"Gwangil Automobile Maintenance Co., Ltd.",Shops and Service,Auto Maintenance,126.65718469000178,37.59293819447996,대한민국,KOR,KOR,인천광역시,서구,,왕길동,,원당대로507번길,3,191-1,2022-08-18 12:00:50,"산업,유통||자동차||수리||수리-일반",False
100818,100819,1264068,현대덴트플러스카정비,,Hyundai Dent Plus Car Maintenance,Shops and Service,Auto Maintenance,126.70286306603188,37.46074864134757,대한민국,KOR,KOR,인천광역시,남동구,,간석동,,석산로101번길,11,455-5,2022-05-01 12:37:48,"산업,유통||자동차||수리||수리-일반",False
101007,101008,2612135,유신광택,,Yushin Gloss,Shops and Service,Auto Maintenance,126.6806734753529,37.470054489254686,대한민국,KOR,KOR,인천광역시,미추홀구,,주안동,,염전로,366,16-3,2022-08-08 10:29:42,"산업,유통||자동차||수리||썬팅,광택||썬팅,광택-일반",False
101232,101233,611985,진선자동차공업사,진선공업사,"Jinsun Automobile Co., Ltd.",Shops and Service,Auto Maintenance,126.71316988419493,37.49072706556888,대한민국,KOR,KOR,인천광역시,부평구,,부평동,,경원대로,1300,270-7,2022-08-24 14:41:06,"산업,유통||자동차||수리||수리-일반",False
102129,102130,4328198,국민자동차공업사,국민공업사,Kookmin Automobile Corporation,Shops and Service,Auto Maintenance,126.69882905558988,37.45344472744687,대한민국,KOR,KOR,인천광역시,남동구,,구월동,,구월남로,86,1092-2,2022-08-24 14:41:06,"산업,유통||자동차||수리||수리-일반",False
102410,102411,1051759,막내카공업사,,youngest car manufacturer,Shops and Service,Auto Maintenance,126.72735867447692,37.5285385786612,대한민국,KOR,KOR,인천광역시,계양구,,작전동,,봉오대로706번길,16,870-54,2019-11-14 23:28:29,"산업,유통||자동차||수리||수리-일반",False
102485,102486,4349876,사랑자동차공업사,사랑공업사,"Sarang Automobile Co., Ltd.",Shops and Service,Auto Maintenance,126.67891879999992,37.44197569999977,대한민국,KOR,KOR,인천광역시,미추홀구,,주안동,,미추홀대로,498-7,1297-10,2022-05-01 12:37:48,"산업,유통||자동차||수리||수리-일반",False
102554,102555,693656,카맨샵 평화자동차공업사,평화자동차공업사,"Car Man Shop Pyeonghwa Automobile Co., Ltd.",Shops and Service,Auto Maintenance,126.71456483041992,37.45943076703167,대한민국,KOR,KOR,인천광역시,남동구,,구월동,,용천로,111,69-72,2022-08-18 12:00:50,"산업,유통||자동차||수리||카맨샵",False
102880,102881,5706644,이레카정비센터,,Ireka Maintenance Center,Shops and Service,Auto Maintenance,126.68141588012088,37.41550976877346,대한민국,KOR,KOR,인천광역시,연수구,,연수동,,샘말로,105-4,615-4,2022-08-24 14:41:06,"산업,유통||자동차||수리||수리-일반",False
103040,103041,1257535,카포스원광자동차공업사,CARPOS원광자동차공업사,"Carpos Wonkwang Automobile Co., Ltd.",Shops and Service,Auto Maintenance,126.65047854675586,37.48327187881928,대한민국,KOR,KOR,인천광역시,동구,,송림동,,염전로,58,8-392,2020-01-14 23:41:16,"산업,유통||자동차||수리||카포스",False
103595,103596,4350980,카포스 블루자동차공업사,CARPOS 블루자동차공업사,"Carpos Blue Automobile Co., Ltd.",Shops and Service,Auto Maintenance,126.73452936825495,37.54744834825869,대한민국,KOR,KOR,인천광역시,계양구,,임학동,,계양산로,170,34-5,2022-08-24 14:41:06,"산업,유통||자동차||수리||카포스",False
103749,103750,1007064,르노코리아자동차서비스코너 용현점,르노삼성지정정비코너통일자동차,Renault Korea Automobile Designated Maintenance Corner  Yonghyeon Branch,Shops and Service,Auto Maintenance,126.66713321970688,37.44943983305567,대한민국,KOR,KOR,인천광역시,미추홀구,,용현동,,한나루로477번길,3,34-1,2022-08-12 13:15:03,"산업,유통||자동차||수리||르노삼성자동차서비스",False
103774,103775,1267649,영동자동차공업사,영동공업사,"Yeongdong Automobile Co., Ltd.",Shops and Service,Auto Maintenance,126.73341704931292,37.51579240724501,대한민국,KOR,KOR,인천광역시,부평구,,삼산동,,장제로340번길,22,436-4,2022-08-24 14:41:06,"산업,유통||자동차||수리||수리-일반",False
103894,103895,27043950,출장정비빵구,,Business trip maintenance bread,Shops and Service,Auto Maintenance,126.67133972111388,37.50728829987268,대한민국,KOR,KOR,인천광역시,서구,,석남동,,칠천왕로,9,517-3,2022-08-19 9:48:28,"산업,유통||자동차||수리||출장정비",False
104047,104048,1079097,신태양자동차공업사,신태양공업사,"Shin Taeyang Automobile Co., Ltd.",Shops and Service,Auto Maintenance,126.63950124926087,37.45506336819596,대한민국,KOR,KOR,인천광역시,미추홀구,,용현동,,용오로,40-1,623-131,2022-08-18 12:00:50,"산업,유통||자동차||수리||수리-일반",False
104634,104635,2603057,카포스 뉴카센타,,Carpos New Car Center,Shops and Service,Auto Maintenance,126.72845851925496,37.487695209510186,대한민국,KOR,KOR,인천광역시,부평구,,부평동,,경인로,975,610-5,2022-08-24 14:41:06,"산업,유통||자동차||수리||카포스",False
105118,105119,439476,덕신자동차공업사,덕신공업사,"Deokshin Automobile Co., Ltd.",Shops and Service,Auto Maintenance,126.64548680962287,37.458414333765454,대한민국,KOR,KOR,인천광역시,미추홀구,,숭의동,,인주대로,67,297-39,2022-05-01 12:37:48,"산업,유통||자동차||수리||수리-일반",False
105295,105296,1046129,스피드자동차공업사,스피드공업사,speed car company,Shops and Service,Auto Maintenance,126.6942897428279,37.44872449172156,대한민국,KOR,KOR,인천광역시,남동구,,구월동,,인주대로518번길,33,1358-4,2022-05-01 12:37:48,"산업,유통||자동차||수리||수리-일반",False
105453,105454,295918,카포스 대운종합카센타,CARPOS 대운종합카센타,Carpos Daewoon General Car Center,Shops and Service,Auto Maintenance,126.72665295702292,37.50845145065211,대한민국,KOR,KOR,인천광역시,부평구,,갈산동,,주부토로150번길,14,390-5,2022-05-01 12:37:48,"산업,유통||자동차||수리||카포스",False
105772,105773,27185275,서강정비사업소,,Seogang Maintenance Office,Shops and Service,Auto Maintenance,126.6760676228379,37.48264833220679,대한민국,KOR,KOR,인천광역시,서구,,가좌동,,가재울로,5,552-29,2022-08-16 16:52:33,"산업,유통||자동차||수리||1급정비",False
106037,106038,5721125,카포스양심타이어,CARPOS양심타이어,kapos conscience tire,Shops and Service,Auto Maintenance,126.63857030048382,37.48086934749068,대한민국,KOR,KOR,인천광역시,동구,,송현동,,송현로,65-1,23-44,2022-08-24 14:41:06,"산업,유통||자동차||수리||카포스",False
