,OID_,id,name,name_alias,name_eng,category,subcategory,lon,lat,country,country_code,language_code,sd,sgg,sgg_sub,emd,ri,street,number_st,number_jb,update_date,dwnm,result
750,751,27227976,토종한우전문점,,Local Korean beef restaurant,Shops and Service,Butcher,126.6719928453739,37.511765944387705,대한민국,KOR,KOR,인천광역시,서구,,석남동,,강남로,22,454-10,2022-08-12 13:15:03,"쇼핑,편의||농축산물||육류||정육점||정육점-일반",False
1107,1108,4336167,무궁화정육점,,Mugunghwa Butcher Shop,Shops and Service,Butcher,126.68844737686888,37.47948821784577,대한민국,KOR,KOR,인천광역시,서구,,가좌동,,가좌로96번길,31,477-4,2022-05-01 12:37:48,"쇼핑,편의||농축산물||육류||정육점||정육점-일반",False
1606,1607,4335609,부원정육점,,Buwon Butcher Shop,Shops and Service,Butcher,126.73300745294692,37.5048051208772,대한민국,KOR,KOR,인천광역시,부평구,,부개동,,길주남로101번길,11-4,482-3,2022-08-24 14:41:06,"쇼핑,편의||농축산물||육류||정육점||정육점-일반",False
1847,1848,27451617,최고집착한정육,,The most obsessive meat,Shops and Service,Butcher,126.71400466378748,37.50190278845514,대한민국,KOR,KOR,인천광역시,부평구,,산곡동,,부영로,165,294-35,2022-08-12 13:15:03,"쇼핑,편의||농축산물||육류||정육점||정육점-일반",False
2578,2579,3108232,도매정육점,,wholesale butcher shop,Shops and Service,Butcher,126.63038944367882,37.485093633679774,대한민국,KOR,KOR,인천광역시,동구,,화수동,,화수로,79,35-22,2022-08-24 14:41:06,"쇼핑,편의||농축산물||육류||정육점||정육점-일반",False
2821,2822,4342959,환희정육도매,,Hwanhee Meat Wholesale,Shops and Service,Butcher,126.6968562649659,37.47433823951668,대한민국,KOR,KOR,인천광역시,부평구,,십정동,,배곶북로,10-21,299,2022-08-24 14:41:06,"쇼핑,편의||농축산물||육류||정육점||정육점-일반",False
3077,3078,4343546,소문난정육,,famous meat,Shops and Service,Butcher,126.74527164274797,37.555108329356315,대한민국,KOR,KOR,인천광역시,계양구,,박촌동,,장제로,1003,60-3,2022-08-12 13:15:03,"쇼핑,편의||농축산물||육류||정육점||정육점-일반",False
3314,3315,4331940,대동정육점,,Daedong Butcher Shop,Shops and Service,Butcher,126.74209189999996,37.53341129999983,대한민국,KOR,KOR,인천광역시,계양구,,작전동,,도두리로,70,912-5,2022-08-24 14:41:06,"쇼핑,편의||농축산물||육류||정육점||정육점-일반",False
3636,3637,5674415,통큰정육점,,Tongkeun Butcher,Shops and Service,Butcher,126.68302313127188,37.42492950110137,대한민국,KOR,KOR,인천광역시,연수구,,연수동,,비류대로433번길,12,508-22,2022-08-24 14:41:06,"쇼핑,편의||농축산물||육류||정육점||정육점-일반",False
5773,5774,4327697,목우촌웰빙마을 인천송도점,웰빙마을인천송도점,Mokwoochon Wellness Village Incheon Songdo Branch,Shops and Service,Butcher,126.64547082979018,37.39580904796329,대한민국,KOR,KOR,인천광역시,연수구,,송도동,,해돋이로,168-5,21-12,2022-08-16 16:52:33,"쇼핑,편의||농축산물||육류||정육점||정육점-일반",False
6406,6407,2617103,고향생고기정육점,고향정육점,Hometown raw meat butcher shop,Shops and Service,Butcher,126.67190348095988,37.453185248587175,대한민국,KOR,KOR,인천광역시,미추홀구,,주안동,,한나루로526번길,55,705-20,2022-08-12 13:15:03,"쇼핑,편의||농축산물||육류||정육점||정육점-일반",False
6457,6458,27221501,두총각네축산 구월2호점,,Two Bachelor's Livestock Farm Guwol 2nd Branch,Shops and Service,Butcher,126.7106938208349,37.44911833919507,대한민국,KOR,KOR,인천광역시,남동구,,구월동,,인주대로,664,279-3,2022-08-12 13:15:03,"쇼핑,편의||농축산물||육류||정육점||정육점-일반",False
6560,6561,5720949,싱싱축산정육점,,fresh livestock butcher shop,Shops and Service,Butcher,126.72839779999998,37.419769099999776,대한민국,KOR,KOR,인천광역시,남동구,,도림동,,도림로,20,661-7,2022-05-01 12:37:48,"쇼핑,편의||농축산물||육류||정육점||정육점-일반",False
7064,7065,4336976,무등정육점,,Mudeung Butcher,Shops and Service,Butcher,126.68834292656392,37.47944419483128,대한민국,KOR,KOR,인천광역시,서구,,가좌동,,가좌로96번길,31,477-4,2022-05-01 12:37:48,"쇼핑,편의||농축산물||육류||정육점||정육점-일반",False
7548,7549,4344184,한우고기공판장,,Korean beef  market,Shops and Service,Butcher,126.64943089975787,37.46814362081449,대한민국,KOR,KOR,인천광역시,미추홀구,,숭의동,,석정로126번길,9,87-3,2022-08-24 14:41:06,"쇼핑,편의||농축산물||육류||정육점||정육점-일반",False
7694,7695,5693023,인천축산,,Incheon Livestock,Shops and Service,Butcher,126.70417795545139,37.44370345680832,대한민국,KOR,KOR,인천광역시,남동구,,구월동,,성말로32번길,33,1171-25,2022-08-16 16:52:33,"쇼핑,편의||농축산물||육류||정육점||정육점-일반",False
7890,7891,20200736,한국계란유통협회 인천지부,한국계란유통 인천지부,Korea Egg Distribution Association Incheon Branch,Shops and Service,Butcher,126.6759505797916,37.51523215169494,대한민국,KOR,KOR,인천광역시,서구,,가정동,,원창로240번길,23,522-35,2022-05-01 12:37:48,"쇼핑,편의||농축산물||육류||달걀",False
8492,8493,27367845,우가돈정육점,,Ugadon butcher shop,Shops and Service,Butcher,126.66216226824498,37.472062087534816,대한민국,KOR,KOR,인천광역시,미추홀구,,도화동,,숙골로,114,1005-6,2022-08-12 13:15:03,"쇼핑,편의||농축산물||육류||정육점||정육점-일반",False
8526,8527,3445514,알뜰정육점,,thrifty butcher shop,Shops and Service,Butcher,126.7106778981159,37.53254233866129,대한민국,KOR,KOR,인천광역시,계양구,,효성동,,안남로554번길,1,60-7,2022-05-01 12:37:48,"쇼핑,편의||농축산물||육류||정육점||정육점-일반",False
8796,8797,1255821,신흥정육점,,Shinheung Butcher,Shops and Service,Butcher,126.49072649999984,37.63904679999986,대한민국,KOR,KOR,인천광역시,강화군,,길상면,온수리,온수길33번길,4,528-1,2021-12-23 15:49:18,"쇼핑,편의||농축산물||육류||정육점||정육점-일반",False
8947,8948,4348066,한우정육백화점,한우정육점,Hanwoo Beef Department Store,Shops and Service,Butcher,126.70052955475089,37.480648717223374,대한민국,KOR,KOR,인천광역시,부평구,,십정동,,경원대로1130번길,27,168-17,2022-08-24 14:41:06,"쇼핑,편의||농축산물||육류||정육점||정육점-일반",False
9183,9184,27255213,고기총각,,meat bachelor,Shops and Service,Butcher,126.67395269999994,37.38386719999977,대한민국,KOR,KOR,인천광역시,연수구,,송도동,,송도과학로51번길,136,161-3,2022-09-06 15:18:26,"쇼핑,편의||농축산물||육류||정육점||정육점-일반",False
9901,9902,5701166,신신수입쇠고기전문점,신신쇠고기전문점,Newly imported beef restaurant,Shops and Service,Butcher,126.6726371094839,37.45950044679388,대한민국,KOR,KOR,인천광역시,미추홀구,,도화동,,한나루로,598-5,429-72,2022-08-24 14:41:06,"쇼핑,편의||농축산물||육류||정육점||정육점-일반",False
9914,9915,6227024,싱싱정육점,,fresh butcher shop,Shops and Service,Butcher,126.68406632807388,37.46675121165108,대한민국,KOR,KOR,인천광역시,미추홀구,,주안동,,석정로,437,19-23,2022-08-24 14:41:06,"쇼핑,편의||농축산물||육류||정육점||정육점-일반",False
10312,10313,2609407,한우마을정육점,,Hanwoo Village Butcher Shop,Shops and Service,Butcher,126.70524660271788,37.49232561659639,대한민국,KOR,KOR,인천광역시,부평구,,산곡동,,화랑남로6번길,4,369-519,2022-08-24 14:41:06,"쇼핑,편의||농축산물||육류||정육점||정육점-일반",False
11598,11599,4338702,코오롱정육점,,Kolon Butcher Shop,Shops and Service,Butcher,126.72594019999998,37.53138669999982,대한민국,KOR,KOR,인천광역시,계양구,,작전동,,봉오대로691번길,8,861-1,2022-08-24 14:41:06,"쇼핑,편의||농축산물||육류||정육점||정육점-일반",False
11615,11616,20184122,인천광역계란유통센터,인천계란유통센터,Incheon Metropolitan Egg Distribution Center,Shops and Service,Butcher,126.71744635741597,37.438213137445594,대한민국,KOR,KOR,인천광역시,남동구,,수산동,,호구포로625번길,8,203,2021-12-23 15:49:18,"쇼핑,편의||농축산물||육류||달걀",False
13203,13204,2598445,뚱보섭이네정육점,,Fat Seop's Butcher Shop,Shops and Service,Butcher,126.7160796354849,37.463889319690175,대한민국,KOR,KOR,인천광역시,남동구,,간석동,,용천로168번길,35,224-540,2022-08-16 16:52:33,"쇼핑,편의||농축산물||육류||정육점||정육점-일반",False
13543,13544,27490330,강남한우직판장,,Gangnam Korean Beef Direct Market,Shops and Service,Butcher,126.67734497460188,37.55050599718312,대한민국,KOR,KOR,인천광역시,서구,,연희동,,서곶로,368,710,2022-08-19 9:48:28,"쇼핑,편의||농축산물||육류||정육점||정육점-일반",False
14334,14335,27222195,현대정육점,,Hyundai Butcher,Shops and Service,Butcher,126.6916841574359,37.45943170185466,대한민국,KOR,KOR,인천광역시,미추홀구,,주안동,,경원대로852번길,39,946-25,2022-08-12 13:15:03,"쇼핑,편의||농축산물||육류||정육점||정육점-일반",False
14634,14635,2608348,삼보정육점,,Sambo Butcher Shop,Shops and Service,Butcher,126.65974215742588,37.455750739813055,대한민국,KOR,KOR,인천광역시,미추홀구,,용현동,,수봉남로12번길,68,62-14,2022-08-24 14:41:06,"쇼핑,편의||농축산물||육류||정육점||정육점-일반",False
14859,14860,27221018,우리총각네정육점 작전점,우리총각네 작전점,Our Bachelor's Butcher's Operation Store,Shops and Service,Butcher,126.72645789170193,37.52682107932771,대한민국,KOR,KOR,인천광역시,계양구,,작전동,,아나지로307번길,14,390-3,2022-08-12 13:15:03,"쇼핑,편의||농축산물||육류||정육점||정육점-일반",False
14971,14972,6232716,정미고깃간한우한돈전문,정미고깃간한우전문,Specialized in Korean beef and pork,Shops and Service,Butcher,126.67282910536888,37.44688539990936,대한민국,KOR,KOR,인천광역시,미추홀구,,주안동,,신기길30번길,70,850-40,2022-05-01 12:37:48,"쇼핑,편의||농축산물||육류||정육점||정육점-일반",False
14999,15000,5662679,한마음정육점,,Hanmaeum Butcher,Shops and Service,Butcher,126.6703508876759,37.55009045779551,대한민국,KOR,KOR,인천광역시,서구,,연희동,,대평로56번길,33,730-4,2022-08-24 14:41:06,"쇼핑,편의||농축산물||육류||정육점||정육점-일반",False
15486,15487,20201705,한국계란유통협회 인천지부,계란유통협회 인천지부,Korea Egg Distribution Association Incheon Branch,Shops and Service,Butcher,126.67450528074195,37.44570220778239,대한민국,KOR,KOR,인천광역시,미추홀구,,주안동,,인하로236번길,57,857-33,2021-12-23 15:49:18,"쇼핑,편의||농축산물||육류||달걀",False
15648,15649,4337318,싱싱한우촌,,Fresh Korean Beef Village,Shops and Service,Butcher,126.64545727811486,37.461264202982775,대한민국,KOR,KOR,인천광역시,미추홀구,,숭의동,,독배로462번길,55,170-12,2022-08-24 14:41:06,"쇼핑,편의||농축산물||육류||정육점||정육점-일반",False
16360,16361,5656101,누리미트,,nurimit,Shops and Service,Butcher,126.69475898500691,37.44839345177217,대한민국,KOR,KOR,인천광역시,남동구,,구월동,,문화서로23번길,32,1359-1,2021-12-23 15:49:18,"쇼핑,편의||농축산물||육류||정육점||정육점-일반",False
16369,16370,2618683,영춘정육점,영춘정육점,Youngchun Butcher,Shops and Service,Butcher,126.64712012319787,37.463457991611385,대한민국,KOR,KOR,인천광역시,미추홀구,,숭의동,,미추로36번길,7,190-53,2022-08-24 14:41:06,"쇼핑,편의||농축산물||육류||정육점||정육점-일반",False
16720,16721,27228101,시장정육점,,market butcher shop,Shops and Service,Butcher,126.69539039999992,37.4736158999998,대한민국,KOR,KOR,인천광역시,부평구,,십정동,,배곶남로21번길,18,321,2022-08-16 16:52:33,"쇼핑,편의||농축산물||육류||정육점||정육점-일반",False
17017,17018,4328174,송림정육점,,Songlim Butcher Shop,Shops and Service,Butcher,126.64325639999996,37.4768939999998,대한민국,KOR,KOR,인천광역시,동구,,송림동,,샛골로161번길,23-1,55-20,2022-08-24 14:41:06,"쇼핑,편의||농축산물||육류||정육점||정육점-일반",False
18694,18695,4340366,풍경채축산,,landscape harvesting,Shops and Service,Butcher,126.64767020568854,37.538629319378686,대한민국,KOR,KOR,인천광역시,서구,,청라동,,청라한울로,95,115-1,2022-08-12 13:15:03,"쇼핑,편의||농축산물||육류||정육점||정육점-일반",False
19383,19384,2154027,유천정육점,,Yucheon Butcher Shop,Shops and Service,Butcher,126.65412961334988,37.45760502760696,대한민국,KOR,KOR,인천광역시,미추홀구,,용현동,,독정이로17번길,4,492-31,2019-11-14 23:28:28,"쇼핑,편의||농축산물||육류||정육점||정육점-일반",False
19543,19544,4341411,태산정육점,,Taesan Butcher Shop,Shops and Service,Butcher,126.70887329999988,37.469243999999776,대한민국,KOR,KOR,인천광역시,남동구,,간석동,,간석로5번길,24,74-2,2022-08-24 14:41:06,"쇼핑,편의||농축산물||육류||정육점||정육점-일반",False
19557,19558,4336654,우리동네고깃간,,Our Neighborhood Meat Gan,Shops and Service,Butcher,126.70363340739992,37.50664073924712,대한민국,KOR,KOR,인천광역시,부평구,,산곡동,,마장로,320,100-80,2022-08-16 16:52:33,"쇼핑,편의||농축산물||육류||정육점||정육점-일반",False
20934,20935,4346724,참조은한우정육점,,See Eun Hanwoo Butcher Shop,Shops and Service,Butcher,126.70100471551288,37.5105784464031,대한민국,KOR,KOR,인천광역시,부평구,,산곡동,,산청로17번길,6,26-15,2022-08-24 14:41:06,"쇼핑,편의||농축산물||육류||정육점||정육점-일반",False
21234,21235,5724484,아빠정육점,,Dad's Butcher,Shops and Service,Butcher,126.6628344992209,37.47130960069338,대한민국,KOR,KOR,인천광역시,미추홀구,,도화동,,숙골로,102,1006-3,2022-08-24 14:41:06,"쇼핑,편의||농축산물||육류||정육점||정육점-일반",False
21406,21407,2595247,현대정육점,,Hyundai Butcher,Shops and Service,Butcher,126.73315635728495,37.48451134580909,대한민국,KOR,KOR,인천광역시,부평구,,부개동,,동수로128번길,8,444-3,2022-08-24 14:41:06,"쇼핑,편의||농축산물||육류||정육점||정육점-일반",False
21640,21641,2610284,우리축산물직거래장터,우리축산직거래장터,Woori Livestock Products Direct Trading Market,Shops and Service,Butcher,126.63412069999684,37.476772190001455,대한민국,KOR,KOR,인천광역시,동구,,송현동,,솔빛로,7,73-3,2022-08-12 13:15:03,"쇼핑,편의||농축산물||육류||정육점||정육점-일반",False
21892,21893,2150617,골드축산정육점,골드정육점,Gold Livestock butcher shop,Shops and Service,Butcher,126.65235229493788,37.458137824385865,대한민국,KOR,KOR,인천광역시,미추홀구,,용현동,,용삼길,49,492-96,2022-08-18 12:00:50,"쇼핑,편의||농축산물||육류||정육점||정육점-일반",False
22628,22629,2599027,시장정육점,,market butcher shop,Shops and Service,Butcher,126.72494169999996,37.53245619999982,대한민국,KOR,KOR,인천광역시,계양구,,작전동,,작전시장로,20,862-11,2022-09-06 15:18:26,"쇼핑,편의||농축산물||육류||정육점||정육점-일반",False
22817,22818,4325234,명품한우정육점,,Luxury Korean Beef Butcher Shop,Shops and Service,Butcher,126.73993719999999,37.53750489999982,대한민국,KOR,KOR,인천광역시,계양구,,계산동,,계산새로,106,1084-2,2022-08-16 16:52:33,"쇼핑,편의||농축산물||육류||정육점||정육점-일반",False
24235,24236,20184493,왕손정육점,,Wangson Butcher Shop,Shops and Service,Butcher,126.72024082999698,37.54117635029072,대한민국,KOR,KOR,인천광역시,계양구,,계산동,,계산천서로24번길,7,975-1,2021-12-23 15:49:18,"쇼핑,편의||농축산물||육류||정육점||정육점-일반",False
24615,24616,27163792,고기조아정육점,,Meat Joa Butcher Shop,Shops and Service,Butcher,126.62217069477114,37.41545059545719,대한민국,KOR,KOR,인천광역시,연수구,,송도동,,랜드마크로,68,311-1,2022-08-16 16:52:33,"쇼핑,편의||농축산물||육류||정육점||정육점-일반",False
25214,25215,4339181,정직한총각네축산석남점,,Honest Bachelor 4 Livestock Farm Seoknam Branch,Shops and Service,Butcher,126.67866959999994,37.512808999999805,대한민국,KOR,KOR,인천광역시,서구,,석남동,,서달로,159,470-10,2022-08-16 16:52:33,"쇼핑,편의||농축산물||육류||정육점||정육점-일반",False
25279,25280,5658631,금강산정육점,,Geumgangsan Butcher Shop,Shops and Service,Butcher,126.68854379998788,37.479575084553474,대한민국,KOR,KOR,인천광역시,서구,,가좌동,,백범로622번길,31,477-3,2022-08-24 14:41:06,"쇼핑,편의||농축산물||육류||정육점||정육점-일반",False
25335,25336,5724464,두총각네축산 구월점,,Two Bachelors Four Livestock  Guwol Branch,Shops and Service,Butcher,126.7149786407579,37.45701539801888,대한민국,KOR,KOR,인천광역시,남동구,,구월동,,용천로,82,1241-1,2022-08-16 16:52:33,"쇼핑,편의||농축산물||육류||정육점||정육점-일반",False
25347,25348,27195954,인하정육,,Inha Meat,Shops and Service,Butcher,126.64657801711084,37.42448795119835,대한민국,KOR,KOR,인천광역시,연수구,,옥련동,,독배로40번길,29,462-136,2022-08-12 13:15:03,"쇼핑,편의||농축산물||육류||정육점||정육점-일반",False
27156,27157,5661598,광명한우촌,,Gwangmyeong Korean Beef Village,Shops and Service,Butcher,126.67105713633188,37.54360770009461,대한민국,KOR,KOR,인천광역시,서구,,심곡동,,승학로235번길,16,335-7,2022-05-01 12:37:48,"쇼핑,편의||농축산물||육류||정육점||정육점-일반",False
27497,27498,4334957,대덕정육점,,Daedeok Butcher Shop,Shops and Service,Butcher,126.63019015054684,37.480368363851966,대한민국,KOR,KOR,인천광역시,동구,,화평동,,화도로,16,164-3,2022-08-24 14:41:06,"쇼핑,편의||농축산물||육류||정육점||정육점-일반",False
28167,28168,2598454,인천정육백화점,인천정육점,Incheon Butcher's Department Store,Shops and Service,Butcher,126.71491309932988,37.464476931035165,대한민국,KOR,KOR,인천광역시,남동구,,간석동,,용천로168번길,9,43-4,2022-08-24 14:41:06,"쇼핑,편의||농축산물||육류||정육점||정육점-일반",False
29122,29123,6212339,참조은정육점,,See Eun Butcher,Shops and Service,Butcher,126.72490331869543,37.544125007520144,대한민국,KOR,KOR,인천광역시,계양구,,계산동,,하느재로5번길,2,931-47,2022-09-06 15:18:26,"쇼핑,편의||농축산물||육류||정육점||정육점-일반",False
29656,29657,5676230,천지정육점,,Cheonji Butcher Shop,Shops and Service,Butcher,126.65410954215788,37.5550553681524,대한민국,KOR,KOR,인천광역시,서구,,경서동,,경서로31번길,1,산165-13,2022-05-01 12:37:48,"쇼핑,편의||농축산물||육류||정육점||정육점-일반",False
30469,30470,3128168,원풍정육점,원풍정육점,Wonpung Butcher,Shops and Service,Butcher,126.6576431176979,37.42717620882036,대한민국,KOR,KOR,인천광역시,연수구,,옥련동,,한나루로,202-6,308-1,2022-08-16 16:52:33,"쇼핑,편의||농축산물||육류||정육점||정육점-일반",False
31143,31144,4346544,한우리축산,,Hanwoori Livestock,Shops and Service,Butcher,126.742080210332,37.48503921767279,대한민국,KOR,KOR,인천광역시,부평구,,부개동,,경인로1104번길,14-1,328-15,2022-08-24 14:41:06,"쇼핑,편의||농축산물||육류||정육점||정육점-일반",False
32353,32354,27255763,세이브정육,,save meat,Shops and Service,Butcher,126.62283808902085,37.48518128974612,대한민국,KOR,KOR,인천광역시,동구,,만석동,,화도진로,183,122,2022-08-16 16:52:33,"쇼핑,편의||농축산물||육류||정육점||정육점-일반",False
32826,32827,27367529,형아고기정육점,,hyungah butcher shop,Shops and Service,Butcher,126.70667584123238,37.58841905195571,대한민국,KOR,KOR,인천광역시,서구,,당하동,,,,983-3,2022-07-05 16:31:26,"쇼핑,편의||농축산물||육류||정육점||정육점-일반",False
33056,33057,20184010,조아미트,,joamit,Shops and Service,Butcher,126.66814388476789,37.47206698961489,대한민국,KOR,KOR,인천광역시,미추홀구,,도화동,,장고개로,46,84-2,2022-05-01 12:37:48,"쇼핑,편의||농축산물||육류||육류-일반",False
33731,33732,4342493,충남정육점,,Chungnam Butcher Shop,Shops and Service,Butcher,126.69996586821387,37.50978390182799,대한민국,KOR,KOR,인천광역시,부평구,,산곡동,,길주로341번길,14,13-110,2022-08-24 14:41:06,"쇼핑,편의||농축산물||육류||정육점||정육점-일반",False
34120,34121,2154972,대영정육점,,Daeyoung Butcher Shop,Shops and Service,Butcher,126.67594152452688,37.45523531070497,대한민국,KOR,KOR,인천광역시,미추홀구,,주안동,,경인로326번길,75-1,549-4,2021-12-23 15:49:18,"쇼핑,편의||농축산물||육류||정육점||정육점-일반",False
34646,34647,4345767,대원정육점,,Daewon Butcher Shop,Shops and Service,Butcher,126.73986539505793,37.4988305690746,대한민국,KOR,KOR,인천광역시,부평구,,부개동,,부개로,14,501-3,2022-08-24 14:41:06,"쇼핑,편의||농축산물||육류||정육점||정육점-일반",False
36081,36082,4330702,대명정육축산,,Daemyung Butchers,Shops and Service,Butcher,126.66699367190289,37.446237751567054,대한민국,KOR,KOR,인천광역시,미추홀구,,학익동,,한나루로,438,288-1,2022-05-01 12:37:48,"쇼핑,편의||농축산물||육류||정육점||정육점-일반",False
36150,36151,20184142,윤성정육점,,Yunseong Butcher,Shops and Service,Butcher,126.69577357002696,37.429646455862176,대한민국,KOR,KOR,인천광역시,연수구,,선학동,,넘말로79번길,45,387,2021-12-23 15:49:18,"쇼핑,편의||농축산물||육류||정육점||정육점-일반",False
37018,37019,3109530,총각네정육점,,Bachelor's butcher shop,Shops and Service,Butcher,126.62304740971985,37.485510721243855,대한민국,KOR,KOR,인천광역시,동구,,만석동,,화도진로,184-1,9-62,2022-08-24 14:41:06,"쇼핑,편의||농축산물||육류||정육점||정육점-일반",False
37279,37280,27162807,단 고기정육점,,sweet butcher shop,Shops and Service,Butcher,126.67175483436122,37.40645514111191,대한민국,KOR,KOR,인천광역시,연수구,,동춘동,,원인재로,59,932,2022-08-12 13:15:03,"쇼핑,편의||농축산물||육류||정육점||정육점-일반",False
37438,37439,5674777,에이미트인천남부총판,,Amit Incheon Southern Distributor,Shops and Service,Butcher,126.6765656571639,37.447730417726966,대한민국,KOR,KOR,인천광역시,미추홀구,,주안동,,신기길,10,1327-17,2022-05-01 12:37:48,"쇼핑,편의||농축산물||육류||정육점||정육점-일반",False
37808,37809,2157352,삼선정육점,,Samseon Butcher,Shops and Service,Butcher,126.26019259999958,37.79632609999992,대한민국,KOR,KOR,인천광역시,강화군,,교동면,삼선리,교동북로,234,452-5,2018-09-19 16:50:50,"쇼핑,편의||농축산물||육류||정육점||정육점-일반",False
38369,38370,27160880,송이한우미트,,Songi Korean Beef Meat,Shops and Service,Butcher,126.68884379424888,37.473517474523085,대한민국,KOR,KOR,인천광역시,부평구,,십정동,,백범로577번길,25,557-32,2022-08-08 10:29:42,"쇼핑,편의||농축산물||육류||정육점||정육점-일반",False
38646,38647,3109597,솔터우물정육점,,salt well butcher shop,Shops and Service,Butcher,126.48437699999984,37.74699999999991,대한민국,KOR,KOR,인천광역시,강화군,,강화읍,신문리,강화대로,423-1,142-1,2022-08-24 14:41:06,"쇼핑,편의||농축산물||육류||정육점||정육점-일반",False
38693,38694,27068318,신신정육점,,Shinshin butcher shop,Shops and Service,Butcher,126.67842400979688,37.44677108803698,대한민국,KOR,KOR,인천광역시,미추홀구,,주안동,,미추홀대로,553-63,1313-12,2022-08-18 12:00:50,"쇼핑,편의||농축산물||육류||정육점||정육점-일반",False
39151,39152,4344201,우리한우도매센터 청천점,,Woori Korean Beef Wholesale Center Cheongcheon Branch,Shops and Service,Butcher,126.70373297299987,37.51330538471069,대한민국,KOR,KOR,인천광역시,부평구,,산곡동,,마장로393번길,2,1-9,2022-08-16 16:52:33,"쇼핑,편의||농축산물||육류||육류-일반",False
39211,39212,4342677,우리한우우리돼지,,"Our Korean Beef, Our Pig",Shops and Service,Butcher,126.70606892473488,37.492427382600894,대한민국,KOR,KOR,인천광역시,부평구,,산곡동,,화랑남로,14,311-242,2022-08-18 12:00:50,"쇼핑,편의||농축산물||육류||정육점||정육점-일반",False
39992,39993,4324919,서인천축산,,Seoincheon Livestock,Shops and Service,Butcher,126.66428346054988,37.451527152074256,대한민국,KOR,KOR,인천광역시,미추홀구,,용현동,,한나루로489번길,54,68-37,2022-08-12 13:15:03,"쇼핑,편의||농축산물||육류||정육점||정육점-일반",False
40127,40128,5688206,주영정육점,,Jooyoung Butcher Shop,Shops and Service,Butcher,126.73018983895793,37.51850922775512,대한민국,KOR,KOR,인천광역시,부평구,,갈산동,,장제로373번길,37,37-1,2022-08-24 14:41:06,"쇼핑,편의||농축산물||육류||정육점||정육점-일반",False
40988,40989,3144604,대동생고기정육점,대동정육점,Daedongsaengmeat butcher shop,Shops and Service,Butcher,126.7148193712989,37.48227893069979,대한민국,KOR,KOR,인천광역시,부평구,,부평동,,경인로834번길,11,768-4,2022-08-24 14:41:06,"쇼핑,편의||농축산물||육류||정육점||정육점-일반",False
41530,41531,27184612,홍성광천한우,,Hongseong Gwangcheon Korean Beef,Shops and Service,Butcher,126.70386613456289,37.5091617061612,대한민국,KOR,KOR,인천광역시,부평구,,산곡동,,마장로,348,95-1,2022-08-16 16:52:33,"쇼핑,편의||농축산물||육류||정육점||정육점-일반",False
42032,42033,27222221,유천정육,,Yoochun Butcher,Shops and Service,Butcher,126.68128074739188,37.57263850404871,대한민국,KOR,KOR,인천광역시,서구,,시천동,,아라로51번길,6,144-10,2022-05-01 12:37:48,"쇼핑,편의||농축산물||육류||정육점||정육점-일반",False
42495,42496,20026608,승리정육점,,Victory Butcher,Shops and Service,Butcher,126.6561896206369,37.477686978606776,대한민국,KOR,KOR,인천광역시,미추홀구,,도화동,,연송로,49,886,2022-08-26 9:52:19,"쇼핑,편의||농축산물||육류||정육점||정육점-일반",False
42768,42769,5721119,신개념한우직판장 연안점,신개념한우직판장연안점,New concept Korean beef direct market Yeonan Branch,Shops and Service,Butcher,126.60382686338583,37.45437697085675,대한민국,KOR,KOR,인천광역시,중구,,항동7가,,연안부두로33번길,16,58-4,2022-08-16 16:52:33,"쇼핑,편의||농축산물||육류||정육점||정육점-일반",False
42983,42984,5661405,아빠정육점,,Dad's Butcher,Shops and Service,Butcher,126.65311089999994,37.52948159999983,대한민국,KOR,KOR,인천광역시,서구,,청라동,,청라라임로,17,185-1,2022-08-16 16:52:33,"쇼핑,편의||농축산물||육류||정육점||정육점-일반",False
43687,43688,5692524,믿음정육점,,Faith Butcher,Shops and Service,Butcher,126.70233239875787,37.517845231829895,대한민국,KOR,KOR,인천광역시,부평구,,청천동,,청중로,47,30-20,2022-05-01 12:37:48,"쇼핑,편의||농축산물||육류||정육점||정육점-일반",False
43923,43924,6221396,서호미트,,Seohomet,Shops and Service,Butcher,126.64137991521888,37.53695782174348,대한민국,KOR,KOR,인천광역시,서구,,청라동,,청라루비로134번길,8,143-2,2021-12-23 15:49:18,"쇼핑,편의||농축산물||육류||육류-일반",False
44008,44009,5936786,조아미트,,joamit,Shops and Service,Butcher,126.73249931533424,37.45051163068722,대한민국,KOR,KOR,인천광역시,남동구,,만수동,,하촌로,28-9,968-3,2022-08-16 16:52:33,"쇼핑,편의||농축산물||육류||정육점||정육점-일반",False
44061,44062,26878101,정육마트,,Butcher Mart,Shops and Service,Butcher,126.70204472659094,37.59678822340794,대한민국,KOR,KOR,인천광역시,서구,,원당동,,고산로40번길,11,848-5,2022-05-01 12:37:48,"쇼핑,편의||농축산물||육류||정육점||정육점-일반",False
44950,44951,27224946,총각네정육점 스타미트,,Bachelor's butcher shop Star Meat,Shops and Service,Butcher,126.72523468835092,37.53251460921832,대한민국,KOR,KOR,인천광역시,계양구,,작전동,,작전시장로22번길,1,862-14,2022-05-01 12:37:48,"쇼핑,편의||농축산물||육류||정육점||정육점-일반",False
45222,45223,4344964,두총각네축산 만수점,,"Two Bachelors, Four Livestock",Shops and Service,Butcher,126.73610856853396,37.463337275911385,대한민국,KOR,KOR,인천광역시,남동구,,만수동,,만수로75번길,26,5-188,2022-08-24 14:41:06,"쇼핑,편의||농축산물||육류||정육점||정육점-일반",False
45475,45476,4334154,두총각네축산학익점,,Two Bachelors Four Livestock Hakikjeom,Shops and Service,Butcher,126.67485321893588,37.43922329580548,대한민국,KOR,KOR,인천광역시,미추홀구,,학익동,,매소홀로,474,661-9,2022-05-01 12:37:48,"쇼핑,편의||농축산물||육류||정육점||정육점-일반",False
45668,45669,5662411,으뜸정육점,,top butcher shop,Shops and Service,Butcher,126.67057180030088,37.50836792777598,대한민국,KOR,KOR,인천광역시,서구,,석남동,,길주로75번길,20,515-10,2022-08-24 14:41:06,"쇼핑,편의||농축산물||육류||정육점||정육점-일반",False
46299,46300,4357541,찬승훈정육점,,Chan Seung-hoon Butcher Shop,Shops and Service,Butcher,126.74295653374392,37.54875302863541,대한민국,KOR,KOR,인천광역시,계양구,,병방동,,장제로940번길,16,108-3,2021-12-23 15:49:18,"쇼핑,편의||농축산물||육류||정육점||정육점-일반",False
46552,46553,4338004,우리동네고기촌,,Our Neighborhood Meat Village,Shops and Service,Butcher,126.67246072232288,37.495888848670575,대한민국,KOR,KOR,인천광역시,서구,,가좌동,,가정로126번길,7,140-40,2022-08-16 16:52:33,"쇼핑,편의||농축산물||육류||정육점||정육점-일반",False
48130,48131,27330301,올바른 정육점,,the right butcher,Shops and Service,Butcher,126.67057406929388,37.5226441624357,대한민국,KOR,KOR,인천광역시,서구,,가정동,,,,478-3,2022-08-30 9:43:30,"쇼핑,편의||농축산물||육류||정육점||정육점-일반",False
48210,48211,3113604,시민정육점,,Citizen Butcher Shop,Shops and Service,Butcher,126.65218606135188,37.47943204428427,대한민국,KOR,KOR,인천광역시,동구,,송림동,,송향로,10,4-97,2022-05-01 12:37:48,"쇼핑,편의||농축산물||육류||정육점||정육점-일반",False
48430,48431,5367033,신포정육점, ,SinpoButcher Shop,Shops and Service,Butcher,126.62769429999992,37.4716023999998,대한민국,KOR,KOR,인천광역시,중구,,신포동,,우현로49번길,11,3-14,2022-08-12 13:15:03,"쇼핑,편의||농축산물||육류||정육점||정육점-일반",False
48493,48494,2603817,대영정육마트,대영마트,Daeyoung Meat Mart,Shops and Service,Butcher,126.67228093711687,37.494503569984,대한민국,KOR,KOR,인천광역시,서구,,가좌동,,가정로112번길,6,145-62,2022-08-24 14:41:06,"쇼핑,편의||농축산물||육류||정육점||정육점-일반",False
48690,48691,3272269,맑은농장 정육점,,Sunny Farm Butcher,Shops and Service,Butcher,126.65219633939196,37.559203191829454,대한민국,KOR,KOR,인천광역시,서구,,경서동,,도요지로,17,723-1,2022-08-16 16:52:33,"쇼핑,편의||농축산물||육류||정육점||정육점-일반",False
48695,48696,5096860,두총각네축산 검암점,,Two Bachelors Four Livestock  Geomam Branch,Shops and Service,Butcher,126.67363941721288,37.5637693407104,대한민국,KOR,KOR,인천광역시,서구,,검암동,,승학로,470,627-1,2022-08-16 16:52:33,"쇼핑,편의||농축산물||육류||정육점||정육점-일반",False
49382,49383,3126345,마니마니정육점,,Mani Mani butcher shop,Shops and Service,Butcher,126.68162159594888,37.41872829867256,대한민국,KOR,KOR,인천광역시,연수구,,연수동,,새말로107번길,6,577,2022-08-16 16:52:33,"쇼핑,편의||농축산물||육류||정육점||정육점-일반",False
50027,50028,4356832,한우리축산,,Hanwoori Livestock,Shops and Service,Butcher,126.68589124275488,37.61208619323772,대한민국,KOR,KOR,인천광역시,서구,,불로동,,검단로744번1길,20,794-1,2022-08-16 16:52:33,"쇼핑,편의||농축산물||육류||정육점||정육점-일반",False
51324,51325,4332673,오뚜기정육점,,Ottogi Butcher Shop,Shops and Service,Butcher,126.7106937982039,37.448959312616886,대한민국,KOR,KOR,인천광역시,남동구,,구월동,,인주대로,664,279-3,2022-08-24 14:41:06,"쇼핑,편의||농축산물||육류||정육점||정육점-일반",False
51657,51658,4349867,선진포크 인천북부대리점,선진포크경인미트,Sunjin Fork  Incheon Bukbu Agency,Shops and Service,Butcher,126.74359296647295,37.542656824443206,대한민국,KOR,KOR,인천광역시,계양구,,용종동,,용마루4길,1,222-6,2022-08-16 16:52:33,"쇼핑,편의||농축산물||육류||정육점||정육점-일반",False
51673,51674,2612014,까치정육점,,magpie butcher shop,Shops and Service,Butcher,126.64311476108588,37.45456479081936,대한민국,KOR,KOR,인천광역시,미추홀구,,용현동,,낙섬동로,101-4,556-53,2022-05-01 12:37:48,"쇼핑,편의||농축산물||육류||정육점||정육점-일반",False
52303,52304,27245175,부흥정육점,,Buheung Butcher Shop,Shops and Service,Butcher,126.72612355999992,37.4971915999998,대한민국,KOR,KOR,인천광역시,부평구,,부평동,,부흥로304번길,27,252-35,2022-05-01 12:37:48,"쇼핑,편의||농축산물||육류||정육점||정육점-일반",False
52533,52534,5722710,정일품정육점,,Jung Il Pum Butcher Shop,Shops and Service,Butcher,126.7120017333449,37.448902392616176,대한민국,KOR,KOR,인천광역시,남동구,,구월동,,인주대로676번길,10,276-1,2022-08-12 13:15:03,"쇼핑,편의||농축산물||육류||정육점||정육점-일반",False
52682,52683,2150593,남대문정육점,,NamdaemunButcher Shop,Shops and Service,Butcher,126.65021472430988,37.45767231403687,대한민국,KOR,KOR,인천광역시,미추홀구,,용현동,,용삼길9번길,8,459-6,2022-08-24 14:41:06,"쇼핑,편의||농축산물||육류||정육점||정육점-일반",False
52722,52723,4361778,그린정육,,green meat,Shops and Service,Butcher,126.72872991824192,37.5097920886577,대한민국,KOR,KOR,인천광역시,부평구,,갈산동,,갈월동로29번길,8,370-11,2022-08-24 14:41:06,"쇼핑,편의||농축산물||육류||정육점||정육점-일반",False
52952,52953,4335518,미추홀축산물도소매 동인천점,미추홀축산물 동인천점,Michuhol Livestock Wholesale and Retail  Dongincheon Branch,Shops and Service,Butcher,126.62959441075982,37.47359407026188,대한민국,KOR,KOR,인천광역시,중구,,인현동,,우현로,71-1,58-1,2022-08-16 16:52:33,"쇼핑,편의||농축산물||육류||정육점||정육점-일반",False
53738,53739,2157336,연안정육점,,Coastal Butcher Shop,Shops and Service,Butcher,126.28045809999963,37.78257349999991,대한민국,KOR,KOR,인천광역시,강화군,,교동면,대룡리,대룡안길54번길,44-13,944-10,2022-08-18 12:00:50,"쇼핑,편의||농축산물||육류||정육점||정육점-일반",False
55533,55534,5367034,우리돈축산정육점, ,Woori pork butcher shop,Shops and Service,Butcher,126.62768805999993,37.47174788999979,대한민국,KOR,KOR,인천광역시,중구,,내동,,우현로49번길,12,212-5,2022-08-24 14:41:06,"쇼핑,편의||농축산물||육류||정육점||정육점-일반",False
55812,55813,27179170,제이미트,,Jamiet,Shops and Service,Butcher,126.6894789837889,37.46323318960557,대한민국,KOR,KOR,인천광역시,미추홀구,,주안동,,경원대로,901,969-7,2022-05-01 12:37:48,"쇼핑,편의||농축산물||육류||정육점||정육점-일반",False
56569,56570,4335062,정육돈쓰리,,3 meat pork,Shops and Service,Butcher,126.67048051820328,37.510632219408976,대한민국,KOR,KOR,인천광역시,서구,,석남동,,신석로,71,446,2022-08-12 13:15:03,"쇼핑,편의||농축산물||육류||정육점||정육점-일반",False
57100,57101,5667939,바른정육점,,Barun Butcher,Shops and Service,Butcher,126.66867249112588,37.59675652734052,대한민국,KOR,KOR,인천광역시,서구,,마전동,,완정로,54,1000-10,2022-08-16 16:52:33,"쇼핑,편의||농축산물||육류||정육점||정육점-일반",False
57985,57986,5698029,태근이네정육점,,Taegeun's butcher shop,Shops and Service,Butcher,126.7074080054929,37.50649046140639,대한민국,KOR,KOR,인천광역시,부평구,,산곡동,,마장로324번길,70,124-87,2022-08-16 16:52:33,"쇼핑,편의||농축산물||육류||정육점||정육점-일반",False
58370,58371,2601135,수도정육점,,water butcher shop,Shops and Service,Butcher,126.72519501592592,37.4978120518825,대한민국,KOR,KOR,인천광역시,부평구,,부평동,,주부토로,32,372-19,2022-08-24 14:41:06,"쇼핑,편의||농축산물||육류||정육점||정육점-일반",False
59198,59199,27229044,한국유통정육,,Korean meat distribution,Shops and Service,Butcher,126.75051449460796,37.515889565933,대한민국,KOR,KOR,인천광역시,부평구,,삼산동,,평천로,540,106-39,2022-08-24 14:41:06,"쇼핑,편의||농축산물||육류||정육점||정육점-일반",False
60168,60169,4332082,보혜정육점,,Bohye Butcher Shop,Shops and Service,Butcher,126.71885832888466,37.48766143911078,대한민국,KOR,KOR,인천광역시,부평구,,부평동,,경인로891번길,40,751-54,2022-08-26 9:52:19,"쇼핑,편의||농축산물||육류||정육점||정육점-일반",False
60380,60381,3439207,에이스미트,,ace mit,Shops and Service,Butcher,126.72215235323092,37.40352507984166,대한민국,KOR,KOR,인천광역시,남동구,,논현동,,논현로,145,618-1,2022-08-16 16:52:33,"쇼핑,편의||농축산물||육류||정육점||정육점-일반",False
61738,61739,3260811,우리정육점,,our butcher shop,Shops and Service,Butcher,126.65663038568675,37.53740589426536,대한민국,KOR,KOR,인천광역시,서구,,청라동,,청라에메랄드로,134,130-4,2022-08-16 16:52:33,"쇼핑,편의||농축산물||육류||정육점||정육점-일반",False
62167,62168,4340951,막뚱이정육점,,makttung butcher shop,Shops and Service,Butcher,126.70328419999991,37.499537599999805,대한민국,KOR,KOR,인천광역시,부평구,,산곡동,,마장로220번길,13,222,2022-08-16 16:52:33,"쇼핑,편의||농축산물||육류||정육점||정육점-일반",False
62535,62536,4361064,해드림정육점,명품한우보성녹돈해드림정육점,Hadream Butcher,Shops and Service,Butcher,126.68077589583488,37.5491595877831,대한민국,KOR,KOR,인천광역시,서구,,연희동,,간촌로31번길,2,703-7,2022-08-24 14:41:06,"쇼핑,편의||농축산물||육류||정육점||정육점-일반",False
63102,63103,5671441,친절한 정육점,,friendly butcher shop,Shops and Service,Butcher,126.73255407220992,37.49969977449209,대한민국,KOR,KOR,인천광역시,부평구,,부평동,,장제로160번길,27,118-12,2022-08-12 13:15:03,"쇼핑,편의||농축산물||육류||정육점||정육점-일반",False
63141,63142,2613463,장터정육점,,Market Butcher Shop,Shops and Service,Butcher,126.68278683335689,37.44942161748448,대한민국,KOR,KOR,인천광역시,미추홀구,,주안동,,미추홀대로586번길,51,1489-34,2022-08-12 13:15:03,"쇼핑,편의||농축산물||육류||정육점||정육점-일반",False
64976,64977,5660633,우진정육점,,Woojin Butcher,Shops and Service,Butcher,126.73909399999998,37.54494439999982,대한민국,KOR,KOR,인천광역시,계양구,,병방동,,장제로,876,432-5,2022-08-12 13:15:03,"쇼핑,편의||농축산물||육류||정육점||정육점-일반",False
65299,65300,27065289,초록한우,,Green Korean Beef,Shops and Service,Butcher,126.61238575018211,37.414089935481435,대한민국,KOR,KOR,인천광역시,연수구,,송도동,,랜드마크로,160,308-1,2022-08-12 13:15:03,"쇼핑,편의||농축산물||육류||정육점||정육점-일반",False
66104,66105,5366944,항도정육점, ,Hango Butcher Shop,Shops and Service,Butcher,126.62672470999992,37.47149466999979,대한민국,KOR,KOR,인천광역시,중구,,신포동,,우현로49번길,29,9-6,2022-05-01 12:37:48,"쇼핑,편의||농축산물||육류||정육점||정육점-일반",False
66439,66440,3167901,삼화정육백화점,,Samhwa Jeongyuk Department Store,Shops and Service,Butcher,126.63453461022686,37.47597078009616,대한민국,KOR,KOR,인천광역시,동구,,송현동,,화도진로34번길,3,88-26,2022-05-01 12:37:48,"쇼핑,편의||농축산물||육류||정육점||정육점-일반",False
68354,68355,2606032,일조정육점,,Iljeong Butcher Shop,Shops and Service,Butcher,126.48285959999984,37.74739459999991,대한민국,KOR,KOR,인천광역시,강화군,,강화읍,신문리,강화대로,439,241-23,2021-12-23 15:49:18,"쇼핑,편의||농축산물||육류||정육점||정육점-일반",False
68597,68598,1259822,신도매정육점,,new wholesale butcher shop,Shops and Service,Butcher,126.6965623785769,37.473191150759774,대한민국,KOR,KOR,인천광역시,부평구,,십정동,,배곶북로,19,301,2022-08-24 14:41:06,"쇼핑,편의||농축산물||육류||정육점||정육점-일반",False
70415,70416,2614613,엄마손정육점,,mom's butcher shop,Shops and Service,Butcher,126.69605623436888,37.44804535660688,대한민국,KOR,KOR,인천광역시,남동구,,구월동,,문화서로,31,1354-19,2022-08-24 14:41:06,"쇼핑,편의||농축산물||육류||정육점||정육점-일반",False
70574,70575,2688096,영신정육점,,Youngshin butcher shop,Shops and Service,Butcher,126.49132499999985,37.639458299999845,대한민국,KOR,KOR,인천광역시,강화군,,길상면,온수리,온수길,32,511-1,2022-08-24 14:41:06,"쇼핑,편의||농축산물||육류||정육점||정육점-일반",False
70803,70804,5684303,산에들에정육점,,Butcher shop in the mountains,Shops and Service,Butcher,126.73071839251192,37.55482985907621,대한민국,KOR,KOR,인천광역시,계양구,,방축동,,방축로91번길,36,83-10,2022-08-24 14:41:06,"쇼핑,편의||농축산물||육류||정육점||정육점-일반",False
71208,71209,4347057,명품한우마을,,Luxury Korean Beef Village,Shops and Service,Butcher,126.72288712688189,37.54533596894922,대한민국,KOR,KOR,인천광역시,계양구,,계산동,,경명대로1045번길,17,931-23,2022-05-01 12:37:48,"쇼핑,편의||농축산물||육류||정육점||정육점-일반",False
71398,71399,3108876,한우판매장,,Korean beef store,Shops and Service,Butcher,126.64691768945087,37.47618926547028,대한민국,KOR,KOR,인천광역시,동구,,송림동,,송림로110번길,5,125-16,2021-12-23 15:49:18,"쇼핑,편의||농축산물||육류||정육점||정육점-일반",False
71921,71922,5665853,금호정육점,,Kumho Butcher Shop,Shops and Service,Butcher,126.70908589331188,37.53283697046532,대한민국,KOR,KOR,인천광역시,계양구,,효성동,,안남로553번길,14,46-4,2022-05-01 12:37:48,"쇼핑,편의||농축산물||육류||정육점||정육점-일반",False
72055,72056,4346375,홍성한우정육점,홍성정육점,Hongseong Hanwoo Butcher Shop,Shops and Service,Butcher,126.69532310637788,37.47317199760706,대한민국,KOR,KOR,인천광역시,부평구,,십정동,,배곶남로21번길,21,353-6,2022-08-24 14:41:06,"쇼핑,편의||농축산물||육류||정육점||정육점-일반",False
73299,73300,2154270,대우정육점,,Daewoo Butcher,Shops and Service,Butcher,126.66519590034288,37.44322360090206,대한민국,KOR,KOR,인천광역시,미추홀구,,학익동,,한나루로,400,264-6,2022-05-01 12:37:48,"쇼핑,편의||농축산물||육류||정육점||정육점-일반",False
73608,73609,3121996,하나정육점,,Hana Butcher Shop,Shops and Service,Butcher,126.68328891439587,37.42571084122456,대한민국,KOR,KOR,인천광역시,연수구,,연수동,,함박로,53,513-18,2022-08-24 14:41:06,"쇼핑,편의||농축산물||육류||정육점||정육점-일반",False
73743,73744,3117460,효성정육점,,Hyosung Butcher Shop,Shops and Service,Butcher,126.70964217958893,37.534791019848,대한민국,KOR,KOR,인천광역시,계양구,,효성동,,안남로573번길,7,33-25,2022-08-24 14:41:06,"쇼핑,편의||농축산물||육류||정육점||정육점-일반",False
76281,76282,27047404,정육편의점 영종도6호점,,Butcher convenience store Yeongjongdo 6th branch,Shops and Service,Butcher,126.5625807970118,37.48949667616146,대한민국,KOR,KOR,인천광역시,중구,,중산동,,하늘별빛로65번길,8-11,1883-6,2022-08-16 16:52:33,"쇼핑,편의||농축산물||육류||정육점||정육점-일반",False
76892,76893,4333529,하나정육점,,Hana Butcher Shop,Shops and Service,Butcher,126.64662501829488,37.47922310665477,대한민국,KOR,KOR,인천광역시,동구,,송림동,,샛골로194번길,20,35-38,2022-08-12 13:15:03,"쇼핑,편의||농축산물||육류||정육점||정육점-일반",False
78060,78061,4351667,다드림정육,,Dadim Butcher,Shops and Service,Butcher,126.6713279991189,37.5441855817278,대한민국,KOR,KOR,인천광역시,서구,,심곡동,,탁옥로,17,333-15,2022-08-16 16:52:33,"쇼핑,편의||농축산물||육류||정육점||정육점-일반",False
79354,79355,3337244,강화섬약쑥한우,약쑥한우,Ganghwa Spicy Korean Beef,Shops and Service,Butcher,126.50991259999986,37.726417899999895,대한민국,KOR,KOR,인천광역시,강화군,,선원면,신정리,선원사지로,32,247-1,2022-08-12 13:15:03,"쇼핑,편의||농축산물||육류||소고기",False
79561,79562,5727219,백년숯불정육식당,,cattle pig sleeve,Shops and Service,Butcher,126.53322146347068,37.489042024421,대한민국,KOR,KOR,인천광역시,중구,,운남동,,운남로,128,1570,2022-08-08 10:29:42,"쇼핑,편의||농축산물||육류||육류-일반",False
80262,80263,4337865,전통한우,,traditional Korean beef,Shops and Service,Butcher,126.73481136792424,37.578857668995774,대한민국,KOR,KOR,인천광역시,계양구,,장기동,,장기로,30,138-4,2022-08-16 16:52:33,"쇼핑,편의||농축산물||육류||정육점||정육점-일반",False
80438,80439,5710654,강화섬한우,,Ganghwa Island Korean Beef,Shops and Service,Butcher,126.48414449999981,37.74632409999991,대한민국,KOR,KOR,인천광역시,강화군,,강화읍,신문리,남산길,9-1,156,2022-08-12 13:15:03,"쇼핑,편의||농축산물||육류||정육점||정육점-일반",False
80648,80649,5715212,토종한우랑한돈,한우랑한돈,Local Korean Beef and Korean Don,Shops and Service,Butcher,126.65284759988992,37.395841800569045,대한민국,KOR,KOR,인천광역시,연수구,,송도동,,신송로,122,2-6,2022-08-24 14:41:06,"쇼핑,편의||농축산물||육류||정육점||정육점-일반",False
80737,80738,27223724,둥이네정육점,,dungine butcher shop,Shops and Service,Butcher,126.63906949999992,37.52596839999982,대한민국,KOR,KOR,인천광역시,서구,,청라동,,청라커낼로,163,173-1,2022-09-06 15:18:26,"쇼핑,편의||농축산물||육류||정육점||정육점-일반",False
81074,81075,27180489,참착한총각네축산,,Four hardworking bachelor's livestock,Shops and Service,Butcher,126.63922876644884,37.457194241197854,대한민국,KOR,KOR,인천광역시,미추홀구,,용현동,,아암대로29번길,48,565-4,2022-08-12 13:15:03,"쇼핑,편의||농축산물||육류||정육점||정육점-일반",False
81148,81149,3142483,주안정육타운,,Juan Meat Town,Shops and Service,Butcher,126.68352210038988,37.46521563063268,대한민국,KOR,KOR,인천광역시,미추홀구,,주안동,,염창로,88-8,31-17,2022-08-24 14:41:06,"쇼핑,편의||농축산물||육류||정육점||정육점-일반",False
81471,81472,3337805,장단정육점,,Jangdan Butcher Shop,Shops and Service,Butcher,126.65327722750588,37.45809387452057,대한민국,KOR,KOR,인천광역시,미추홀구,,용현동,,용삼길,66,492-149,2022-05-01 12:37:48,"쇼핑,편의||농축산물||육류||정육점||정육점-일반",False
82560,82561,5654163,인천도매정육점,인천정육점,Incheon Wholesale Butcher,Shops and Service,Butcher,126.68891739999992,37.47960679999979,대한민국,KOR,KOR,인천광역시,서구,,가좌동,,열우물로,179,480,2022-08-18 12:00:50,"쇼핑,편의||농축산물||육류||정육점||정육점-일반",False
83422,83423,5709218,두총각네축산당하점,,Two Bachelors Four Chuksan Dangha Branch,Shops and Service,Butcher,126.67598849567788,37.59219130642112,대한민국,KOR,KOR,인천광역시,서구,,당하동,,청마로167번길,7,1097-8,2022-08-24 14:41:06,"쇼핑,편의||농축산물||육류||정육점||정육점-일반",False
83487,83488,27224866,대림축산생닭전문점,,Daelim Live Chicken Specialty Store,Shops and Service,Butcher,126.73968170751697,37.54783941298581,대한민국,KOR,KOR,인천광역시,계양구,,병방동,,병방시장로,72,399,2022-08-16 16:52:33,"쇼핑,편의||농축산물||육류||닭||닭-일반",False
83546,83547,27195943,신축산도매,,new construction wholesale,Shops and Service,Butcher,126.65324514557284,37.458396392737576,대한민국,KOR,KOR,인천광역시,미추홀구,,용현동,,용삼길,67,492-57,2022-05-01 12:37:48,"쇼핑,편의||농축산물||육류||정육점||정육점-일반",False
83878,83879,3108938,우리닭집,,our chicken coop,Shops and Service,Butcher,126.48432699999984,37.7468999999999,대한민국,KOR,KOR,인천광역시,강화군,,강화읍,신문리,강화대로,423-1,142-1,2018-09-21 10:34:14,"쇼핑,편의||농축산물||육류||정육점||정육점-일반",False
84429,84430,3123050,현대정육점,,Hyundai Butcher,Shops and Service,Butcher,126.71718796003088,37.529126833746304,대한민국,KOR,KOR,인천광역시,계양구,,효성동,,새벌로,136,282-8,2022-08-24 14:41:06,"쇼핑,편의||농축산물||육류||정육점||정육점-일반",False
84566,84567,2607256,주부정육백화점,,housewife butcher Department store,Shops and Service,Butcher,126.6798941226059,37.468263080243965,대한민국,KOR,KOR,인천광역시,미추홀구,,주안동,,길파로,30,16-69,2022-08-18 12:00:50,"쇼핑,편의||농축산물||육류||정육점||정육점-일반",False
84695,84696,3127854,황해정육점,,Hwanghae Butcher Shop,Shops and Service,Butcher,126.67003896299988,37.503134400199,대한민국,KOR,KOR,인천광역시,서구,,석남동,,거북로,74-1,587-48,2022-08-24 14:41:06,"쇼핑,편의||농축산물||육류||정육점||정육점-일반",False
85064,85065,2159389,평원정육점,,PyeongwonButcher Shop,Shops and Service,Butcher,126.25383949999959,37.77441129999991,대한민국,KOR,KOR,인천광역시,강화군,,교동면,양갑리,교동서로,242,339-1,2021-12-23 15:49:18,"쇼핑,편의||농축산물||육류||정육점||정육점-일반",False
85435,85436,4330129,으뜸한우정육점,,Best Korean Beef butcher shop,Shops and Service,Butcher,126.67682569999997,37.41127819999978,대한민국,KOR,KOR,인천광역시,연수구,,동춘동,,청능대로,124,923,2022-08-24 14:41:06,"쇼핑,편의||농축산물||육류||정육점||정육점-일반",False
85509,85510,3122402,광명정육점,,Gwangmyeong Butcher Shop,Shops and Service,Butcher,126.7211567463519,37.541677992574606,대한민국,KOR,KOR,인천광역시,계양구,,계산동,,계산천서로,25,940-41,2022-08-24 14:41:06,"쇼핑,편의||농축산물||육류||정육점||정육점-일반",False
86303,86304,27069050,참우리한우,,Chamwoori Korean Beef,Shops and Service,Butcher,126.63678847206984,37.45084697511607,대한민국,KOR,KOR,인천광역시,미추홀구,,용현동,,낙섬중로,27,627-400,2022-08-24 14:41:06,"쇼핑,편의||농축산물||육류||정육점||정육점-일반",False
87063,87064,4335950,우리축산,,our livestock,Shops and Service,Butcher,126.72909714023392,37.49723858508617,대한민국,KOR,KOR,인천광역시,부평구,,부평동,,시장로,79,217-36,2022-08-24 14:41:06,"쇼핑,편의||농축산물||육류||정육점||정육점-일반",False
87237,87238,4328497,우리한우축산프라자,,Woori Hanwoo Livestock Plaza,Shops and Service,Butcher,126.69263461529488,37.466789851498206,대한민국,KOR,KOR,인천광역시,남동구,,간석동,,방축로,494,894-7,2022-08-24 14:41:06,"쇼핑,편의||농축산물||육류||정육점||정육점-일반",False
87728,87729,5677937,올바른정육점,,right butcher shop,Shops and Service,Butcher,126.5639375792018,37.48918181602456,대한민국,KOR,KOR,인천광역시,중구,,중산동,,하늘별빛로65번길,7-3,1886-1,2022-08-16 16:52:33,"쇼핑,편의||농축산물||육류||정육점||정육점-일반",False
87999,88000,27050395,생생한우와한돈,,Live Wow Handon,Shops and Service,Butcher,126.69073433347388,37.45875582559968,대한민국,KOR,KOR,인천광역시,미추홀구,,주안동,,경원대로852번길,18,953-7,2022-08-12 13:15:03,"쇼핑,편의||농축산물||육류||정육점||정육점-일반",False
88862,88863,3130297,대영정육백화점,,Daeyoung Meat Department Store,Shops and Service,Butcher,126.6746574454789,37.5419163446196,대한민국,KOR,KOR,인천광역시,서구,,심곡동,,심곡로,44-1,256-4,2022-08-18 12:00:50,"쇼핑,편의||농축산물||육류||정육점||정육점-일반",False
90290,90291,3131975,한우리축산물도매센타,한우리축산물도매센터,Hanwoori  Livestock Products  Wholesale Center,Shops and Service,Butcher,126.70811619999996,37.4864202999998,대한민국,KOR,KOR,인천광역시,부평구,,십정동,,마장로,86,170-60,2022-08-30 9:43:30,"쇼핑,편의||농축산물||육류||정육점||정육점-일반",False
90368,90369,3132645,안동한우촌,,Andong Korean Beef Village,Shops and Service,Butcher,126.73679799999996,37.505073999999816,대한민국,KOR,KOR,인천광역시,부평구,,부개동,,충선로,176-5,496-6,2022-08-24 14:41:06,"쇼핑,편의||농축산물||육류||정육점||정육점-일반",False
90439,90440,4344455,역전정육점,,station butcher shop,Shops and Service,Butcher,126.72324436193291,37.488912210334384,대한민국,KOR,KOR,인천광역시,부평구,,부평동,,동수북로,154,728-18,2022-08-24 14:41:06,"쇼핑,편의||농축산물||육류||정육점||정육점-일반",False
90695,90696,27048036,농협안심축산물전문점 인천구월시장점,,Nonghyup Anshim Livestock Specialty Store Incheon Guwol Market,Shops and Service,Butcher,126.71962838405992,37.45285703000727,대한민국,KOR,KOR,인천광역시,남동구,,구월동,,호구포로790번길,7,1265-28,2022-08-16 16:52:33,"쇼핑,편의||농축산물||육류||정육점||정육점-일반",False
91100,91101,20199881,두리미트,,do limit,Shops and Service,Butcher,126.65274630642494,37.502158081114096,대한민국,KOR,KOR,인천광역시,서구,,석남동,,건지로97번길,34,223-255,2022-08-24 14:41:06,"쇼핑,편의||농축산물||육류||정육점||정육점-일반",False
91120,91121,4345032,한우랑돼지랑,,Korean beef and pork,Shops and Service,Butcher,126.70041583845588,37.5134795882575,대한민국,KOR,KOR,인천광역시,부평구,,산곡동,,세월천로,79-1,51-5,2022-08-24 14:41:06,"쇼핑,편의||농축산물||육류||정육점||정육점-일반",False
91429,91430,4322291,제일정육백화점,,Jeil Beef Department Store,Shops and Service,Butcher,126.67293072005988,37.45907730374986,대한민국,KOR,KOR,인천광역시,미추홀구,,도화동,,제일로,21-4,430-36,2022-08-24 14:41:06,"쇼핑,편의||농축산물||육류||정육점||정육점-일반",False
92524,92525,27223062,천재정육점,,genius butcher shop,Shops and Service,Butcher,126.65190902026588,37.45798541866206,대한민국,KOR,KOR,인천광역시,미추홀구,,용현동,,용삼길,41,453-167,2022-05-01 12:37:48,"쇼핑,편의||농축산물||육류||정육점||정육점-일반",False
92682,92683,4347907,호뚱이네정육점,,Hotung's  Butcher,Shops and Service,Butcher,126.72312269969692,37.543975201263,대한민국,KOR,KOR,인천광역시,계양구,,계산동,,경명대로1045번길,4,931-49,2022-08-24 14:41:06,"쇼핑,편의||농축산물||육류||정육점||정육점-일반",False
92822,92823,6215969,참좋은착한정육점 구월점,착한정육점 구월점,Very good and good butcher shop  Guwol,Shops and Service,Butcher,126.70652784819688,37.44708971318448,대한민국,KOR,KOR,인천광역시,남동구,,구월동,,남동대로725번길,5,1157-3,2022-08-24 14:41:06,"쇼핑,편의||농축산물||육류||정육점||정육점-일반",False
92973,92974,2603008,프레시안정육점 대성유통,,Fresh stable butcher shop  Daesung Distribution,Shops and Service,Butcher,126.6986375000001,37.46300959999979,대한민국,KOR,KOR,인천광역시,남동구,,간석동,,주안로,258,530-1,2022-05-01 12:37:48,"쇼핑,편의||농축산물||육류||정육점||정육점-일반",False
93018,93019,3139119,풍년식품정육점,,Poongnyeon Food Butcher Shop,Shops and Service,Butcher,126.68705946793588,37.49570200904249,대한민국,KOR,KOR,인천광역시,서구,,가좌동,,원적로124번길,24,81-46,2022-08-24 14:41:06,"쇼핑,편의||농축산물||육류||정육점||정육점-일반",False
94801,94802,3139948,I포크축산 인천본점,아이포크축산인천본점,I Pork Livestock  Incheon Main Branch,Shops and Service,Butcher,126.67000628204129,37.502629280512096,대한민국,KOR,KOR,인천광역시,서구,,석남동,,건지로249번길,37,587-31,2022-05-01 12:37:48,"쇼핑,편의||농축산물||육류||정육점||정육점-일반",False
94964,94965,3266596,동문정육점,,Dongmun Butcher,Shops and Service,Butcher,126.48242249999984,37.7478263999999,대한민국,KOR,KOR,인천광역시,강화군,,강화읍,관청리,강화대로,446,544-5,2022-05-01 12:37:48,"쇼핑,편의||농축산물||육류||정육점||정육점-일반",False
95773,95774,4356668,금호정육점,,Kumho Butcher Shop,Shops and Service,Butcher,126.70923179999996,37.507229099999805,대한민국,KOR,KOR,인천광역시,부평구,,청천동,,안남로,274,336-11,2022-08-24 14:41:06,"쇼핑,편의||농축산물||육류||정육점||정육점-일반",False
96890,96891,27227977,안성한우,,Anseong Korean Beef,Shops and Service,Butcher,126.6720155191909,37.512141136603375,대한민국,KOR,KOR,인천광역시,서구,,석남동,,가정로307번길,3-1,454,2022-08-12 13:15:03,"쇼핑,편의||농축산물||육류||정육점||정육점-일반",False
97176,97177,4329446,우리네축산,,our livestock,Shops and Service,Butcher,126.66687811566187,37.45712178159758,대한민국,KOR,KOR,인천광역시,미추홀구,,주안동,,경인북길357번길,7,588,2022-08-24 14:41:06,"쇼핑,편의||농축산물||육류||정육점||정육점-일반",False
97781,97782,4342981,기천순우리토종한우,,Kicheon Soon-uri Native Korean Beef,Shops and Service,Butcher,126.42794338862936,37.63591011708296,대한민국,KOR,KOR,인천광역시,강화군,,화도면,문산리,마니산로,634-9,851,2022-05-01 12:37:48,"쇼핑,편의||농축산물||육류||정육점||정육점-일반",False
97814,97815,4349371,대세정육점,,Daese Butcher Shop,Shops and Service,Butcher,126.63412809999993,37.4708353999998,대한민국,KOR,KOR,인천광역시,중구,,율목동,,개항로96번길,32,53-1,2022-05-01 12:37:48,"쇼핑,편의||농축산물||육류||정육점||정육점-일반",False
97913,97914,6223698,봉쥬르착한정육점,봉쥬르정육점,Bonjour Chakhan Butcher Shop,Shops and Service,Butcher,126.6945305080199,37.46062933004628,대한민국,KOR,KOR,인천광역시,미추홀구,,주안동,,경인로499번길,8,895-3,2022-08-16 16:52:33,"쇼핑,편의||농축산물||육류||정육점||정육점-일반",False
98060,98061,686274,부영정육백화점,,Booyoung Jeongyuk Department Store,Shops and Service,Butcher,126.67369983072788,37.519286440783794,대한민국,KOR,KOR,인천광역시,서구,,가정동,,석곶로,19,504-15,2022-08-16 16:52:33,"쇼핑,편의||농축산물||육류||정육점||정육점-일반",False
98424,98425,4326936,제일정육점,,Cheil Butcher Shop,Shops and Service,Butcher,126.74312609999996,37.51024889999981,대한민국,KOR,KOR,인천광역시,부평구,,삼산동,,체육관로,111,456-8,2022-08-24 14:41:06,"쇼핑,편의||농축산물||육류||정육점||정육점-일반",False
98728,98729,4335287,부부정육점,,couple butcher shop,Shops and Service,Butcher,126.49926100000164,37.74291989999903,대한민국,KOR,KOR,인천광역시,강화군,,강화읍,갑곳리,갑룡길,57,81-5,2022-08-16 16:52:33,"쇼핑,편의||농축산물||육류||정육점||정육점-일반",False
99633,99634,1273418,뽀미정육점,,pomi butcher shop,Shops and Service,Butcher,126.48402749999984,37.74543929999989,대한민국,KOR,KOR,인천광역시,강화군,,강화읍,신문리,남문안길,25,310,2022-05-01 12:37:48,"쇼핑,편의||농축산물||육류||정육점||정육점-일반",False
102478,102479,5679725,한우나라,,Korean beef,Shops and Service,Butcher,126.69584094542788,37.47303046750277,대한민국,KOR,KOR,인천광역시,부평구,,십정동,,배곶남로21번길,18,321,2022-05-01 12:37:48,"쇼핑,편의||농축산물||육류||정육점||정육점-일반",False
103287,103288,1116522,송도정육백화점,송도정육점,Songdo Butcher's Department Store,Shops and Service,Butcher,126.6904535444479,37.4790135422002,대한민국,KOR,KOR,인천광역시,서구,,가좌동,,율도로36번길,75,480-10,2022-08-16 16:52:33,"쇼핑,편의||농축산물||육류||정육점||정육점-일반",False
103311,103312,27388404,한우농가정육점,,Hanwoo farmhouse butcher shop,Shops and Service,Butcher,126.67253094144472,37.405749498779294,대한민국,KOR,KOR,인천광역시,연수구,,동춘동,,원인재로,59,932,2022-07-13 13:54:25,"쇼핑,편의||농축산물||육류||정육점||정육점-일반",False
103771,103772,2617479,한아름정육점,,Hana Reum Butcher Shop,Shops and Service,Butcher,126.71588032923988,37.431151705394875,대한민국,KOR,KOR,인천광역시,남동구,,남촌동,,남촌동로3번길,35,332-6,2022-08-24 14:41:06,"쇼핑,편의||농축산물||육류||정육점||정육점-일반",False
104074,104075,2602286,황해정육점,,Hwanghae Butcher Shop,Shops and Service,Butcher,126.70781283748488,37.528643543884606,대한민국,KOR,KOR,인천광역시,계양구,,효성동,,효서로111번길,10,170-4,2022-05-01 12:37:48,"쇼핑,편의||농축산물||육류||정육점||정육점-일반",False
104293,104294,4340615,정직한총각네축산부개점,,Honest bachelor's four livestock department opened,Shops and Service,Butcher,126.73264309999996,37.4846984999998,대한민국,KOR,KOR,인천광역시,부평구,,부개동,,동수로120번길,11,442-3,2022-08-24 14:41:06,"쇼핑,편의||농축산물||육류||정육점||정육점-일반",False
104569,104570,20030810,장터정육백화점,,Marketplace Meat Department Store,Shops and Service,Butcher,126.6678039674029,37.5152902286082,대한민국,KOR,KOR,인천광역시,서구,,신현동,,염곡로327번길,19,137-20,2022-08-16 16:52:33,"쇼핑,편의||농축산물||육류||정육점||정육점-일반",False
104776,104777,27223007,바른정육,,Bareun meat,Shops and Service,Butcher,126.739313048336,37.50420069489921,대한민국,KOR,KOR,인천광역시,부평구,,부개동,,부개로,71-12,496-16,2022-08-16 16:52:33,"쇼핑,편의||농축산물||육류||정육점||정육점-일반",False
104968,104969,5686860,송연정육점,,Songyeon Butcher Shop,Shops and Service,Butcher,126.6878835010979,37.47907305508567,대한민국,KOR,KOR,인천광역시,서구,,가좌동,,가좌로96번길,32,482-4,2022-05-01 12:37:48,"쇼핑,편의||농축산물||육류||정육점||정육점-일반",False
105585,105586,2613103,명품한우마을,,Luxury Korean Beef Village,Shops and Service,Butcher,126.69786181180687,37.45606830013547,대한민국,KOR,KOR,인천광역시,남동구,,간석동,,구월로8번길,122,508-139,2022-08-24 14:41:06,"쇼핑,편의||농축산물||육류||정육점||정육점-일반",False
105879,105880,4347664,정가네정육점,,JeonggaNe Butcher Shop,Shops and Service,Butcher,126.7041081894269,37.50676919355558,대한민국,KOR,KOR,인천광역시,부평구,,산곡동,,마장로324번길,12,100-93,2022-08-24 14:41:06,"쇼핑,편의||농축산물||육류||정육점||정육점-일반",False
106414,106415,3121107,한냉정육점,,cold butcher shop,Shops and Service,Butcher,126.66825513335988,37.46795960026959,대한민국,KOR,KOR,인천광역시,미추홀구,,도화동,,석정로,296,137-10,2022-08-24 14:41:06,"쇼핑,편의||농축산물||육류||정육점||정육점-일반",False
107290,107291,27215975,일등한우축산,,First-class Korean beef livestock,Shops and Service,Butcher,126.63776633462084,37.45114249799606,대한민국,KOR,KOR,인천광역시,미추홀구,,용현동,,낙섬중로32번길,7,617-63,2022-08-16 16:52:33,"쇼핑,편의||농축산물||육류||정육점||정육점-일반",False
107298,107299,3118006,한우랑정육타운,,Korean Beef Rang  Butcher Town,Shops and Service,Butcher,126.63977387085583,37.45715718756966,대한민국,KOR,KOR,인천광역시,미추홀구,,용현동,,아암대로29번길,53-16,571-50,2022-08-24 14:41:06,"쇼핑,편의||농축산물||육류||정육점||정육점-일반",False
107510,107511,20046800,우주정육점,,Space Butcher Shop,Shops and Service,Butcher,126.6796751218266,37.422660451137055,대한민국,KOR,KOR,인천광역시,연수구,,연수동,,함박뫼로,115,535-2,2022-08-16 16:52:33,"쇼핑,편의||농축산물||육류||정육점||정육점-일반",False
108926,108927,3117402,정육점입니다,,butcher shop,Shops and Service,Butcher,126.64099031426372,37.45656617035952,대한민국,KOR,KOR,인천광역시,미추홀구,,용현동,,아암대로29번길,83,568-84,2022-08-16 16:52:33,"쇼핑,편의||농축산물||육류||정육점||정육점-일반",False
109599,109600,3139790,국제정육백화점,국제정육점,international meat Department store,Shops and Service,Butcher,126.6821989499068,37.45756464724209,대한민국,KOR,KOR,인천광역시,미추홀구,,주안동,,경인로380번길,13,434-30,2022-05-01 12:37:48,"쇼핑,편의||농축산물||육류||정육점||정육점-일반",False
109660,109661,27223039,우리정육점,,our butcher shop,Shops and Service,Butcher,126.7202412942629,37.45281375023166,대한민국,KOR,KOR,인천광역시,남동구,,구월동,,호구포로790번길,21-5,1266-10,2022-05-01 12:37:48,"쇼핑,편의||농축산물||육류||정육점||정육점-일반",False
110320,110321,4361989,한성정육도매점 부평본점,한성정육점 부평본점,Hanseong Butcher Wholesale Store Bupyeong Main Store,Shops and Service,Butcher,126.74372278553994,37.48444382683109,대한민국,KOR,KOR,인천광역시,부평구,,일신동,,일신로14번길,34,108-1,2022-08-24 14:41:06,"쇼핑,편의||농축산물||육류||정육점||정육점-일반",False
110407,110408,3264657,대구식품정육,,Daegu Food Meat,Shops and Service,Butcher,126.68824184274088,37.479042614947375,대한민국,KOR,KOR,인천광역시,서구,,가좌동,,가좌로96번길,35,480-19,2022-05-01 12:37:48,"쇼핑,편의||농축산물||육류||정육점||정육점-일반",False
111708,111709,4343865,일송정육점,,Ilsong Butcher Shop,Shops and Service,Butcher,126.68560914002012,37.550789002840204,대한민국,KOR,KOR,인천광역시,서구,,공촌동,,심곡로194번길,33,307-30,2022-08-24 14:41:06,"쇼핑,편의||농축산물||육류||정육점||정육점-일반",False
111772,111773,27021617,대림축산 롯데백화점인천점,,Daelim Livestock Lotte Department Store Incheon,Shops and Service,Butcher,126.70140778999988,37.44243416999976,대한민국,KOR,KOR,인천광역시,미추홀구,,관교동,,연남로,35,15,2022-05-01 12:37:48,"쇼핑,편의||농축산물||육류||정육점||정육점-일반",False
111813,111814,4329974,고운노을정육점,,Gounnoeul Butcher Shop,Shops and Service,Butcher,126.68692936817791,37.467702985755366,대한민국,KOR,KOR,인천광역시,미추홀구,,주안동,,석정로461번길,35-5,19-136,2022-08-24 14:41:06,"쇼핑,편의||농축산물||육류||정육점||정육점-일반",False
112907,112908,4341117,정육점,,butcher shop,Shops and Service,Butcher,126.6786492992269,37.411373272496256,대한민국,KOR,KOR,인천광역시,연수구,,연수동,,샘말로8번길,20,631-6,2022-08-16 16:52:33,"쇼핑,편의||농축산물||육류||정육점||정육점-일반",False
113744,113745,3136466,두지종합축산정육백화점,두지축산정육백화점,Dooji General Livestock and Meat Department Store,Shops and Service,Butcher,126.70885069999994,37.4676355999998,대한민국,KOR,KOR,인천광역시,남동구,,간석동,,간석로6번길,11,108-13,2022-08-16 16:52:33,"쇼핑,편의||농축산물||육류||정육점||정육점-일반",False
114168,114169,2610849,화도정육점,,Hwado Butcher Shop,Shops and Service,Butcher,126.62848889999992,37.4806166999998,대한민국,KOR,KOR,인천광역시,동구,,화수동,,화도진로,109,321,2022-05-01 12:37:48,"쇼핑,편의||농축산물||육류||정육점||정육점-일반",False
115395,115396,1253489,인천강화옹진축산농협 축산물판매장,옹진축산물판매장,Incheon Ganghwa Ongjin Livestock Agricultural Cooperative  Livestock Products Store,Shops and Service,Butcher,126.64751761536986,37.42451670516896,대한민국,KOR,KOR,인천광역시,연수구,,옥련동,,독배로40번길,47,462-20,2022-05-01 12:37:48,"쇼핑,편의||농축산물||육류||정육점||정육점-일반",False
117457,117458,1266975,농축산물도매시장,농축산물시장,Agricultural Products Wholesale Market,Shops and Service,Butcher,126.65413274354589,37.60205472529361,대한민국,KOR,KOR,인천광역시,서구,,왕길동,,검단로445번길,16,636-4,2022-08-18 12:00:50,"쇼핑,편의||농축산물||육류||정육점||정육점-일반",False
117815,117816,5664567,대성정육점,,Daesung Butcher,Shops and Service,Butcher,126.70026729966288,37.5297638012515,대한민국,KOR,KOR,인천광역시,계양구,,효성동,,봉오대로477번길,26,123-85,2022-08-24 14:41:06,"쇼핑,편의||농축산물||육류||정육점||정육점-일반",False
118146,118147,2613890,은성정육프라자,,Eunseong Butcher Plaza,Shops and Service,Butcher,126.64960966057616,37.45365946642872,대한민국,KOR,KOR,인천광역시,미추홀구,,용현동,,독배로382번길,15-4,342-2,2022-08-16 16:52:33,"쇼핑,편의||농축산물||육류||정육점||정육점-일반",False
118699,118700,3130199,해동정육점,,Haedong Butcher Shop,Shops and Service,Butcher,126.73639995411295,37.4853213913558,대한민국,KOR,KOR,인천광역시,부평구,,부개동,,동수로,160,256,2022-08-24 14:41:06,"쇼핑,편의||농축산물||육류||정육점||정육점-일반",False
119130,119131,1273156,단골정육점,,regular butcher shop,Shops and Service,Butcher,126.2795442996902,37.78190449962031,대한민국,KOR,KOR,인천광역시,강화군,,교동면,대룡리,,,458-11,2022-08-04 10:04:43,"쇼핑,편의||농축산물||육류||정육점||정육점-일반",False
119572,119573,4339069,총각네푸줏간,,Bachelor's butcher shop,Shops and Service,Butcher,126.56337942529677,37.48921171585215,대한민국,KOR,KOR,인천광역시,중구,,중산동,,하늘별빛로65번길,8,1882-13,2022-08-16 16:52:33,"쇼핑,편의||농축산물||육류||정육점||정육점-일반",False
120845,120846,2614440,에이미트 인천점,,Amit  Incheon Branch,Shops and Service,Butcher,126.72160872407493,37.45273980448268,대한민국,KOR,KOR,인천광역시,남동구,,구월동,,호구포로790번길,41-2,1269-7,2022-08-18 12:00:50,"쇼핑,편의||농축산물||육류||정육점||정육점-일반",False
122499,122500,3337535,우리도매정육점,,our wholesale butcher shop,Shops and Service,Butcher,126.65050742208372,37.457424207252224,대한민국,KOR,KOR,인천광역시,미추홀구,,용현동,,용삼길,16,459-14,2022-08-16 16:52:33,"쇼핑,편의||농축산물||육류||정육점||정육점-일반",False
124334,124335,27221375,한우면돼지,,Korean beef noodle,Shops and Service,Butcher,126.73046419440293,37.54112562554612,대한민국,KOR,KOR,인천광역시,계양구,,계산동,,주부토로532번길,20,343-3,2022-08-16 16:52:33,"쇼핑,편의||농축산물||육류||정육점||정육점-일반",False
125196,125197,4331977,정직한총각네축산,,Honest Bachelor's Livestock,Shops and Service,Butcher,126.73290460000024,37.45469329999997,대한민국,KOR,KOR,인천광역시,남동구,,만수동,,백범로,123,956-2,2022-08-12 13:15:03,"쇼핑,편의||농축산물||육류||정육점||정육점-일반",False
125398,125399,27223963,한우랑돼지랑정육백화점,,Hanwoo and Pork and Meat Department Store,Shops and Service,Butcher,126.6841097639989,37.49404931281238,대한민국,KOR,KOR,인천광역시,서구,,가좌동,,원적로96번길,17,30-77,2022-08-12 13:15:03,"쇼핑,편의||농축산물||육류||정육점||정육점-일반",False
126201,126202,5692306,큰집정육점,,big house butcher shop,Shops and Service,Butcher,126.72622359218693,37.450077761096985,대한민국,KOR,KOR,인천광역시,남동구,,구월동,,복개서로35번길,17-3,1310-5,2021-12-23 15:49:18,"쇼핑,편의||농축산물||육류||정육점||정육점-일반",False
126215,126216,20020417,한우랑돼지랑정육백화점계산점,한우랑돼지랑정육점계산점,Korean beef and pork butcher shop calculation point,Shops and Service,Butcher,126.73007249999996,37.53588799999982,대한민국,KOR,KOR,인천광역시,계양구,,계산동,,주부토로472번길,17,299-2,2022-08-24 14:41:06,"쇼핑,편의||농축산물||육류||정육점||정육점-일반",False
126264,126265,3465830,성심정육점,,Sacred Heart Butcher Shop,Shops and Service,Butcher,126.48905699957268,37.728650999648536,대한민국,KOR,KOR,인천광역시,강화군,,선원면,창리,중앙로,171,392-3,2022-05-01 12:37:48,"쇼핑,편의||농축산물||육류||정육점||정육점-일반",False
126726,126727,27224165,한우9900,,Korean beef 9900,Shops and Service,Butcher,126.71567946455288,37.46305857498788,대한민국,KOR,KOR,인천광역시,남동구,,간석동,,백범로,307,22-8,2022-05-01 12:37:48,"쇼핑,편의||농축산물||육류||정육점||정육점-일반",False
127366,127367,26591648,인천축산,,Incheon Livestock,Shops and Service,Butcher,126.64643229999994,37.4781187999998,대한민국,KOR,KOR,인천광역시,동구,,송림동,,송림로109번길,38,51-30,2022-08-19 9:48:28,"쇼핑,편의||농축산물||육류||정육점||정육점-일반",False
127637,127638,4354111,우리동네정육점효성점,,Our neighborhood butcher shop Hyosung,Shops and Service,Butcher,126.7096657656079,37.52775504890439,대한민국,KOR,KOR,인천광역시,계양구,,효성동,,효서로,124-1,321-32,2022-05-01 12:37:48,"쇼핑,편의||농축산물||육류||정육점||정육점-일반",False
128528,128529,3438488,우리축산,,our livestock,Shops and Service,Butcher,126.63766595276483,37.467622248101065,대한민국,KOR,KOR,인천광역시,중구,,도원동,,도산로,18,28-60,2022-08-24 14:41:06,"쇼핑,편의||농축산물||육류||정육점||정육점-일반",False
129401,129402,20199884,동보한우촌,,Dongbo Korean beef village,Shops and Service,Butcher,126.71192640551995,37.413406626586976,대한민국,KOR,KOR,인천광역시,남동구,,논현동,,남동대로370번길,114,563-2,2022-08-24 14:41:06,"쇼핑,편의||농축산물||육류||정육점||정육점-일반",False
130358,130359,27227537,인천축협한우전문매장연수점,,Incheon Livestock Cooperative Hanwoo Specialty Store Yeonsu Branch,Shops and Service,Butcher,126.65634210023288,37.41241490097505,대한민국,KOR,KOR,인천광역시,연수구,,동춘동,,앵고개로,96,769-28,2022-08-24 14:41:06,"쇼핑,편의||농축산물||육류||정육점||정육점-일반",False
130744,130745,4339114,명품한우농장정육점,명품농장정육점,Luxury Korean Beef Farm butcher shop,Shops and Service,Butcher,126.72834110209592,37.53923803280652,대한민국,KOR,KOR,인천광역시,계양구,,계산동,,주부토로,506,332-4,2022-08-12 13:15:03,"쇼핑,편의||농축산물||육류||정육점||정육점-일반",False
130911,130912,3108151,명품우리한우,,Premium Korean Beef,Shops and Service,Butcher,126.65638982589589,37.47734730401697,대한민국,KOR,KOR,인천광역시,미추홀구,,도화동,,연송로,62,16-14,2022-08-24 14:41:06,"쇼핑,편의||농축산물||육류||정육점||정육점-일반",False
131109,131110,20184784,정육점입니다,,butcher shop,Shops and Service,Butcher,126.757876665774,37.428601821033794,대한민국,KOR,KOR,인천광역시,남동구,,서창동,,운연천로,11,745,2022-08-24 14:41:06,"쇼핑,편의||농축산물||육류||정육점||정육점-일반",False
131203,131204,27125206,기천신토불이한우 효성점,,Gicheon Shintobuli Korean Beef Hyosung Branch,Shops and Service,Butcher,126.70842521166692,37.5320797450542,대한민국,KOR,KOR,인천광역시,계양구,,효성동,,안남로551번길,20,87,2022-05-01 12:37:48,"쇼핑,편의||농축산물||육류||소고기",False
131286,131287,4338154,경동정육점,,Gyeongdong Butcher Shop,Shops and Service,Butcher,126.63311508023865,37.47280422995743,대한민국,KOR,KOR,인천광역시,중구,,경동,,참외전로152번길,10,144-3,2022-05-01 12:37:48,"쇼핑,편의||농축산물||육류||정육점||정육점-일반",False
131421,131422,4337999,덕유산한우직거래장터,,Deogyusan Korean Beef direct market,Shops and Service,Butcher,126.67318778906588,37.59396357438722,대한민국,KOR,KOR,인천광역시,서구,,마전동,,원당대로,647,1015-3,2022-08-24 14:41:06,"쇼핑,편의||농축산물||육류||정육점||정육점-일반",False
131556,131557,27154312,ok목장정육점,,ok ranch butcher shop,Shops and Service,Butcher,126.74821067541492,37.435261399893164,대한민국,KOR,KOR,인천광역시,남동구,,서창동,,독곡로,36,542-3,2022-08-16 16:52:33,"쇼핑,편의||농축산물||육류||정육점||정육점-일반",False
132375,132376,20760819,꿀꿀이정육점,,Honey Honey Butcher Shop,Shops and Service,Butcher,126.64077549482492,37.456110379335286,대한민국,KOR,KOR,인천광역시,미추홀구,,용현동,,낙섬중로91번길,4-14,565-5,2022-08-12 13:15:03,"쇼핑,편의||농축산물||육류||정육점||정육점-일반",False
132388,132389,1265972,우리정육마트,우리마트,Woori Butcher Mart,Shops and Service,Butcher,126.67458436961388,37.549224065765486,대한민국,KOR,KOR,인천광역시,서구,,연희동,,연희로,21,740-6,2022-08-24 14:41:06,"쇼핑,편의||농축산물||육류||정육점||정육점-일반",False
132428,132429,27067033,하늘정육점 오션하임점,,"Sky Butcher, Oceanheim",Shops and Service,Butcher,126.56816627806123,37.49396228700356,대한민국,KOR,KOR,인천광역시,중구,,중산동,,두미포로,112,1887-4,2022-08-16 16:52:33,"쇼핑,편의||농축산물||육류||정육점||정육점-일반",False
134161,134162,4342994,우리축산물할인매장,,our livestock discount store,Shops and Service,Butcher,126.4187391999998,37.63331389999984,대한민국,KOR,KOR,인천광역시,강화군,,화도면,상방리,마니산로,716-1,808-35,2022-08-16 16:52:33,"쇼핑,편의||농축산물||육류||정육점||정육점-일반",False
134579,134580,4343472,우리한우도매센터 산곡점,우리한우산곡점,Woori Korean Beef Wholesale Center Sangokjeom,Shops and Service,Butcher,126.7131159984919,37.502261833907085,대한민국,KOR,KOR,인천광역시,부평구,,산곡동,,부영로189번길,51,281-5,2022-08-16 16:52:33,"쇼핑,편의||농축산물||육류||정육점||정육점-일반",False
135814,135815,5659930,착한정육점,,good butcher shop,Shops and Service,Butcher,126.70341789999996,37.47194119999979,대한민국,KOR,KOR,인천광역시,부평구,,십정동,,아트센터로44번길,3,479-47,2022-05-01 12:37:48,"쇼핑,편의||농축산물||육류||정육점||정육점-일반",False
136292,136293,5708981,한우리축산,,Hanwoori Livestock,Shops and Service,Butcher,126.73615860992392,37.44318873656427,대한민국,KOR,KOR,인천광역시,남동구,,만수동,,장승남로,36,1041,2022-08-24 14:41:06,"쇼핑,편의||농축산물||육류||정육점||정육점-일반",False
136306,136307,4340436,귤현한우마을,,Gyulhyeon Korean Beef Village,Shops and Service,Butcher,126.74607698768595,37.567269116251225,대한민국,KOR,KOR,인천광역시,계양구,,귤현동,,양지로,162,508-1,2022-08-12 13:15:03,"쇼핑,편의||농축산물||육류||정육점||정육점-일반",False
136993,136994,27228343,우성정육점,,Woosung Butcher,Shops and Service,Butcher,126.65195195693887,37.45784603782566,대한민국,KOR,KOR,인천광역시,미추홀구,,용현동,,용삼길,42,453-14,2022-08-24 14:41:06,"쇼핑,편의||농축산물||육류||정육점||정육점-일반",False
137766,137767,4344622,형제정육점,,brother butcher shop,Shops and Service,Butcher,126.6773983268159,37.49679268325121,대한민국,KOR,KOR,인천광역시,서구,,가좌동,,건지로318번길,19,189-1,2022-05-01 12:37:48,"쇼핑,편의||농축산물||육류||정육점||정육점-일반",False
138079,138080,2610808,한우랑돼지랑,,Korean beef and pork,Shops and Service,Butcher,126.66557677843488,37.452116292752365,대한민국,KOR,KOR,인천광역시,미추홀구,,용현동,,한나루로501번길,33,69-1,2022-08-24 14:41:06,"쇼핑,편의||농축산물||육류||정육점||정육점-일반",False
138364,138365,27258559,인천강화옹진축협 옥련판매장,,Incheon Ganghwa Ongjin Livestock Cooperative Ongryeon Store,Shops and Service,Butcher,126.64757041535786,37.424571805207336,대한민국,KOR,KOR,인천광역시,연수구,,옥련동,,독배로40번길,47,462-20,2022-08-12 13:15:03,"쇼핑,편의||농축산물||육류||정육점||정육점-일반",False
138493,138494,2151413,대도정육점,,Daedo Butcher Shop,Shops and Service,Butcher,126.69031199610988,37.458682350583686,대한민국,KOR,KOR,인천광역시,미추홀구,,주안동,,경원대로852번길,12,954-35,2019-11-14 23:24:34,"쇼핑,편의||농축산물||육류||정육점||정육점-일반",False
138682,138683,1871609,건호축산물백화점 인천본점,건호축산물 인천본점,Konho Livestock Department Store  Incheon Main Branch,Shops and Service,Butcher,126.72730801411592,37.5279031001381,대한민국,KOR,KOR,인천광역시,계양구,,작전동,,효서로,280-1,386-20,2022-08-24 14:41:06,"쇼핑,편의||농축산물||육류||정육점||정육점-일반",False
139354,139355,2598456,대영정육백화점,대영정육점,Daeyoung Meat Department store,Shops and Service,Butcher,126.71564382841493,37.46412042085118,대한민국,KOR,KOR,인천광역시,남동구,,간석동,,용천로168번길,25,44-11,2022-08-18 12:00:50,"쇼핑,편의||농축산물||육류||정육점||정육점-일반",False
139878,139879,2596066,청학정육점,,Cheonghak Butcher Shop,Shops and Service,Butcher,126.66761043816192,37.42715646335307,대한민국,KOR,KOR,인천광역시,연수구,,청학동,,비류대로291번길,18,550-1,2022-08-24 14:41:06,"쇼핑,편의||농축산물||육류||정육점||정육점-일반",False
139902,139903,27226922,명품한우한돈도매센터 인천점,,Luxury Hanwoo Handon Wholesale Center Incheon Branch,Shops and Service,Butcher,126.69199856820488,37.45959852321688,대한민국,KOR,KOR,인천광역시,미추홀구,,주안동,,경원대로852번길,47,924-52,2022-05-01 12:37:48,"쇼핑,편의||농축산물||육류||정육점||정육점-일반",False
140024,140025,3132920,검단수입쇠고기,검단쇠고기,Geomdan Imported Beef,Shops and Service,Butcher,126.65928858915092,37.60387203751912,대한민국,KOR,KOR,인천광역시,서구,,마전동,,검단로487번길,18,928-14,2022-05-01 12:37:48,"쇼핑,편의||농축산물||육류||정육점||정육점-일반",False
140924,140925,4348069,우리축산,,our livestock,Shops and Service,Butcher,126.70093207512288,37.4807966688845,대한민국,KOR,KOR,인천광역시,부평구,,십정동,,상정로14번길,36,169-42,2022-05-01 12:37:48,"쇼핑,편의||농축산물||육류||정육점||정육점-일반",False
141528,141529,27240136,착한정육,,good meat,Shops and Service,Butcher,126.67510842136788,37.50873872436831,대한민국,KOR,KOR,인천광역시,서구,,석남동,,신석로122번길,10,498-3,2022-05-01 12:37:48,"쇼핑,편의||농축산물||육류||정육점||정육점-일반",False
143006,143007,5702133,보은정육점,,Boeun Butcher Shop,Shops and Service,Butcher,126.69313357799258,37.45994041349831,대한민국,KOR,KOR,인천광역시,미추홀구,,주안동,,경인로485번길,7,920-1,2022-08-16 16:52:33,"쇼핑,편의||농축산물||육류||정육점||정육점-일반",False
143138,143139,2150590,충남도매정육점,충남정육점,Chungnam Wholesale butcher shop,Shops and Service,Butcher,126.6522105151769,37.45806418936317,대한민국,KOR,KOR,인천광역시,미추홀구,,용현동,,용삼길49번길,3-3,453-170,2022-08-24 14:41:06,"쇼핑,편의||농축산물||육류||정육점||정육점-일반",False
143548,143549,3429083,제물포정육점,,JemulpoButcher Shop,Shops and Service,Butcher,126.65685479308893,37.4630750715657,대한민국,KOR,KOR,인천광역시,미추홀구,,숭의동,,수봉로,35-1,27-56,2022-08-16 16:52:33,"쇼핑,편의||농축산물||육류||정육점||정육점-일반",False
143621,143622,5598908,대육정육점,,big meat butcher shop,Shops and Service,Butcher,126.49012449999984,37.7396322999999,대한민국,KOR,KOR,인천광역시,강화군,,강화읍,남산리,중앙로,43,222,2021-12-23 15:49:18,"쇼핑,편의||농축산물||육류||정육점||정육점-일반",False
144105,144106,27335384,보람정육점,,Boram Butcher,Shops and Service,Butcher,126.69628525838225,37.4741185120841,대한민국,KOR,KOR,인천광역시,부평구,,십정동,,열우물로87번길,29-2,300-8,2022-08-16 16:52:33,"쇼핑,편의||농축산물||육류||정육점||정육점-일반",False
144755,144756,4333573,한우장터,,Korean beef market,Shops and Service,Butcher,126.73866596656453,37.509945421024966,대한민국,KOR,KOR,인천광역시,부평구,,삼산동,,체육관로,57,454-13,2022-08-24 14:41:06,"쇼핑,편의||농축산물||육류||정육점||정육점-일반",False
146063,146064,3116985,명품한우정육점,,Luxury Korean Beef Butcher Shop,Shops and Service,Butcher,126.64849990006884,37.378743900582535,대한민국,KOR,KOR,인천광역시,연수구,,송도동,,해송로,143,9-31,2022-08-16 16:52:33,"쇼핑,편의||농축산물||육류||정육점||정육점-일반",False
146236,146237,3358728,우리닭집,,our chicken coop,Shops and Service,Butcher,126.48990899999984,37.63922189999985,대한민국,KOR,KOR,인천광역시,강화군,,길상면,온수리,온수길,43,525-10,2017-09-29 10:10:10,"쇼핑,편의||농축산물||육류||닭||닭-일반",False
146634,146635,4341317,한우사랑,,Korean beef love,Shops and Service,Butcher,126.7190439080399,37.526753885235806,대한민국,KOR,KOR,인천광역시,계양구,,효성동,,아나지로247번길,11,200-4,2022-08-24 14:41:06,"쇼핑,편의||농축산물||육류||정육점||정육점-일반",False
