,OID_,id,name,name_alias,name_eng,category,subcategory,lon,lat,country,country_code,language_code,sd,sgg,sgg_sub,emd,ri,street,number_st,number_jb,update_date,dwnm,result
153,154,3445470,계산닭유통,,Gyesan Chicken Distribution,Shops and Service,Butcher,126.71890762758991,37.542680302056695,대한민국,KOR,KOR,인천광역시,계양구,,계산동,,계산로,9,978-1,2022-08-24 14:41:06,"쇼핑,편의||농축산물||육류||닭||닭-일반",False
406,407,6401923,오성미트,,Oh Sung Meat,Shops and Service,Butcher,126.68597555459289,37.47860857972348,대한민국,KOR,KOR,인천광역시,서구,,가좌동,,가좌로84번길,24,484,2021-12-23 15:49:18,"쇼핑,편의||농축산물||육류||육류-일반",False
563,564,6226648,청정축산,,clean livestock,Shops and Service,Butcher,126.67361562164288,37.5032612257918,대한민국,KOR,KOR,인천광역시,서구,,석남동,,거북로,105-1,541-26,2022-08-24 14:41:06,"쇼핑,편의||농축산물||육류||정육점||정육점-일반",False
629,630,6216254,서원유통,,Seowon Distribution,Shops and Service,Butcher,126.6556676280979,37.490765747999994,대한민국,KOR,KOR,인천광역시,서구,,가좌동,,백범로934번길,30-2,178-451,2022-05-01 12:37:48,"쇼핑,편의||농축산물||육류||닭||닭-일반",False
750,751,27227976,토종한우전문점,,Local Korean beef restaurant,Shops and Service,Butcher,126.6719928453739,37.511765944387705,대한민국,KOR,KOR,인천광역시,서구,,석남동,,강남로,22,454-10,2022-08-12 13:15:03,"쇼핑,편의||농축산물||육류||정육점||정육점-일반",False
996,997,20475320,하랄미트,,ha lal Meat,Shops and Service,Butcher,126.68011036977896,37.42574940401769,대한민국,KOR,KOR,인천광역시,연수구,,연수동,,함박로,26,495,2022-05-01 12:37:48,"쇼핑,편의||농축산물||육류||정육점||정육점-일반",False
1107,1108,4336167,무궁화정육점,,Mugunghwa Butcher Shop,Shops and Service,Butcher,126.68844737686888,37.47948821784577,대한민국,KOR,KOR,인천광역시,서구,,가좌동,,가좌로96번길,31,477-4,2022-05-01 12:37:48,"쇼핑,편의||농축산물||육류||정육점||정육점-일반",False
1606,1607,4335609,부원정육점,,Buwon Butcher Shop,Shops and Service,Butcher,126.73300745294692,37.5048051208772,대한민국,KOR,KOR,인천광역시,부평구,,부개동,,길주남로101번길,11-4,482-3,2022-08-24 14:41:06,"쇼핑,편의||농축산물||육류||정육점||정육점-일반",False
1702,1703,27070197,병방축산물백화점,,Byeongbang Livestock Department Store,Shops and Service,Butcher,126.7402873,37.54782859999983,대한민국,KOR,KOR,인천광역시,계양구,,병방동,,계양산로215번길,4,402,2022-09-06 15:18:26,"쇼핑,편의||농축산물||육류||정육점||정육점-일반",False
1847,1848,27451617,최고집착한정육,,The most obsessive meat,Shops and Service,Butcher,126.71400466378748,37.50190278845514,대한민국,KOR,KOR,인천광역시,부평구,,산곡동,,부영로,165,294-35,2022-08-12 13:15:03,"쇼핑,편의||농축산물||육류||정육점||정육점-일반",False
2288,2289,27184307,좋은축산,,good livestock,Shops and Service,Butcher,126.72527135646791,37.49609166662838,대한민국,KOR,KOR,인천광역시,부평구,,부평동,,대정로35번길,4,370-30,2022-08-16 16:52:33,"쇼핑,편의||농축산물||육류||정육점||정육점-일반",False
2578,2579,3108232,도매정육점,,wholesale butcher shop,Shops and Service,Butcher,126.63038944367882,37.485093633679774,대한민국,KOR,KOR,인천광역시,동구,,화수동,,화수로,79,35-22,2022-08-24 14:41:06,"쇼핑,편의||농축산물||육류||정육점||정육점-일반",False
2821,2822,4342959,환희정육도매,,Hwanhee Meat Wholesale,Shops and Service,Butcher,126.6968562649659,37.47433823951668,대한민국,KOR,KOR,인천광역시,부평구,,십정동,,배곶북로,10-21,299,2022-08-24 14:41:06,"쇼핑,편의||농축산물||육류||정육점||정육점-일반",False
3077,3078,4343546,소문난정육,,famous meat,Shops and Service,Butcher,126.74527164274797,37.555108329356315,대한민국,KOR,KOR,인천광역시,계양구,,박촌동,,장제로,1003,60-3,2022-08-12 13:15:03,"쇼핑,편의||농축산물||육류||정육점||정육점-일반",False
3314,3315,4331940,대동정육점,,Daedong Butcher Shop,Shops and Service,Butcher,126.74209189999996,37.53341129999983,대한민국,KOR,KOR,인천광역시,계양구,,작전동,,도두리로,70,912-5,2022-08-24 14:41:06,"쇼핑,편의||농축산물||육류||정육점||정육점-일반",False
3636,3637,5674415,통큰정육점,,Tongkeun Butcher,Shops and Service,Butcher,126.68302313127188,37.42492950110137,대한민국,KOR,KOR,인천광역시,연수구,,연수동,,비류대로433번길,12,508-22,2022-08-24 14:41:06,"쇼핑,편의||농축산물||육류||정육점||정육점-일반",False
5126,5127,6230627,명품축산,,luxury livestock,Shops and Service,Butcher,126.69717172002848,37.592551314681394,대한민국,KOR,KOR,인천광역시,서구,,당하동,,고산후로95번길,18,1030-9,2022-08-12 13:15:03,"쇼핑,편의||농축산물||육류||정육점||정육점-일반",False
5773,5774,4327697,목우촌웰빙마을 인천송도점,웰빙마을인천송도점,Mokwoochon Wellness Village Incheon Songdo Branch,Shops and Service,Butcher,126.64547082979018,37.39580904796329,대한민국,KOR,KOR,인천광역시,연수구,,송도동,,해돋이로,168-5,21-12,2022-08-16 16:52:33,"쇼핑,편의||농축산물||육류||정육점||정육점-일반",False
6075,6076,4347830,진한미트,,dark meat,Shops and Service,Butcher,126.67362322908188,37.5155540219791,대한민국,KOR,KOR,인천광역시,서구,,가정동,,가경주로,26,518-6,2022-05-01 12:37:48,"쇼핑,편의||농축산물||육류||정육점||정육점-일반",False
6406,6407,2617103,고향생고기정육점,고향정육점,Hometown raw meat butcher shop,Shops and Service,Butcher,126.67190348095988,37.453185248587175,대한민국,KOR,KOR,인천광역시,미추홀구,,주안동,,한나루로526번길,55,705-20,2022-08-12 13:15:03,"쇼핑,편의||농축산물||육류||정육점||정육점-일반",False
6457,6458,27221501,두총각네축산 구월2호점,,Two Bachelor's Livestock Farm Guwol 2nd Branch,Shops and Service,Butcher,126.7106938208349,37.44911833919507,대한민국,KOR,KOR,인천광역시,남동구,,구월동,,인주대로,664,279-3,2022-08-12 13:15:03,"쇼핑,편의||농축산물||육류||정육점||정육점-일반",False
6560,6561,5720949,싱싱축산정육점,,fresh livestock butcher shop,Shops and Service,Butcher,126.72839779999998,37.419769099999776,대한민국,KOR,KOR,인천광역시,남동구,,도림동,,도림로,20,661-7,2022-05-01 12:37:48,"쇼핑,편의||농축산물||육류||정육점||정육점-일반",False
6855,6856,5682486,세계축산도매,,World Livestock Wholesale,Shops and Service,Butcher,126.73949765347096,37.39933989120116,대한민국,KOR,KOR,인천광역시,남동구,,논현동,,포구로,1,111-180,2022-08-24 14:41:06,"쇼핑,편의||농축산물||육류||정육점||정육점-일반",False
6963,6964,4337835,선우축산도매센타,선우축산센타,Sunwoo Livestock wholesale center,Shops and Service,Butcher,126.73261962936392,37.5336539798304,대한민국,KOR,KOR,인천광역시,계양구,,작전동,,주부토로472번길,51-1,30-1,2022-08-16 16:52:33,"쇼핑,편의||농축산물||육류||정육점||정육점-일반",False
7064,7065,4336976,무등정육점,,Mudeung Butcher,Shops and Service,Butcher,126.68834292656392,37.47944419483128,대한민국,KOR,KOR,인천광역시,서구,,가좌동,,가좌로96번길,31,477-4,2022-05-01 12:37:48,"쇼핑,편의||농축산물||육류||정육점||정육점-일반",False
7548,7549,4344184,한우고기공판장,,Korean beef  market,Shops and Service,Butcher,126.64943089975787,37.46814362081449,대한민국,KOR,KOR,인천광역시,미추홀구,,숭의동,,석정로126번길,9,87-3,2022-08-24 14:41:06,"쇼핑,편의||농축산물||육류||정육점||정육점-일반",False
7694,7695,5693023,인천축산,,Incheon Livestock,Shops and Service,Butcher,126.70417795545139,37.44370345680832,대한민국,KOR,KOR,인천광역시,남동구,,구월동,,성말로32번길,33,1171-25,2022-08-16 16:52:33,"쇼핑,편의||농축산물||육류||정육점||정육점-일반",False
7890,7891,20200736,한국계란유통협회 인천지부,한국계란유통 인천지부,Korea Egg Distribution Association Incheon Branch,Shops and Service,Butcher,126.6759505797916,37.51523215169494,대한민국,KOR,KOR,인천광역시,서구,,가정동,,원창로240번길,23,522-35,2022-05-01 12:37:48,"쇼핑,편의||농축산물||육류||달걀",False
8492,8493,27367845,우가돈정육점,,Ugadon butcher shop,Shops and Service,Butcher,126.66216226824498,37.472062087534816,대한민국,KOR,KOR,인천광역시,미추홀구,,도화동,,숙골로,114,1005-6,2022-08-12 13:15:03,"쇼핑,편의||농축산물||육류||정육점||정육점-일반",False
8526,8527,3445514,알뜰정육점,,thrifty butcher shop,Shops and Service,Butcher,126.7106778981159,37.53254233866129,대한민국,KOR,KOR,인천광역시,계양구,,효성동,,안남로554번길,1,60-7,2022-05-01 12:37:48,"쇼핑,편의||농축산물||육류||정육점||정육점-일반",False
8796,8797,1255821,신흥정육점,,Shinheung Butcher,Shops and Service,Butcher,126.49072649999984,37.63904679999986,대한민국,KOR,KOR,인천광역시,강화군,,길상면,온수리,온수길33번길,4,528-1,2021-12-23 15:49:18,"쇼핑,편의||농축산물||육류||정육점||정육점-일반",False
8947,8948,4348066,한우정육백화점,한우정육점,Hanwoo Beef Department Store,Shops and Service,Butcher,126.70052955475089,37.480648717223374,대한민국,KOR,KOR,인천광역시,부평구,,십정동,,경원대로1130번길,27,168-17,2022-08-24 14:41:06,"쇼핑,편의||농축산물||육류||정육점||정육점-일반",False
8990,8991,3135289,코리아축산 심곡본점,,Korea Livestock  Simgok Main Branch,Shops and Service,Butcher,126.6730416,37.54416489999999,대한민국,KOR,KOR,인천광역시,서구,,심곡동,,탁옥로,31,242-8,2022-08-24 14:41:06,"쇼핑,편의||농축산물||육류||정육점||정육점-일반",False
9183,9184,27255213,고기총각,,meat bachelor,Shops and Service,Butcher,126.67395269999994,37.38386719999977,대한민국,KOR,KOR,인천광역시,연수구,,송도동,,송도과학로51번길,136,161-3,2022-09-06 15:18:26,"쇼핑,편의||농축산물||육류||정육점||정육점-일반",False
9277,9278,5678363,다원축산,다원축산물센터,Dawon Livestock,Shops and Service,Butcher,126.73758917422296,37.54804263323772,대한민국,KOR,KOR,인천광역시,계양구,,병방동,,병방시장로,53,355,2022-08-12 13:15:03,"쇼핑,편의||농축산물||육류||정육점||정육점-일반",False
9901,9902,5701166,신신수입쇠고기전문점,신신쇠고기전문점,Newly imported beef restaurant,Shops and Service,Butcher,126.6726371094839,37.45950044679388,대한민국,KOR,KOR,인천광역시,미추홀구,,도화동,,한나루로,598-5,429-72,2022-08-24 14:41:06,"쇼핑,편의||농축산물||육류||정육점||정육점-일반",False
9914,9915,6227024,싱싱정육점,,fresh butcher shop,Shops and Service,Butcher,126.68406632807388,37.46675121165108,대한민국,KOR,KOR,인천광역시,미추홀구,,주안동,,석정로,437,19-23,2022-08-24 14:41:06,"쇼핑,편의||농축산물||육류||정육점||정육점-일반",False
10000,10001,5455739,신포마약고기,,Shinpo drug meat,Shops and Service,Butcher,126.62767858345984,37.47253060177517,대한민국,KOR,KOR,인천광역시,중구,,내동,,신포로46번길,27,137-2,2020-01-14 0:00:00,"쇼핑,편의||농축산물||육류||돼지고기",False
10312,10313,2609407,한우마을정육점,,Hanwoo Village Butcher Shop,Shops and Service,Butcher,126.70524660271788,37.49232561659639,대한민국,KOR,KOR,인천광역시,부평구,,산곡동,,화랑남로6번길,4,369-519,2022-08-24 14:41:06,"쇼핑,편의||농축산물||육류||정육점||정육점-일반",False
10508,10509,6223609,삼산계란도매직판장,삼산계란직판장,Samsan Egg Wholesale Market,Shops and Service,Butcher,126.74708762240493,37.5202459359416,대한민국,KOR,KOR,인천광역시,부평구,,삼산동,,영성동로,40,394-3,2022-08-12 13:15:03,"쇼핑,편의||농축산물||육류||달걀",False
11357,11358,2602433,신선하고착한고기,신선착한고기,fresh and good meat,Shops and Service,Butcher,126.73226437740593,37.49032487784759,대한민국,KOR,KOR,인천광역시,부평구,,부평동,,부일로,17,494-1,2022-08-24 14:41:06,"쇼핑,편의||농축산물||육류||정육점||정육점-일반",False
11480,11481,27127581,축산물도매센터,축산물센터 청라직영점,Livestock Wholesale Center,Shops and Service,Butcher,126.73871339559597,37.541517505631,대한민국,KOR,KOR,인천광역시,계양구,,용종동,,계양문화로,119,207-1,2022-05-01 12:37:48,"쇼핑,편의||농축산물||육류||정육점||정육점-일반",False
11497,11498,3443033,달곰축산,,moon bear livestock,Shops and Service,Butcher,126.7056872579918,37.45828400885076,대한민국,KOR,KOR,인천광역시,남동구,,간석동,,구월로137번길,32,355-6,2022-08-12 13:15:03,"쇼핑,편의||농축산물||육류||정육점||정육점-일반",False
11598,11599,4338702,코오롱정육점,,Kolon Butcher Shop,Shops and Service,Butcher,126.72594019999998,37.53138669999982,대한민국,KOR,KOR,인천광역시,계양구,,작전동,,봉오대로691번길,8,861-1,2022-08-24 14:41:06,"쇼핑,편의||농축산물||육류||정육점||정육점-일반",False
11615,11616,20184122,인천광역계란유통센터,인천계란유통센터,Incheon Metropolitan Egg Distribution Center,Shops and Service,Butcher,126.71744635741597,37.438213137445594,대한민국,KOR,KOR,인천광역시,남동구,,수산동,,호구포로625번길,8,203,2021-12-23 15:49:18,"쇼핑,편의||농축산물||육류||달걀",False
12986,12987,5677465,숙성고기, ,aged meat,Shops and Service,Butcher,126.7474219424774,37.42375812386807,대한민국,KOR,KOR,인천광역시,남동구,,서창동,,서창남순환로,200,702,2022-08-12 13:15:03,"쇼핑,편의||농축산물||육류||정육점||정육점-일반",False
13203,13204,2598445,뚱보섭이네정육점,,Fat Seop's Butcher Shop,Shops and Service,Butcher,126.7160796354849,37.463889319690175,대한민국,KOR,KOR,인천광역시,남동구,,간석동,,용천로168번길,35,224-540,2022-08-16 16:52:33,"쇼핑,편의||농축산물||육류||정육점||정육점-일반",False
13447,13448,2615771,현경축산,,Gyeonggyeong Livestock,Shops and Service,Butcher,126.73004757229592,37.45605000767527,대한민국,KOR,KOR,인천광역시,남동구,,만수동,,백범로157번길,15,883-28,2021-12-23 15:49:18,"쇼핑,편의||농축산물||육류||정육점||정육점-일반",False
13543,13544,27490330,강남한우직판장,,Gangnam Korean Beef Direct Market,Shops and Service,Butcher,126.67734497460188,37.55050599718312,대한민국,KOR,KOR,인천광역시,서구,,연희동,,서곶로,368,710,2022-08-19 9:48:28,"쇼핑,편의||농축산물||육류||정육점||정육점-일반",False
14334,14335,27222195,현대정육점,,Hyundai Butcher,Shops and Service,Butcher,126.6916841574359,37.45943170185466,대한민국,KOR,KOR,인천광역시,미추홀구,,주안동,,경원대로852번길,39,946-25,2022-08-12 13:15:03,"쇼핑,편의||농축산물||육류||정육점||정육점-일반",False
14634,14635,2608348,삼보정육점,,Sambo Butcher Shop,Shops and Service,Butcher,126.65974215742588,37.455750739813055,대한민국,KOR,KOR,인천광역시,미추홀구,,용현동,,수봉남로12번길,68,62-14,2022-08-24 14:41:06,"쇼핑,편의||농축산물||육류||정육점||정육점-일반",False
14762,14763,3131336,세담축산,,Sedam Livestock,Shops and Service,Butcher,126.67291980804399,37.41903049437008,대한민국,KOR,KOR,인천광역시,연수구,,청학동,,용담로50번길,5,469-11,2022-05-01 12:37:48,"쇼핑,편의||농축산물||육류||정육점||정육점-일반",False
14859,14860,27221018,우리총각네정육점 작전점,우리총각네 작전점,Our Bachelor's Butcher's Operation Store,Shops and Service,Butcher,126.72645789170193,37.52682107932771,대한민국,KOR,KOR,인천광역시,계양구,,작전동,,아나지로307번길,14,390-3,2022-08-12 13:15:03,"쇼핑,편의||농축산물||육류||정육점||정육점-일반",False
14971,14972,6232716,정미고깃간한우한돈전문,정미고깃간한우전문,Specialized in Korean beef and pork,Shops and Service,Butcher,126.67282910536888,37.44688539990936,대한민국,KOR,KOR,인천광역시,미추홀구,,주안동,,신기길30번길,70,850-40,2022-05-01 12:37:48,"쇼핑,편의||농축산물||육류||정육점||정육점-일반",False
14999,15000,5662679,한마음정육점,,Hanmaeum Butcher,Shops and Service,Butcher,126.6703508876759,37.55009045779551,대한민국,KOR,KOR,인천광역시,서구,,연희동,,대평로56번길,33,730-4,2022-08-24 14:41:06,"쇼핑,편의||농축산물||육류||정육점||정육점-일반",False
15368,15369,2602273,한우축산도매센터,한우축산도매센터,Hanwoo Livestock Wholesale Center,Shops and Service,Butcher,126.73444760346096,37.5278903270331,대한민국,KOR,KOR,인천광역시,계양구,,작전동,,효서로,344,645-10,2022-08-24 14:41:06,"쇼핑,편의||농축산물||육류||정육점||정육점-일반",False
15479,15480,3134440,안심연수축산,,safe training livestock,Shops and Service,Butcher,126.69313959999992,37.42185689999977,대한민국,KOR,KOR,인천광역시,연수구,,연수동,,원인재로,315,533,2022-08-16 16:52:33,"쇼핑,편의||농축산물||육류||정육점||정육점-일반",False
15486,15487,20201705,한국계란유통협회 인천지부,계란유통협회 인천지부,Korea Egg Distribution Association Incheon Branch,Shops and Service,Butcher,126.67450528074195,37.44570220778239,대한민국,KOR,KOR,인천광역시,미추홀구,,주안동,,인하로236번길,57,857-33,2021-12-23 15:49:18,"쇼핑,편의||농축산물||육류||달걀",False
15648,15649,4337318,싱싱한우촌,,Fresh Korean Beef Village,Shops and Service,Butcher,126.64545727811486,37.461264202982775,대한민국,KOR,KOR,인천광역시,미추홀구,,숭의동,,독배로462번길,55,170-12,2022-08-24 14:41:06,"쇼핑,편의||농축산물||육류||정육점||정육점-일반",False
16360,16361,5656101,누리미트,,nurimit,Shops and Service,Butcher,126.69475898500691,37.44839345177217,대한민국,KOR,KOR,인천광역시,남동구,,구월동,,문화서로23번길,32,1359-1,2021-12-23 15:49:18,"쇼핑,편의||농축산물||육류||정육점||정육점-일반",False
16369,16370,2618683,영춘정육점,영춘정육점,Youngchun Butcher,Shops and Service,Butcher,126.64712012319787,37.463457991611385,대한민국,KOR,KOR,인천광역시,미추홀구,,숭의동,,미추로36번길,7,190-53,2022-08-24 14:41:06,"쇼핑,편의||농축산물||육류||정육점||정육점-일반",False
16652,16653,20185425,준미트트레이딩,,Jun Meat trading,Shops and Service,Butcher,126.72869539856696,37.416244141725194,대한민국,KOR,KOR,인천광역시,남동구,,도림동,,오봉로10번길,3,634-2,2022-08-24 14:41:06,"쇼핑,편의||농축산물||육류||육류-일반",False
16720,16721,27228101,시장정육점,,market butcher shop,Shops and Service,Butcher,126.69539039999992,37.4736158999998,대한민국,KOR,KOR,인천광역시,부평구,,십정동,,배곶남로21번길,18,321,2022-08-16 16:52:33,"쇼핑,편의||농축산물||육류||정육점||정육점-일반",False
17011,17012,27048607,열린축산,,open livestock,Shops and Service,Butcher,126.64414862080352,37.45107478847841,대한민국,KOR,KOR,인천광역시,미추홀구,,용현동,,용정공원로,33,664,2022-08-16 16:52:33,"쇼핑,편의||농축산물||육류||정육점||정육점-일반",False
17017,17018,4328174,송림정육점,,Songlim Butcher Shop,Shops and Service,Butcher,126.64325639999996,37.4768939999998,대한민국,KOR,KOR,인천광역시,동구,,송림동,,샛골로161번길,23-1,55-20,2022-08-24 14:41:06,"쇼핑,편의||농축산물||육류||정육점||정육점-일반",False
17084,17085,5681261,다온축산,,Daon Livestock,Shops and Service,Butcher,126.6935648967179,37.44783286439916,대한민국,KOR,KOR,인천광역시,미추홀구,,관교동,,인하로411번길,35,316-9,2019-11-14 23:23:57,"쇼핑,편의||농축산물||육류||정육점||정육점-일반",False
17168,17169,4323171,한돈드림 성우축산본점,,Sungwoo Livestock  Headquarters,Shops and Service,Butcher,126.72150378012088,37.456214229823374,대한민국,KOR,KOR,인천광역시,남동구,,구월동,,백범로247번길,96,343-3,2022-08-16 16:52:33,"쇼핑,편의||농축산물||육류||정육점||정육점-일반",False
17717,17718,4346697,민승이네축산,,Minseung's Livestock,Shops and Service,Butcher,126.65661895427289,37.46345292038309,대한민국,KOR,KOR,인천광역시,미추홀구,,숭의동,,수봉로,29,29-23,2022-08-16 16:52:33,"쇼핑,편의||농축산물||육류||정육점||정육점-일반",False
18028,18029,27132919,황토축산물도매센타 강남시장점,,Yellow Earth Livestock Wholesale Center Gangnam Market Branch,Shops and Service,Butcher,126.67177463850588,37.51173821701557,대한민국,KOR,KOR,인천광역시,서구,,석남동,,강남로19번길,2,452-11,2022-08-16 16:52:33,"쇼핑,편의||농축산물||육류||정육점||정육점-일반",False
18117,18118,5681080,사강축산,,Sagang Livestock,Shops and Service,Butcher,126.6887487811759,37.47942442882429,대한민국,KOR,KOR,인천광역시,서구,,가좌동,,백범로622번길,34,480-17,2022-05-01 12:37:48,"쇼핑,편의||농축산물||육류||정육점||정육점-일반",False
18694,18695,4340366,풍경채축산,,landscape harvesting,Shops and Service,Butcher,126.64767020568854,37.538629319378686,대한민국,KOR,KOR,인천광역시,서구,,청라동,,청라한울로,95,115-1,2022-08-12 13:15:03,"쇼핑,편의||농축산물||육류||정육점||정육점-일반",False
18818,18819,5710778,초원축산물직거래장터,초원축산물장터,Chowon Livestock Products Direct Trading Market,Shops and Service,Butcher,126.65733743083992,37.466080851752075,대한민국,KOR,KOR,인천광역시,미추홀구,,숭의동,,경인로,134,58-3,2022-08-16 16:52:33,"쇼핑,편의||농축산물||육류||정육점||정육점-일반",False
19038,19039,27099963,육류상회 도화점,,Meat Market Dohwa Store,Shops and Service,Butcher,126.66543868686792,37.465263862691195,대한민국,KOR,KOR,인천광역시,미추홀구,,도화동,,경인로,203,601-1,2022-08-16 16:52:33,"쇼핑,편의||농축산물||육류||정육점||정육점-일반",False
19383,19384,2154027,유천정육점,,Yucheon Butcher Shop,Shops and Service,Butcher,126.65412961334988,37.45760502760696,대한민국,KOR,KOR,인천광역시,미추홀구,,용현동,,독정이로17번길,4,492-31,2019-11-14 23:28:28,"쇼핑,편의||농축산물||육류||정육점||정육점-일반",False
19457,19458,20052429,황토축산물도매센타 제물포점,황토축산물센타 제물포점,Loess Livestock Wholesale Center  Jemulpo Branch,Shops and Service,Butcher,126.65644559871488,37.464873888744464,대한민국,KOR,KOR,인천광역시,미추홀구,,숭의동,,수봉로,13-3,51-23,2022-08-16 16:52:33,"쇼핑,편의||농축산물||육류||정육점||정육점-일반",False
19543,19544,4341411,태산정육점,,Taesan Butcher Shop,Shops and Service,Butcher,126.70887329999988,37.469243999999776,대한민국,KOR,KOR,인천광역시,남동구,,간석동,,간석로5번길,24,74-2,2022-08-24 14:41:06,"쇼핑,편의||농축산물||육류||정육점||정육점-일반",False
19557,19558,4336654,우리동네고깃간,,Our Neighborhood Meat Gan,Shops and Service,Butcher,126.70363340739992,37.50664073924712,대한민국,KOR,KOR,인천광역시,부평구,,산곡동,,마장로,320,100-80,2022-08-16 16:52:33,"쇼핑,편의||농축산물||육류||정육점||정육점-일반",False
19790,19791,5672066,지우네한우마을,,Jiune Hanwoo Village,Shops and Service,Butcher,126.65964471242376,37.604436256918575,대한민국,KOR,KOR,인천광역시,서구,,마전동,,검단로487번길,26,928-9,2022-08-16 16:52:33,"쇼핑,편의||농축산물||육류||정육점||정육점-일반",False
20202,20203,5684875,홍재축산,,Hongjae Livestock,Shops and Service,Butcher,126.67885073731078,37.44709620991103,대한민국,KOR,KOR,인천광역시,미추홀구,,주안동,,미추홀대로,555,1315-17,2022-08-12 13:15:03,"쇼핑,편의||농축산물||육류||정육점||정육점-일반",False
20308,20309,27121950,천재축산,,genius livestock,Shops and Service,Butcher,126.72441480334494,37.5393319885071,대한민국,KOR,KOR,인천광역시,계양구,,계산동,,계산시장길,9,958-27,2022-05-01 12:37:48,"쇼핑,편의||농축산물||육류||육류-일반",False
20934,20935,4346724,참조은한우정육점,,See Eun Hanwoo Butcher Shop,Shops and Service,Butcher,126.70100471551288,37.5105784464031,대한민국,KOR,KOR,인천광역시,부평구,,산곡동,,산청로17번길,6,26-15,2022-08-24 14:41:06,"쇼핑,편의||농축산물||육류||정육점||정육점-일반",False
21008,21009,297008,대신축산,,Daishin Livestock,Shops and Service,Butcher,126.68813802655391,37.47924209509408,대한민국,KOR,KOR,인천광역시,서구,,가좌동,,가좌로96번길,31,477-4,2022-05-01 12:37:48,"쇼핑,편의||농축산물||육류||정육점||정육점-일반",False
21131,21132,6227140,청도축산,,Qingdao Livestock,Shops and Service,Butcher,126.67764675608188,37.44757996660248,대한민국,KOR,KOR,인천광역시,미추홀구,,주안동,,신기길15번길,17,1340-33,2022-08-24 14:41:06,"쇼핑,편의||농축산물||육류||정육점||정육점-일반",False
21234,21235,5724484,아빠정육점,,Dad's Butcher,Shops and Service,Butcher,126.6628344992209,37.47130960069338,대한민국,KOR,KOR,인천광역시,미추홀구,,도화동,,숙골로,102,1006-3,2022-08-24 14:41:06,"쇼핑,편의||농축산물||육류||정육점||정육점-일반",False
21406,21407,2595247,현대정육점,,Hyundai Butcher,Shops and Service,Butcher,126.73315635728495,37.48451134580909,대한민국,KOR,KOR,인천광역시,부평구,,부개동,,동수로128번길,8,444-3,2022-08-24 14:41:06,"쇼핑,편의||농축산물||육류||정육점||정육점-일반",False
21640,21641,2610284,우리축산물직거래장터,우리축산직거래장터,Woori Livestock Products Direct Trading Market,Shops and Service,Butcher,126.63412069999684,37.476772190001455,대한민국,KOR,KOR,인천광역시,동구,,송현동,,솔빛로,7,73-3,2022-08-12 13:15:03,"쇼핑,편의||농축산물||육류||정육점||정육점-일반",False
21808,21809,5660362,푸른축산물유통일신점,푸른축산유통일신점,Blue Livestock Products Distribution Ilshin store,Shops and Service,Butcher,126.74285837607196,37.484884526218394,대한민국,KOR,KOR,인천광역시,부평구,,일신동,,경인로1104번길,13-14,106-1,2022-08-24 14:41:06,"쇼핑,편의||농축산물||육류||정육점||정육점-일반",False
21892,21893,2150617,골드축산정육점,골드정육점,Gold Livestock butcher shop,Shops and Service,Butcher,126.65235229493788,37.458137824385865,대한민국,KOR,KOR,인천광역시,미추홀구,,용현동,,용삼길,49,492-96,2022-08-18 12:00:50,"쇼핑,편의||농축산물||육류||정육점||정육점-일반",False
21986,21987,4347798,성심축산물도매센터,,Seongsim Livestock Wholesale Center,Shops and Service,Butcher,126.72086332852588,37.537586966047115,대한민국,KOR,KOR,인천광역시,계양구,,계산동,,계산로80번길,2,986-37,2022-08-24 14:41:06,"쇼핑,편의||농축산물||육류||정육점||정육점-일반",False
22628,22629,2599027,시장정육점,,market butcher shop,Shops and Service,Butcher,126.72494169999996,37.53245619999982,대한민국,KOR,KOR,인천광역시,계양구,,작전동,,작전시장로,20,862-11,2022-09-06 15:18:26,"쇼핑,편의||농축산물||육류||정육점||정육점-일반",False
22677,22678,4348030,은성축산 검단점,,Eunseong Livestock Geomdanjeom,Shops and Service,Butcher,126.65333346706488,37.60216540535611,대한민국,KOR,KOR,인천광역시,서구,,왕길동,,봉수대로1440번길,45,634-1,2022-08-26 9:52:19,"쇼핑,편의||농축산물||육류||정육점||정육점-일반",False
22797,22798,5093027,축산물도매센터봄축산,봄축산,Livestock Wholesale Center spring livestock,Shops and Service,Butcher,126.73401891077054,37.53641814565528,대한민국,KOR,KOR,인천광역시,계양구,,계산동,,장제로,767,1069-3,2022-08-16 16:52:33,"쇼핑,편의||농축산물||육류||정육점||정육점-일반",False
22817,22818,4325234,명품한우정육점,,Luxury Korean Beef Butcher Shop,Shops and Service,Butcher,126.73993719999999,37.53750489999982,대한민국,KOR,KOR,인천광역시,계양구,,계산동,,계산새로,106,1084-2,2022-08-16 16:52:33,"쇼핑,편의||농축산물||육류||정육점||정육점-일반",False
24166,24167,4347332,한울축산 청천점,,Hanul Livestock Cheongcheon Branch,Shops and Service,Butcher,126.71783252363512,37.50633351694568,대한민국,KOR,KOR,인천광역시,부평구,,청천동,,부평대로167번길,54,301-23,2022-08-24 14:41:06,"쇼핑,편의||농축산물||육류||정육점||정육점-일반",False
24235,24236,20184493,왕손정육점,,Wangson Butcher Shop,Shops and Service,Butcher,126.72024082999698,37.54117635029072,대한민국,KOR,KOR,인천광역시,계양구,,계산동,,계산천서로24번길,7,975-1,2021-12-23 15:49:18,"쇼핑,편의||농축산물||육류||정육점||정육점-일반",False
24615,24616,27163792,고기조아정육점,,Meat Joa Butcher Shop,Shops and Service,Butcher,126.62217069477114,37.41545059545719,대한민국,KOR,KOR,인천광역시,연수구,,송도동,,랜드마크로,68,311-1,2022-08-16 16:52:33,"쇼핑,편의||농축산물||육류||정육점||정육점-일반",False
25214,25215,4339181,정직한총각네축산석남점,,Honest Bachelor 4 Livestock Farm Seoknam Branch,Shops and Service,Butcher,126.67866959999994,37.512808999999805,대한민국,KOR,KOR,인천광역시,서구,,석남동,,서달로,159,470-10,2022-08-16 16:52:33,"쇼핑,편의||농축산물||육류||정육점||정육점-일반",False
25279,25280,5658631,금강산정육점,,Geumgangsan Butcher Shop,Shops and Service,Butcher,126.68854379998788,37.479575084553474,대한민국,KOR,KOR,인천광역시,서구,,가좌동,,백범로622번길,31,477-3,2022-08-24 14:41:06,"쇼핑,편의||농축산물||육류||정육점||정육점-일반",False
25335,25336,5724464,두총각네축산 구월점,,Two Bachelors Four Livestock  Guwol Branch,Shops and Service,Butcher,126.7149786407579,37.45701539801888,대한민국,KOR,KOR,인천광역시,남동구,,구월동,,용천로,82,1241-1,2022-08-16 16:52:33,"쇼핑,편의||농축산물||육류||정육점||정육점-일반",False
25347,25348,27195954,인하정육,,Inha Meat,Shops and Service,Butcher,126.64657801711084,37.42448795119835,대한민국,KOR,KOR,인천광역시,연수구,,옥련동,,독배로40번길,29,462-136,2022-08-12 13:15:03,"쇼핑,편의||농축산물||육류||정육점||정육점-일반",False
25466,25467,5659252,평택계란축산,,Pyeongtaek Egg Livestock,Shops and Service,Butcher,126.6348345768238,37.451011447589465,대한민국,KOR,KOR,인천광역시,미추홀구,,용현동,,낙섬서로18번길,10,627-206,2021-12-23 15:49:18,"쇼핑,편의||농축산물||육류||달걀",False
25708,25709,2595940,제일축산,,Jeil Livestock,Shops and Service,Butcher,126.73010205693691,37.518346697811296,대한민국,KOR,KOR,인천광역시,부평구,,갈산동,,새갈로,6,37-4,2022-05-13 10:36:55,"쇼핑,편의||농축산물||육류||정육점||정육점-일반",False
26459,26460,5699317,일신축산,,Ilshin Livestock,Shops and Service,Butcher,126.74343802543495,37.48492047723407,대한민국,KOR,KOR,인천광역시,부평구,,일신동,,경인로1118번길,14-4,105-10,2022-08-24 14:41:06,"쇼핑,편의||농축산물||육류||정육점||정육점-일반",False
26876,26877,20200090,하나로미트,,Hanaro Meat,Shops and Service,Butcher,126.68682661723597,37.480235131507406,대한민국,KOR,KOR,인천광역시,서구,,가좌동,,열우물로197번길,8,476-12,2021-12-23 15:49:18,"쇼핑,편의||농축산물||육류||정육점||정육점-일반",False
27127,27128,27092144,선교축산,,missionary livestock,Shops and Service,Butcher,126.68817029999995,37.4787855999998,대한민국,KOR,KOR,인천광역시,서구,,가좌동,,가좌로96번길,36,481,2022-08-24 14:41:06,"쇼핑,편의||농축산물||육류||정육점||정육점-일반",False
27156,27157,5661598,광명한우촌,,Gwangmyeong Korean Beef Village,Shops and Service,Butcher,126.67105713633188,37.54360770009461,대한민국,KOR,KOR,인천광역시,서구,,심곡동,,승학로235번길,16,335-7,2022-05-01 12:37:48,"쇼핑,편의||농축산물||육류||정육점||정육점-일반",False
27325,27326,5700153,대박축산,,jackpot livestock,Shops and Service,Butcher,126.7113529009829,37.45271934165917,대한민국,KOR,KOR,인천광역시,남동구,,구월동,,구월남로,198,1214-1,2022-08-24 14:41:06,"쇼핑,편의||농축산물||육류||정육점||정육점-일반",False
27497,27498,4334957,대덕정육점,,Daedeok Butcher Shop,Shops and Service,Butcher,126.63019015054684,37.480368363851966,대한민국,KOR,KOR,인천광역시,동구,,화평동,,화도로,16,164-3,2022-08-24 14:41:06,"쇼핑,편의||농축산물||육류||정육점||정육점-일반",False
28167,28168,2598454,인천정육백화점,인천정육점,Incheon Butcher's Department Store,Shops and Service,Butcher,126.71491309932988,37.464476931035165,대한민국,KOR,KOR,인천광역시,남동구,,간석동,,용천로168번길,9,43-4,2022-08-24 14:41:06,"쇼핑,편의||농축산물||육류||정육점||정육점-일반",False
28724,28725,5670170,드림계란,,dream egg,Shops and Service,Butcher,126.6418400421198,37.536765544478186,대한민국,KOR,KOR,인천광역시,서구,,청라동,,청라루비로134번길,6-23,143-9,2022-08-12 13:15:03,"쇼핑,편의||농축산물||육류||달걀",False
29122,29123,6212339,참조은정육점,,See Eun Butcher,Shops and Service,Butcher,126.72490331869543,37.544125007520144,대한민국,KOR,KOR,인천광역시,계양구,,계산동,,하느재로5번길,2,931-47,2022-09-06 15:18:26,"쇼핑,편의||농축산물||육류||정육점||정육점-일반",False
29440,29441,27329895,상상축산,,Sangsang Livestock,Shops and Service,Butcher,126.71600129999987,37.59525259999983,대한민국,KOR,KOR,인천광역시,서구,,원당동,,이음5로,76,1030-7,2022-08-30 9:43:30,"쇼핑,편의||농축산물||육류||정육점||정육점-일반",False
29656,29657,5676230,천지정육점,,Cheonji Butcher Shop,Shops and Service,Butcher,126.65410954215788,37.5550553681524,대한민국,KOR,KOR,인천광역시,서구,,경서동,,경서로31번길,1,산165-13,2022-05-01 12:37:48,"쇼핑,편의||농축산물||육류||정육점||정육점-일반",False
29869,29870,5686566,신광계란,,Shin Kwang Egg,Shops and Service,Butcher,126.72613285680592,37.53577615605271,대한민국,KOR,KOR,인천광역시,계양구,,작전동,,계산로126번길,17,857-45,2022-08-24 14:41:06,"쇼핑,편의||농축산물||육류||달걀",False
29969,29970,26806718,더착한미트,,Sweeter Meat,Shops and Service,Butcher,126.779582230105,37.57847323362913,대한민국,KOR,KOR,인천광역시,계양구,,상야동,,벌말로566번길,7,16-8,2022-05-01 12:37:48,"쇼핑,편의||농축산물||육류||정육점||정육점-일반",False
30294,30295,3129488,고기천하,,meat world,Shops and Service,Butcher,126.70574199999994,37.48944199999979,대한민국,KOR,KOR,인천광역시,부평구,,산곡동,,마장로,121,370-399,2022-08-24 14:41:06,"쇼핑,편의||농축산물||육류||정육점||정육점-일반",False
30469,30470,3128168,원풍정육점,원풍정육점,Wonpung Butcher,Shops and Service,Butcher,126.6576431176979,37.42717620882036,대한민국,KOR,KOR,인천광역시,연수구,,옥련동,,한나루로,202-6,308-1,2022-08-16 16:52:33,"쇼핑,편의||농축산물||육류||정육점||정육점-일반",False
30547,30548,5712646,계란왕도매,계란도매,egg king wholesale,Shops and Service,Butcher,126.72526568300059,37.508064290780005,대한민국,KOR,KOR,인천광역시,부평구,,갈산동,,길주로565번길,13,379-5,2022-06-15 11:04:55,"쇼핑,편의||농축산물||육류||달걀",False
31124,31125,6233093,한우천하,,Hanwoo Cheonha,Shops and Service,Butcher,126.7156692226429,37.46308092899309,대한민국,KOR,KOR,인천광역시,남동구,,간석동,,백범로,307,22-8,2022-08-12 13:15:03,"쇼핑,편의||농축산물||육류||정육점||정육점-일반",False
31143,31144,4346544,한우리축산,,Hanwoori Livestock,Shops and Service,Butcher,126.742080210332,37.48503921767279,대한민국,KOR,KOR,인천광역시,부평구,,부개동,,경인로1104번길,14-1,328-15,2022-08-24 14:41:06,"쇼핑,편의||농축산물||육류||정육점||정육점-일반",False
31429,31430,5367019,제주축산물직매장,,Jeju Livestock Products direct store,Shops and Service,Butcher,126.62719530999992,37.4717421899998,대한민국,KOR,KOR,인천광역시,중구,,내동,,우현로49번길,20-3,213-3,2022-08-24 14:41:06,"쇼핑,편의||농축산물||육류||정육점||정육점-일반",False
31478,31479,5717990,버팔로유통,,Buffalo Distribution,Shops and Service,Butcher,126.68295168963088,37.5514750365292,대한민국,KOR,KOR,인천광역시,서구,,공촌동,,심곡로208번길,7,309-9,2022-05-01 12:37:48,"쇼핑,편의||농축산물||육류||정육점||정육점-일반",False
31548,31549,4337811,명성축산유통,,Myeongseong Livestock Distribution,Shops and Service,Butcher,126.68831624235888,37.47898751484748,대한민국,KOR,KOR,인천광역시,서구,,가좌동,,가좌로96번길,35,480-19,2022-05-01 12:37:48,"쇼핑,편의||농축산물||육류||정육점||정육점-일반",False
31589,31590,5725336,황금축산,,golden livestock,Shops and Service,Butcher,126.64036055817527,37.59731261568711,대한민국,KOR,KOR,인천광역시,서구,,왕길동,,단봉로,99,694-2,2022-08-16 16:52:33,"쇼핑,편의||농축산물||육류||정육점||정육점-일반",False
32353,32354,27255763,세이브정육,,save meat,Shops and Service,Butcher,126.62283808902085,37.48518128974612,대한민국,KOR,KOR,인천광역시,동구,,만석동,,화도진로,183,122,2022-08-16 16:52:33,"쇼핑,편의||농축산물||육류||정육점||정육점-일반",False
32826,32827,27367529,형아고기정육점,,hyungah butcher shop,Shops and Service,Butcher,126.70667584123238,37.58841905195571,대한민국,KOR,KOR,인천광역시,서구,,당하동,,,,983-3,2022-07-05 16:31:26,"쇼핑,편의||농축산물||육류||정육점||정육점-일반",False
33056,33057,20184010,조아미트,,joamit,Shops and Service,Butcher,126.66814388476789,37.47206698961489,대한민국,KOR,KOR,인천광역시,미추홀구,,도화동,,장고개로,46,84-2,2022-05-01 12:37:48,"쇼핑,편의||농축산물||육류||육류-일반",False
33579,33580,4323133,백두축산,,Baekdu Livestock,Shops and Service,Butcher,126.69555732597188,37.44618375191356,대한민국,KOR,KOR,인천광역시,남동구,,구월동,,문화서로,7,1393-12,2022-08-24 14:41:06,"쇼핑,편의||농축산물||육류||정육점||정육점-일반",False
33653,33654,27182688,푸드앤미트 모래내점,,Food and Meat Sandnae Store,Shops and Service,Butcher,126.72004097904292,37.45382689082516,대한민국,KOR,KOR,인천광역시,남동구,,구월동,,호구포로800번길,13,1264-33,2022-05-01 12:37:48,"쇼핑,편의||농축산물||육류||정육점||정육점-일반",False
33731,33732,4342493,충남정육점,,Chungnam Butcher Shop,Shops and Service,Butcher,126.69996586821387,37.50978390182799,대한민국,KOR,KOR,인천광역시,부평구,,산곡동,,길주로341번길,14,13-110,2022-08-24 14:41:06,"쇼핑,편의||농축산물||육류||정육점||정육점-일반",False
34120,34121,2154972,대영정육점,,Daeyoung Butcher Shop,Shops and Service,Butcher,126.67594152452688,37.45523531070497,대한민국,KOR,KOR,인천광역시,미추홀구,,주안동,,경인로326번길,75-1,549-4,2021-12-23 15:49:18,"쇼핑,편의||농축산물||육류||정육점||정육점-일반",False
34646,34647,4345767,대원정육점,,Daewon Butcher Shop,Shops and Service,Butcher,126.73986539505793,37.4988305690746,대한민국,KOR,KOR,인천광역시,부평구,,부개동,,부개로,14,501-3,2022-08-24 14:41:06,"쇼핑,편의||농축산물||육류||정육점||정육점-일반",False
35227,35228,4342634,대길축산,,Daegil Livestock,Shops and Service,Butcher,126.6651148105079,37.513625059768,대한민국,KOR,KOR,인천광역시,서구,,석남동,,새오개로,37,199-135,2022-08-24 14:41:06,"쇼핑,편의||농축산물||육류||정육점||정육점-일반",False
35485,35486,27554349,제일계란,,first egg,Shops and Service,Butcher,126.68656886381694,37.465480039749885,대한민국,KOR,KOR,인천광역시,미추홀구,,주안동,,석정로462번길,16,22-70,2022-09-06 15:18:26,"쇼핑,편의||농축산물||육류||달걀",False
35601,35602,27185602,정성미트,,Jeongseong Meat,Shops and Service,Butcher,126.6878179494829,37.479016191030496,대한민국,KOR,KOR,인천광역시,서구,,가좌동,,가좌로96번길,32,482-4,2022-08-16 16:52:33,"쇼핑,편의||농축산물||육류||육류-일반",False
36081,36082,4330702,대명정육축산,,Daemyung Butchers,Shops and Service,Butcher,126.66699367190289,37.446237751567054,대한민국,KOR,KOR,인천광역시,미추홀구,,학익동,,한나루로,438,288-1,2022-05-01 12:37:48,"쇼핑,편의||농축산물||육류||정육점||정육점-일반",False
36150,36151,20184142,윤성정육점,,Yunseong Butcher,Shops and Service,Butcher,126.69577357002696,37.429646455862176,대한민국,KOR,KOR,인천광역시,연수구,,선학동,,넘말로79번길,45,387,2021-12-23 15:49:18,"쇼핑,편의||농축산물||육류||정육점||정육점-일반",False
36402,36403,27501018,한미트,,Han Meat,Shops and Service,Butcher,126.73179550911895,37.44981234583988,대한민국,KOR,KOR,인천광역시,남동구,,만수동,,소래로669번길,47,981-1,2022-09-06 15:18:26,"쇼핑,편의||농축산물||육류||육류-일반",False
36550,36551,5367040,진솔축산, ,Jinsol Livestock,Shops and Service,Butcher,126.62790599999992,37.471595699999774,대한민국,KOR,KOR,인천광역시,중구,,신포동,,우현로49번길,7,2-1,2018-09-20 17:55:21,"쇼핑,편의||농축산물||육류||정육점||정육점-일반",False
37018,37019,3109530,총각네정육점,,Bachelor's butcher shop,Shops and Service,Butcher,126.62304740971985,37.485510721243855,대한민국,KOR,KOR,인천광역시,동구,,만석동,,화도진로,184-1,9-62,2022-08-24 14:41:06,"쇼핑,편의||농축산물||육류||정육점||정육점-일반",False
37279,37280,27162807,단 고기정육점,,sweet butcher shop,Shops and Service,Butcher,126.67175483436122,37.40645514111191,대한민국,KOR,KOR,인천광역시,연수구,,동춘동,,원인재로,59,932,2022-08-12 13:15:03,"쇼핑,편의||농축산물||육류||정육점||정육점-일반",False
37438,37439,5674777,에이미트인천남부총판,,Amit Incheon Southern Distributor,Shops and Service,Butcher,126.6765656571639,37.447730417726966,대한민국,KOR,KOR,인천광역시,미추홀구,,주안동,,신기길,10,1327-17,2022-05-01 12:37:48,"쇼핑,편의||농축산물||육류||정육점||정육점-일반",False
37479,37480,27222179,친절축산,,kind livestock,Shops and Service,Butcher,126.67815473853491,37.44688893499136,대한민국,KOR,KOR,인천광역시,미추홀구,,주안동,,신기길29번길,25,1341-54,2022-08-12 13:15:03,"쇼핑,편의||농축산물||육류||정육점||정육점-일반",False
37701,37702,5681845,비전축산,,non-livestock,Shops and Service,Butcher,126.74030359999996,37.53752889999982,대한민국,KOR,KOR,인천광역시,계양구,,계산동,,계산새로,110,1084-2,2022-08-24 14:41:06,"쇼핑,편의||농축산물||육류||정육점||정육점-일반",False
37808,37809,2157352,삼선정육점,,Samseon Butcher,Shops and Service,Butcher,126.26019259999958,37.79632609999992,대한민국,KOR,KOR,인천광역시,강화군,,교동면,삼선리,교동북로,234,452-5,2018-09-19 16:50:50,"쇼핑,편의||농축산물||육류||정육점||정육점-일반",False
37828,37829,5658267,심곡유통,,deep grain distribution,Shops and Service,Butcher,126.6725861065879,37.541658807604485,대한민국,KOR,KOR,인천광역시,서구,,심곡동,,승학로216번길,2,258,2022-08-24 14:41:06,"쇼핑,편의||농축산물||육류||닭||닭-일반",False
38146,38147,4331767,미산도매축산구월점,,Misan Wholesale Livestock Guwol Branch,Shops and Service,Butcher,126.71427970219688,37.44962219061426,대한민국,KOR,KOR,인천광역시,남동구,,구월동,,용천로,2,1221,2022-05-01 12:37:48,"쇼핑,편의||농축산물||육류||정육점||정육점-일반",False
38320,38321,2598080,태진축산유통,,Taejin Livestock Distribution,Shops and Service,Butcher,126.64463230495188,37.47274217875657,대한민국,KOR,KOR,인천광역시,동구,,송림동,,금곡로82번길,11,69-20,2022-08-24 14:41:06,"쇼핑,편의||농축산물||육류||정육점||정육점-일반",False
38369,38370,27160880,송이한우미트,,Songi Korean Beef Meat,Shops and Service,Butcher,126.68884379424888,37.473517474523085,대한민국,KOR,KOR,인천광역시,부평구,,십정동,,백범로577번길,25,557-32,2022-08-08 10:29:42,"쇼핑,편의||농축산물||육류||정육점||정육점-일반",False
38646,38647,3109597,솔터우물정육점,,salt well butcher shop,Shops and Service,Butcher,126.48437699999984,37.74699999999991,대한민국,KOR,KOR,인천광역시,강화군,,강화읍,신문리,강화대로,423-1,142-1,2022-08-24 14:41:06,"쇼핑,편의||농축산물||육류||정육점||정육점-일반",False
38651,38652,27154380,이거다도소매센터,,This is a wholesale retail center,Shops and Service,Butcher,126.73543659999999,37.44588279999978,대한민국,KOR,KOR,인천광역시,남동구,,만수동,,장승로,21,1080-1,2022-08-18 12:00:50,"쇼핑,편의||농축산물||육류||정육점||정육점-일반",False
38693,38694,27068318,신신정육점,,Shinshin butcher shop,Shops and Service,Butcher,126.67842400979688,37.44677108803698,대한민국,KOR,KOR,인천광역시,미추홀구,,주안동,,미추홀대로,553-63,1313-12,2022-08-18 12:00:50,"쇼핑,편의||농축산물||육류||정육점||정육점-일반",False
38877,38878,3109527,영남생고기전문점,,Yeongnam raw meat restaurant,Shops and Service,Butcher,126.62316999999992,37.48545699999979,대한민국,KOR,KOR,인천광역시,동구,,만석동,,화도진로,184-1,9-62,2022-08-18 12:00:50,"쇼핑,편의||농축산물||육류||정육점||정육점-일반",False
38915,38916,5669633,가좌한우축산,,Gajawa Hanwoo Livestock,Shops and Service,Butcher,126.6883486429929,37.47912211553087,대한민국,KOR,KOR,인천광역시,서구,,가좌동,,가좌로96번길,35,480-19,2022-08-24 14:41:06,"쇼핑,편의||농축산물||육류||정육점||정육점-일반",False
39151,39152,4344201,우리한우도매센터 청천점,,Woori Korean Beef Wholesale Center Cheongcheon Branch,Shops and Service,Butcher,126.70373297299987,37.51330538471069,대한민국,KOR,KOR,인천광역시,부평구,,산곡동,,마장로393번길,2,1-9,2022-08-16 16:52:33,"쇼핑,편의||농축산물||육류||육류-일반",False
39211,39212,4342677,우리한우우리돼지,,"Our Korean Beef, Our Pig",Shops and Service,Butcher,126.70606892473488,37.492427382600894,대한민국,KOR,KOR,인천광역시,부평구,,산곡동,,화랑남로,14,311-242,2022-08-18 12:00:50,"쇼핑,편의||농축산물||육류||정육점||정육점-일반",False
39992,39993,4324919,서인천축산,,Seoincheon Livestock,Shops and Service,Butcher,126.66428346054988,37.451527152074256,대한민국,KOR,KOR,인천광역시,미추홀구,,용현동,,한나루로489번길,54,68-37,2022-08-12 13:15:03,"쇼핑,편의||농축산물||육류||정육점||정육점-일반",False
40127,40128,5688206,주영정육점,,Jooyoung Butcher Shop,Shops and Service,Butcher,126.73018983895793,37.51850922775512,대한민국,KOR,KOR,인천광역시,부평구,,갈산동,,장제로373번길,37,37-1,2022-08-24 14:41:06,"쇼핑,편의||농축산물||육류||정육점||정육점-일반",False
40988,40989,3144604,대동생고기정육점,대동정육점,Daedongsaengmeat butcher shop,Shops and Service,Butcher,126.7148193712989,37.48227893069979,대한민국,KOR,KOR,인천광역시,부평구,,부평동,,경인로834번길,11,768-4,2022-08-24 14:41:06,"쇼핑,편의||농축산물||육류||정육점||정육점-일반",False
41462,41463,20168816,풍기미트,,Punggi Meat,Shops and Service,Butcher,126.74421232429196,37.542913301590126,대한민국,KOR,KOR,인천광역시,계양구,,용종동,,용마루5길,4-1,220-11,2021-12-23 15:49:18,"쇼핑,편의||농축산물||육류||정육점||정육점-일반",False
41521,41522,5685326,대한축산,,Korea Livestock,Shops and Service,Butcher,126.67554921153088,37.51229560811339,대한민국,KOR,KOR,인천광역시,서구,,석남동,,신석로121번길,27,463-11,2021-12-23 15:49:18,"쇼핑,편의||농축산물||육류||육류-일반",False
41530,41531,27184612,홍성광천한우,,Hongseong Gwangcheon Korean Beef,Shops and Service,Butcher,126.70386613456289,37.5091617061612,대한민국,KOR,KOR,인천광역시,부평구,,산곡동,,마장로,348,95-1,2022-08-16 16:52:33,"쇼핑,편의||농축산물||육류||정육점||정육점-일반",False
41789,41790,4335494,최고다푸줏간간석축산,간석축산,Best butcher's livestock,Shops and Service,Butcher,126.71128209999996,37.46073149999978,대한민국,KOR,KOR,인천광역시,남동구,,간석동,,석산로,175,153-6,2022-06-13 10:44:13,"쇼핑,편의||농축산물||육류||정육점||정육점-일반",False
41844,41845,2595264,목촌축산물도매센타,목촌축산물도매센터,Mokchon Livestock Products wholesale center,Shops and Service,Butcher,126.74870630373596,37.5206761049918,대한민국,KOR,KOR,인천광역시,부평구,,삼산동,,영성로,88,507-3,2022-08-24 14:41:06,"쇼핑,편의||농축산물||육류||정육점||정육점-일반",False
41879,41880,6480296,팔팔축산 계산점,,Palpal Livestock Gyeokjeom,Shops and Service,Butcher,126.73106105131792,37.542865570852015,대한민국,KOR,KOR,인천광역시,계양구,,계산동,,경명대로,1116,348-2,2022-08-24 14:41:06,"쇼핑,편의||농축산물||육류||정육점||정육점-일반",False
42032,42033,27222221,유천정육,,Yoochun Butcher,Shops and Service,Butcher,126.68128074739188,37.57263850404871,대한민국,KOR,KOR,인천광역시,서구,,시천동,,아라로51번길,6,144-10,2022-05-01 12:37:48,"쇼핑,편의||농축산물||육류||정육점||정육점-일반",False
42053,42054,4343103,한우마을,,Hanwoo Village,Shops and Service,Butcher,126.66515239999994,37.599990299999845,대한민국,KOR,KOR,인천광역시,서구,,마전동,,완정로92번길,13,652-13,2022-05-02 21:16:34,"쇼핑,편의||농축산물||육류||정육점||정육점-일반",False
42495,42496,20026608,승리정육점,,Victory Butcher,Shops and Service,Butcher,126.6561896206369,37.477686978606776,대한민국,KOR,KOR,인천광역시,미추홀구,,도화동,,연송로,49,886,2022-08-26 9:52:19,"쇼핑,편의||농축산물||육류||정육점||정육점-일반",False
42768,42769,5721119,신개념한우직판장 연안점,신개념한우직판장연안점,New concept Korean beef direct market Yeonan Branch,Shops and Service,Butcher,126.60382686338583,37.45437697085675,대한민국,KOR,KOR,인천광역시,중구,,항동7가,,연안부두로33번길,16,58-4,2022-08-16 16:52:33,"쇼핑,편의||농축산물||육류||정육점||정육점-일반",False
42883,42884,27424123,달인축산,,master livestock,Shops and Service,Butcher,126.71584559999988,37.59516999999983,대한민국,KOR,KOR,인천광역시,서구,,원당동,,이음5로,76,1030-7,2022-08-30 9:43:30,"쇼핑,편의||농축산물||육류||정육점||정육점-일반",False
42954,42955,20764264,팔팔축산,,Palpal Livestock,Shops and Service,Butcher,126.67363632658088,37.504806101597886,대한민국,KOR,KOR,인천광역시,서구,,석남동,,가정로224번길,13,543-31,2022-08-24 14:41:06,"쇼핑,편의||농축산물||육류||정육점||정육점-일반",False
42983,42984,5661405,아빠정육점,,Dad's Butcher,Shops and Service,Butcher,126.65311089999994,37.52948159999983,대한민국,KOR,KOR,인천광역시,서구,,청라동,,청라라임로,17,185-1,2022-08-16 16:52:33,"쇼핑,편의||농축산물||육류||정육점||정육점-일반",False
43400,43401,2622080,협진축산,,Cooperative Livestock,Shops and Service,Butcher,126.73569617926296,37.44575202545597,대한민국,KOR,KOR,인천광역시,남동구,,만수동,,장승로,25,1087,2022-08-16 16:52:33,"쇼핑,편의||농축산물||육류||정육점||정육점-일반",False
43671,43672,27038032,은혜축산,,Grace Livestock,Shops and Service,Butcher,126.67330476150195,37.49816153388081,대한민국,KOR,KOR,인천광역시,서구,,가좌동,,가정로152번길,12-5,114-21,2022-05-01 12:37:48,"쇼핑,편의||농축산물||육류||정육점||정육점-일반",False
43687,43688,5692524,믿음정육점,,Faith Butcher,Shops and Service,Butcher,126.70233239875787,37.517845231829895,대한민국,KOR,KOR,인천광역시,부평구,,청천동,,청중로,47,30-20,2022-05-01 12:37:48,"쇼핑,편의||농축산물||육류||정육점||정육점-일반",False
43923,43924,6221396,서호미트,,Seohomet,Shops and Service,Butcher,126.64137991521888,37.53695782174348,대한민국,KOR,KOR,인천광역시,서구,,청라동,,청라루비로134번길,8,143-2,2021-12-23 15:49:18,"쇼핑,편의||농축산물||육류||육류-일반",False
44008,44009,5936786,조아미트,,joamit,Shops and Service,Butcher,126.73249931533424,37.45051163068722,대한민국,KOR,KOR,인천광역시,남동구,,만수동,,하촌로,28-9,968-3,2022-08-16 16:52:33,"쇼핑,편의||농축산물||육류||정육점||정육점-일반",False
44061,44062,26878101,정육마트,,Butcher Mart,Shops and Service,Butcher,126.70204472659094,37.59678822340794,대한민국,KOR,KOR,인천광역시,서구,,원당동,,고산로40번길,11,848-5,2022-05-01 12:37:48,"쇼핑,편의||농축산물||육류||정육점||정육점-일반",False
44461,44462,4323312,축산물도매센타,,Livestock Wholesale Center,Shops and Service,Butcher,126.6902134918389,37.44887895826408,대한민국,KOR,KOR,인천광역시,미추홀구,,주안동,,경원대로,742,1572-12,2022-08-16 16:52:33,"쇼핑,편의||농축산물||육류||정육점||정육점-일반",False
44507,44508,27199579,개성육류백화점,,Kaesong Meat Department Store,Shops and Service,Butcher,126.63797984166884,37.45144626109136,대한민국,KOR,KOR,인천광역시,미추홀구,,용현동,,낙섬중로38번길,9,617-40,2022-08-16 16:52:33,"쇼핑,편의||농축산물||육류||정육점||정육점-일반",False
44950,44951,27224946,총각네정육점 스타미트,,Bachelor's butcher shop Star Meat,Shops and Service,Butcher,126.72523468835092,37.53251460921832,대한민국,KOR,KOR,인천광역시,계양구,,작전동,,작전시장로22번길,1,862-14,2022-05-01 12:37:48,"쇼핑,편의||농축산물||육류||정육점||정육점-일반",False
45105,45106,4350839,고고미트하우스,GOGO미트하우스,Gogo Meat House,Shops and Service,Butcher,126.69163844600088,37.44596444940686,대한민국,KOR,KOR,인천광역시,미추홀구,,관교동,,인하로406번길,32,472-2,2022-08-24 14:41:06,"쇼핑,편의||농축산물||육류||정육점||정육점-일반",False
45222,45223,4344964,두총각네축산 만수점,,"Two Bachelors, Four Livestock",Shops and Service,Butcher,126.73610856853396,37.463337275911385,대한민국,KOR,KOR,인천광역시,남동구,,만수동,,만수로75번길,26,5-188,2022-08-24 14:41:06,"쇼핑,편의||농축산물||육류||정육점||정육점-일반",False
45475,45476,4334154,두총각네축산학익점,,Two Bachelors Four Livestock Hakikjeom,Shops and Service,Butcher,126.67485321893588,37.43922329580548,대한민국,KOR,KOR,인천광역시,미추홀구,,학익동,,매소홀로,474,661-9,2022-05-01 12:37:48,"쇼핑,편의||농축산물||육류||정육점||정육점-일반",False
45495,45496,27127985,옥련축산물도매센터,,Ongnyeon Livestock Wholesale Center,Shops and Service,Butcher,126.64971754755884,37.42237851133287,대한민국,KOR,KOR,인천광역시,연수구,,옥련동,,한나루로,106,493-3,2022-08-12 13:15:03,"쇼핑,편의||농축산물||육류||정육점||정육점-일반",False
45668,45669,5662411,으뜸정육점,,top butcher shop,Shops and Service,Butcher,126.67057180030088,37.50836792777598,대한민국,KOR,KOR,인천광역시,서구,,석남동,,길주로75번길,20,515-10,2022-08-24 14:41:06,"쇼핑,편의||농축산물||육류||정육점||정육점-일반",False
46299,46300,4357541,찬승훈정육점,,Chan Seung-hoon Butcher Shop,Shops and Service,Butcher,126.74295653374392,37.54875302863541,대한민국,KOR,KOR,인천광역시,계양구,,병방동,,장제로940번길,16,108-3,2021-12-23 15:49:18,"쇼핑,편의||농축산물||육류||정육점||정육점-일반",False
46552,46553,4338004,우리동네고기촌,,Our Neighborhood Meat Village,Shops and Service,Butcher,126.67246072232288,37.495888848670575,대한민국,KOR,KOR,인천광역시,서구,,가좌동,,가정로126번길,7,140-40,2022-08-16 16:52:33,"쇼핑,편의||농축산물||육류||정육점||정육점-일반",False
47002,47003,1272709,소백축산물백화점,,Sobaek Livestock Department store,Shops and Service,Butcher,126.71078439999992,37.526907199999805,대한민국,KOR,KOR,인천광역시,계양구,,효성동,,안남로,491,320-12,2022-08-16 16:52:33,"쇼핑,편의||농축산물||육류||정육점||정육점-일반",False
47056,47057,3127308,한우고을축산,,Hanwoo Goeul Livestock,Shops and Service,Butcher,126.65201364915784,37.60209660393083,대한민국,KOR,KOR,인천광역시,서구,,왕길동,,봉수대로1440번안길,3-1,647-2,2022-08-24 14:41:06,"쇼핑,편의||농축산물||육류||정육점||정육점-일반",False
47801,47802,3445491,주안축산,,Juan Livestock,Shops and Service,Butcher,126.67966054310187,37.46731860532628,대한민국,KOR,KOR,인천광역시,미추홀구,,주안동,,길파로,16-1,15-45,2022-08-12 13:15:03,"쇼핑,편의||농축산물||육류||정육점||정육점-일반",False
47946,47947,5696250,율솔계란,,yulsol Egg,Shops and Service,Butcher,126.72319273998993,37.451938297292166,대한민국,KOR,KOR,인천광역시,남동구,,구월동,,구월남로,302,1302-17,2022-08-24 14:41:06,"쇼핑,편의||농축산물||육류||달걀",False
48130,48131,27330301,올바른 정육점,,the right butcher,Shops and Service,Butcher,126.67057406929388,37.5226441624357,대한민국,KOR,KOR,인천광역시,서구,,가정동,,,,478-3,2022-08-30 9:43:30,"쇼핑,편의||농축산물||육류||정육점||정육점-일반",False
48210,48211,3113604,시민정육점,,Citizen Butcher Shop,Shops and Service,Butcher,126.65218606135188,37.47943204428427,대한민국,KOR,KOR,인천광역시,동구,,송림동,,송향로,10,4-97,2022-05-01 12:37:48,"쇼핑,편의||농축산물||육류||정육점||정육점-일반",False
48430,48431,5367033,신포정육점, ,SinpoButcher Shop,Shops and Service,Butcher,126.62769429999992,37.4716023999998,대한민국,KOR,KOR,인천광역시,중구,,신포동,,우현로49번길,11,3-14,2022-08-12 13:15:03,"쇼핑,편의||농축산물||육류||정육점||정육점-일반",False
48493,48494,2603817,대영정육마트,대영마트,Daeyoung Meat Mart,Shops and Service,Butcher,126.67228093711687,37.494503569984,대한민국,KOR,KOR,인천광역시,서구,,가좌동,,가정로112번길,6,145-62,2022-08-24 14:41:06,"쇼핑,편의||농축산물||육류||정육점||정육점-일반",False
48690,48691,3272269,맑은농장 정육점,,Sunny Farm Butcher,Shops and Service,Butcher,126.65219633939196,37.559203191829454,대한민국,KOR,KOR,인천광역시,서구,,경서동,,도요지로,17,723-1,2022-08-16 16:52:33,"쇼핑,편의||농축산물||육류||정육점||정육점-일반",False
48695,48696,5096860,두총각네축산 검암점,,Two Bachelors Four Livestock  Geomam Branch,Shops and Service,Butcher,126.67363941721288,37.5637693407104,대한민국,KOR,KOR,인천광역시,서구,,검암동,,승학로,470,627-1,2022-08-16 16:52:33,"쇼핑,편의||농축산물||육류||정육점||정육점-일반",False
48852,48853,4339516,홍천명품한우마을,홍천한우마을,Hongcheon Luxury  Hanwoo Village,Shops and Service,Butcher,126.72598306128393,37.5334090676287,대한민국,KOR,KOR,인천광역시,계양구,,작전동,,봉오대로691번길,30,860-2,2022-05-01 12:37:48,"쇼핑,편의||농축산물||육류||정육점||정육점-일반",False
48915,48916,3128381,의성유통,,Uiseong Distribution,Shops and Service,Butcher,126.6967691501059,37.46939283112117,대한민국,KOR,KOR,인천광역시,부평구,,십정동,,백범로,491,448-12,2022-08-18 12:00:50,"쇼핑,편의||농축산물||육류||닭||닭-일반",False
49248,49249,2595277,한울축산삼산점,,Hanul Livestock Samsan branch,Shops and Service,Butcher,126.73785953540396,37.5194276750456,대한민국,KOR,KOR,인천광역시,부평구,,삼산동,,후정동로,21,204-4,2022-08-24 14:41:06,"쇼핑,편의||농축산물||육류||정육점||정육점-일반",False
49287,49288,5663275,선학축산,,Seonhak Livestock,Shops and Service,Butcher,126.69352433837494,37.423462178147446,대한민국,KOR,KOR,인천광역시,연수구,,선학동,,학나래로5번길,53,368,2022-08-12 13:15:03,"쇼핑,편의||농축산물||육류||정육점||정육점-일반",False
49339,49340,27501364,희복축산,,Heebok Livestock,Shops and Service,Butcher,126.68763530832094,37.478737972902096,대한민국,KOR,KOR,인천광역시,서구,,가좌동,,백범로622번길,19,482-5,2022-08-30 9:43:30,"쇼핑,편의||농축산물||육류||정육점||정육점-일반",False
49374,49375,5674599,전국축산,,National Livestock,Shops and Service,Butcher,126.72399116773492,37.532684143571394,대한민국,KOR,KOR,인천광역시,계양구,,작전동,,작전시장로,11,854-15,2022-08-12 13:15:03,"쇼핑,편의||농축산물||육류||정육점||정육점-일반",False
49382,49383,3126345,마니마니정육점,,Mani Mani butcher shop,Shops and Service,Butcher,126.68162159594888,37.41872829867256,대한민국,KOR,KOR,인천광역시,연수구,,연수동,,새말로107번길,6,577,2022-08-16 16:52:33,"쇼핑,편의||농축산물||육류||정육점||정육점-일반",False
49471,49472,27222488,시골축산도매,,rural livestock wholesale,Shops and Service,Butcher,126.68382591818686,37.4940041055783,대한민국,KOR,KOR,인천광역시,서구,,가좌동,,원적로96번길,16,30-45,2022-08-16 16:52:33,"쇼핑,편의||농축산물||육류||정육점||정육점-일반",False
50027,50028,4356832,한우리축산,,Hanwoori Livestock,Shops and Service,Butcher,126.68589124275488,37.61208619323772,대한민국,KOR,KOR,인천광역시,서구,,불로동,,검단로744번1길,20,794-1,2022-08-16 16:52:33,"쇼핑,편의||농축산물||육류||정육점||정육점-일반",False
50273,50274,5671594,주원축산,,Juwon Livestock,Shops and Service,Butcher,126.74248110234895,37.48497720813591,대한민국,KOR,KOR,인천광역시,부평구,,일신동,,경인로1104번길,13-4,106-31,2022-08-12 13:15:03,"쇼핑,편의||농축산물||육류||정육점||정육점-일반",False
50618,50619,3107590,사계절고기백화점,,Seasonal meat Department store,Shops and Service,Butcher,126.48459767395468,37.746966332963424,대한민국,KOR,KOR,인천광역시,강화군,,강화읍,신문리,강화대로,423,141-1,2022-08-24 14:41:06,"쇼핑,편의||농축산물||육류||정육점||정육점-일반",False
50935,50936,6209908,제일도매축산,제일축산,Jeil Wholesale Livestock,Shops and Service,Butcher,126.74467578148393,37.48466697720989,대한민국,KOR,KOR,인천광역시,부평구,,일신동,,일신로8번길,20,109-38,2022-08-16 16:52:33,"쇼핑,편의||농축산물||육류||정육점||정육점-일반",False
51033,51034,5686361,환영축산유통,환영유통,Welcome Livestock Distribution,Shops and Service,Butcher,126.74101918687295,37.4916455882242,대한민국,KOR,KOR,인천광역시,부평구,,부개동,,수변로52번길,7-11,493-5,2022-05-01 12:37:48,"쇼핑,편의||농축산물||육류||정육점||정육점-일반",False
51079,51080,5667013,현대축산 송현점,,Hyundai Livestock Songhyeon Branch,Shops and Service,Butcher,126.63379210266083,37.47663038231487,대한민국,KOR,KOR,인천광역시,동구,,송현동,,솔빛로,4,99-12,2022-08-24 14:41:06,"쇼핑,편의||농축산물||육류||정육점||정육점-일반",False
51324,51325,4332673,오뚜기정육점,,Ottogi Butcher Shop,Shops and Service,Butcher,126.7106937982039,37.448959312616886,대한민국,KOR,KOR,인천광역시,남동구,,구월동,,인주대로,664,279-3,2022-08-24 14:41:06,"쇼핑,편의||농축산물||육류||정육점||정육점-일반",False
51657,51658,4349867,선진포크 인천북부대리점,선진포크경인미트,Sunjin Fork  Incheon Bukbu Agency,Shops and Service,Butcher,126.74359296647295,37.542656824443206,대한민국,KOR,KOR,인천광역시,계양구,,용종동,,용마루4길,1,222-6,2022-08-16 16:52:33,"쇼핑,편의||농축산물||육류||정육점||정육점-일반",False
51673,51674,2612014,까치정육점,,magpie butcher shop,Shops and Service,Butcher,126.64311476108588,37.45456479081936,대한민국,KOR,KOR,인천광역시,미추홀구,,용현동,,낙섬동로,101-4,556-53,2022-05-01 12:37:48,"쇼핑,편의||농축산물||육류||정육점||정육점-일반",False
52303,52304,27245175,부흥정육점,,Buheung Butcher Shop,Shops and Service,Butcher,126.72612355999992,37.4971915999998,대한민국,KOR,KOR,인천광역시,부평구,,부평동,,부흥로304번길,27,252-35,2022-05-01 12:37:48,"쇼핑,편의||농축산물||육류||정육점||정육점-일반",False
52365,52366,5661119,황해닭유통,,Yellow Sea Chicken Distribution,Shops and Service,Butcher,126.63249605644384,37.48004540665047,대한민국,KOR,KOR,인천광역시,동구,,화평동,,송화로,33,3-124,2022-08-24 14:41:06,"쇼핑,편의||농축산물||육류||닭||닭-일반",False
52533,52534,5722710,정일품정육점,,Jung Il Pum Butcher Shop,Shops and Service,Butcher,126.7120017333449,37.448902392616176,대한민국,KOR,KOR,인천광역시,남동구,,구월동,,인주대로676번길,10,276-1,2022-08-12 13:15:03,"쇼핑,편의||농축산물||육류||정육점||정육점-일반",False
52682,52683,2150593,남대문정육점,,NamdaemunButcher Shop,Shops and Service,Butcher,126.65021472430988,37.45767231403687,대한민국,KOR,KOR,인천광역시,미추홀구,,용현동,,용삼길9번길,8,459-6,2022-08-24 14:41:06,"쇼핑,편의||농축산물||육류||정육점||정육점-일반",False
52722,52723,4361778,그린정육,,green meat,Shops and Service,Butcher,126.72872991824192,37.5097920886577,대한민국,KOR,KOR,인천광역시,부평구,,갈산동,,갈월동로29번길,8,370-11,2022-08-24 14:41:06,"쇼핑,편의||농축산물||육류||정육점||정육점-일반",False
52952,52953,4335518,미추홀축산물도소매 동인천점,미추홀축산물 동인천점,Michuhol Livestock Wholesale and Retail  Dongincheon Branch,Shops and Service,Butcher,126.62959441075982,37.47359407026188,대한민국,KOR,KOR,인천광역시,중구,,인현동,,우현로,71-1,58-1,2022-08-16 16:52:33,"쇼핑,편의||농축산물||육류||정육점||정육점-일반",False
53116,53117,4337870,이거다축산 청라3호점, ,This is the livestock  Cheongna 3rd branch,Shops and Service,Butcher,126.64477219999986,37.5289421999998,대한민국,KOR,KOR,인천광역시,서구,,청라동,,청라커낼로,232,184-1,2022-08-16 16:52:33,"쇼핑,편의||농축산물||육류||정육점||정육점-일반",False
53679,53680,27049603,골드축산,,Gold Livestock,Shops and Service,Butcher,126.73869115747895,37.54780669772372,대한민국,KOR,KOR,인천광역시,계양구,,병방동,,병방시장로,62-1,392,2022-08-18 12:00:50,"쇼핑,편의||농축산물||육류||정육점||정육점-일반",False
53738,53739,2157336,연안정육점,,Coastal Butcher Shop,Shops and Service,Butcher,126.28045809999963,37.78257349999991,대한민국,KOR,KOR,인천광역시,강화군,,교동면,대룡리,대룡안길54번길,44-13,944-10,2022-08-18 12:00:50,"쇼핑,편의||농축산물||육류||정육점||정육점-일반",False
53740,53741,6226840,한우마을,,Hanwoo Village,Shops and Service,Butcher,126.66566944541178,37.45228409339752,대한민국,KOR,KOR,인천광역시,미추홀구,,용현동,,한나루로501번길,34,70-35,2022-08-16 16:52:33,"쇼핑,편의||농축산물||육류||정육점||정육점-일반",False
53913,53914,4335199,싱싱생고기정육점,싱싱정육점,fresh meat butcher shop,Shops and Service,Butcher,126.70928355287688,37.4872711543949,대한민국,KOR,KOR,인천광역시,부평구,,부평동,,경원대로1240번길,14,282-1,2022-05-01 12:37:48,"쇼핑,편의||농축산물||육류||정육점||정육점-일반",False
54868,54869,6219107,강화계란도소매,,Fortified Egg Wholesale,Shops and Service,Butcher,126.72611392318692,37.50412136962901,대한민국,KOR,KOR,인천광역시,부평구,,부평동,,주부토로104번길,10,10-252,2022-05-01 12:37:48,"쇼핑,편의||농축산물||육류||달걀",False
54871,54872,4342842,도인축산,,Doin Livestock,Shops and Service,Butcher,126.72554632900491,37.54542406478121,대한민국,KOR,KOR,인천광역시,계양구,,계산동,,하느재로20번길,3-1,925-19,2022-08-24 14:41:06,"쇼핑,편의||농축산물||육류||정육점||정육점-일반",False
55424,55425,27224827,지유축산,,fat livestock,Shops and Service,Butcher,126.68326355668988,37.49428339398438,대한민국,KOR,KOR,인천광역시,서구,,가좌동,,원적로96번길,10,30-43,2022-08-16 16:52:33,"쇼핑,편의||농축산물||육류||정육점||정육점-일반",False
55533,55534,5367034,우리돈축산정육점, ,Woori pork butcher shop,Shops and Service,Butcher,126.62768805999993,37.47174788999979,대한민국,KOR,KOR,인천광역시,중구,,내동,,우현로49번길,12,212-5,2022-08-24 14:41:06,"쇼핑,편의||농축산물||육류||정육점||정육점-일반",False
55812,55813,27179170,제이미트,,Jamiet,Shops and Service,Butcher,126.6894789837889,37.46323318960557,대한민국,KOR,KOR,인천광역시,미추홀구,,주안동,,경원대로,901,969-7,2022-05-01 12:37:48,"쇼핑,편의||농축산물||육류||정육점||정육점-일반",False
56210,56211,4332849,365축산,삼육오축산,365 Livestock,Shops and Service,Butcher,126.72084849999987,37.46320339999978,대한민국,KOR,KOR,인천광역시,남동구,,간석동,,호구포로900번길,5,918-5,2022-08-24 14:41:06,"쇼핑,편의||농축산물||육류||정육점||정육점-일반",False
56569,56570,4335062,정육돈쓰리,,3 meat pork,Shops and Service,Butcher,126.67048051820328,37.510632219408976,대한민국,KOR,KOR,인천광역시,서구,,석남동,,신석로,71,446,2022-08-12 13:15:03,"쇼핑,편의||농축산물||육류||정육점||정육점-일반",False
56691,56692,4338688,자연품은우인닭유통,우인닭유통,Distribution of natural products,Shops and Service,Butcher,126.72738776738092,37.4959409843002,대한민국,KOR,KOR,인천광역시,부평구,,부평동,,부흥로334번길,57,222-5,2022-08-16 16:52:33,"쇼핑,편의||농축산물||육류||닭||닭-일반",False
57100,57101,5667939,바른정육점,,Barun Butcher,Shops and Service,Butcher,126.66867249112588,37.59675652734052,대한민국,KOR,KOR,인천광역시,서구,,마전동,,완정로,54,1000-10,2022-08-16 16:52:33,"쇼핑,편의||농축산물||육류||정육점||정육점-일반",False
57945,57946,27069242,하이앤축산,,Hi & Livestock,Shops and Service,Butcher,126.72106883503392,37.45227095846189,대한민국,KOR,KOR,인천광역시,남동구,,구월동,,구월남로,283,1270-10,2022-08-12 13:15:03,"쇼핑,편의||농축산물||육류||정육점||정육점-일반",False
57985,57986,5698029,태근이네정육점,,Taegeun's butcher shop,Shops and Service,Butcher,126.7074080054929,37.50649046140639,대한민국,KOR,KOR,인천광역시,부평구,,산곡동,,마장로324번길,70,124-87,2022-08-16 16:52:33,"쇼핑,편의||농축산물||육류||정육점||정육점-일반",False
58370,58371,2601135,수도정육점,,water butcher shop,Shops and Service,Butcher,126.72519501592592,37.4978120518825,대한민국,KOR,KOR,인천광역시,부평구,,부평동,,주부토로,32,372-19,2022-08-24 14:41:06,"쇼핑,편의||농축산물||육류||정육점||정육점-일반",False
59091,59092,20184375,주영축산유통,,State Livestock Distribution,Shops and Service,Butcher,126.68973287941596,37.520171024687215,대한민국,KOR,KOR,인천광역시,부평구,,청천동,,청농로,35,59-1,2021-12-23 15:49:18,"쇼핑,편의||농축산물||육류||육류-일반",False
59198,59199,27229044,한국유통정육,,Korean meat distribution,Shops and Service,Butcher,126.75051449460796,37.515889565933,대한민국,KOR,KOR,인천광역시,부평구,,삼산동,,평천로,540,106-39,2022-08-24 14:41:06,"쇼핑,편의||농축산물||육류||정육점||정육점-일반",False
59848,59849,5691178,제일계란,,first egg,Shops and Service,Butcher,126.67676486426312,37.46960175834997,대한민국,KOR,KOR,인천광역시,미추홀구,,주안동,,염전로334번길,26,10-59,2022-05-01 12:37:48,"쇼핑,편의||농축산물||육류||달걀",False
59883,59884,4336168,인영축산,,Inyoung Livestock,Shops and Service,Butcher,126.68856337753888,37.47959477451958,대한민국,KOR,KOR,인천광역시,서구,,가좌동,,백범로622번길,31,477-3,2022-05-01 12:37:48,"쇼핑,편의||농축산물||육류||정육점||정육점-일반",False
60168,60169,4332082,보혜정육점,,Bohye Butcher Shop,Shops and Service,Butcher,126.71885832888466,37.48766143911078,대한민국,KOR,KOR,인천광역시,부평구,,부평동,,경인로891번길,40,751-54,2022-08-26 9:52:19,"쇼핑,편의||농축산물||육류||정육점||정육점-일반",False
60199,60200,2615064,명품도매축산센타,,luxury wholesale Livestock Center,Shops and Service,Butcher,126.74801039484396,37.52061505365862,대한민국,KOR,KOR,인천광역시,부평구,,삼산동,,영성로,82,507,2022-08-24 14:41:06,"쇼핑,편의||농축산물||육류||정육점||정육점-일반",False
60380,60381,3439207,에이스미트,,ace mit,Shops and Service,Butcher,126.72215235323092,37.40352507984166,대한민국,KOR,KOR,인천광역시,남동구,,논현동,,논현로,145,618-1,2022-08-16 16:52:33,"쇼핑,편의||농축산물||육류||정육점||정육점-일반",False
60926,60927,4338395,SK축산 논현점,에스케이축산논현점,SK Livestock Nonhyeon Branch,Shops and Service,Butcher,126.72447927165292,37.40164834867416,대한민국,KOR,KOR,인천광역시,남동구,,논현동,,논고개로,118,616-2,2022-08-24 14:41:06,"쇼핑,편의||농축산물||육류||정육점||정육점-일반",False
61062,61063,4326584,석이네축산,,Seokine Livestock,Shops and Service,Butcher,126.68343648593688,37.465382577975056,대한민국,KOR,KOR,인천광역시,미추홀구,,주안동,,염창로,84-3,31-15,2022-08-24 14:41:06,"쇼핑,편의||농축산물||육류||정육점||정육점-일반",False
61446,61447,20203033,믿음축산,,faith livestock,Shops and Service,Butcher,126.73805497134099,37.454248307963496,대한민국,KOR,KOR,인천광역시,남동구,,만수동,,인수북로4번길,1,63,2022-08-24 14:41:06,"쇼핑,편의||농축산물||육류||육류-일반",False
61738,61739,3260811,우리정육점,,our butcher shop,Shops and Service,Butcher,126.65663038568675,37.53740589426536,대한민국,KOR,KOR,인천광역시,서구,,청라동,,청라에메랄드로,134,130-4,2022-08-16 16:52:33,"쇼핑,편의||농축산물||육류||정육점||정육점-일반",False
62167,62168,4340951,막뚱이정육점,,makttung butcher shop,Shops and Service,Butcher,126.70328419999991,37.499537599999805,대한민국,KOR,KOR,인천광역시,부평구,,산곡동,,마장로220번길,13,222,2022-08-16 16:52:33,"쇼핑,편의||농축산물||육류||정육점||정육점-일반",False
62527,62528,4346415,신황금축산,,New Golden Livestock,Shops and Service,Butcher,126.69653798194092,37.472734610962696,대한민국,KOR,KOR,인천광역시,부평구,,십정동,,배곶로,51,319,2022-08-24 14:41:06,"쇼핑,편의||농축산물||육류||정육점||정육점-일반",False
62535,62536,4361064,해드림정육점,명품한우보성녹돈해드림정육점,Hadream Butcher,Shops and Service,Butcher,126.68077589583488,37.5491595877831,대한민국,KOR,KOR,인천광역시,서구,,연희동,,간촌로31번길,2,703-7,2022-08-24 14:41:06,"쇼핑,편의||농축산물||육류||정육점||정육점-일반",False
62824,62825,5721806,대박축산물,,jackpot livestock,Shops and Service,Butcher,126.67947101174288,37.468041713917565,대한민국,KOR,KOR,인천광역시,미추홀구,,주안동,,길파로,25,14-40,2022-08-24 14:41:06,"쇼핑,편의||농축산물||육류||정육점||정육점-일반",False
63102,63103,5671441,친절한 정육점,,friendly butcher shop,Shops and Service,Butcher,126.73255407220992,37.49969977449209,대한민국,KOR,KOR,인천광역시,부평구,,부평동,,장제로160번길,27,118-12,2022-08-12 13:15:03,"쇼핑,편의||농축산물||육류||정육점||정육점-일반",False
63141,63142,2613463,장터정육점,,Market Butcher Shop,Shops and Service,Butcher,126.68278683335689,37.44942161748448,대한민국,KOR,KOR,인천광역시,미추홀구,,주안동,,미추홀대로586번길,51,1489-34,2022-08-12 13:15:03,"쇼핑,편의||농축산물||육류||정육점||정육점-일반",False
64738,64739,5308795,시원미트,,SiwonMeat,Shops and Service,Butcher,126.63430499982483,37.61043490042973,대한민국,KOR,KOR,인천광역시,서구,,금곡동,,소담2로,36,745-17,2022-05-01 12:37:48,"쇼핑,편의||농축산물||육류||정육점||정육점-일반",False
64765,64766,4338455,하이축산논현점,,high livestock Nonhyeon Branch,Shops and Service,Butcher,126.7253465345049,37.39836211719454,대한민국,KOR,KOR,인천광역시,남동구,,논현동,,앵고개로847번길,50,744-3,2022-05-01 12:37:48,"쇼핑,편의||농축산물||육류||정육점||정육점-일반",False
64870,64871,3659093,강남축산물도소매센타,강남축산물센타,Gangnam Livestock Products Wholesale and Retail Center,Shops and Service,Butcher,126.48547222250068,37.639716795653605,대한민국,KOR,KOR,인천광역시,강화군,,길상면,온수리,마니산로,65,436-18,2022-05-01 12:37:48,"쇼핑,편의||농축산물||육류||정육점||정육점-일반",False
64976,64977,5660633,우진정육점,,Woojin Butcher,Shops and Service,Butcher,126.73909399999998,37.54494439999982,대한민국,KOR,KOR,인천광역시,계양구,,병방동,,장제로,876,432-5,2022-08-12 13:15:03,"쇼핑,편의||농축산물||육류||정육점||정육점-일반",False
65299,65300,27065289,초록한우,,Green Korean Beef,Shops and Service,Butcher,126.61238575018211,37.414089935481435,대한민국,KOR,KOR,인천광역시,연수구,,송도동,,랜드마크로,160,308-1,2022-08-12 13:15:03,"쇼핑,편의||농축산물||육류||정육점||정육점-일반",False
65785,65786,5694734,일등축산,,first-class livestock,Shops and Service,Butcher,126.68158489372088,37.42584213460756,대한민국,KOR,KOR,인천광역시,연수구,,연수동,,함박로,37-1,502-16,2022-08-24 14:41:06,"쇼핑,편의||농축산물||육류||정육점||정육점-일반",False
66104,66105,5366944,항도정육점, ,Hango Butcher Shop,Shops and Service,Butcher,126.62672470999992,37.47149466999979,대한민국,KOR,KOR,인천광역시,중구,,신포동,,우현로49번길,29,9-6,2022-05-01 12:37:48,"쇼핑,편의||농축산물||육류||정육점||정육점-일반",False
66154,66155,5667945,한일축산,,Korean and Japanese Livestock,Shops and Service,Butcher,126.68827113313388,37.47874456524357,대한민국,KOR,KOR,인천광역시,서구,,가좌동,,가좌로96번길,36,481,2022-08-24 14:41:06,"쇼핑,편의||농축산물||육류||정육점||정육점-일반",False
66439,66440,3167901,삼화정육백화점,,Samhwa Jeongyuk Department Store,Shops and Service,Butcher,126.63453461022686,37.47597078009616,대한민국,KOR,KOR,인천광역시,동구,,송현동,,화도진로34번길,3,88-26,2022-05-01 12:37:48,"쇼핑,편의||농축산물||육류||정육점||정육점-일반",False
66600,66601,4339841,다솔축산,,Dasol Livestock,Shops and Service,Butcher,126.72869323614093,37.45664928189256,대한민국,KOR,KOR,인천광역시,남동구,,만수동,,백범로169번길,21,882-35,2022-08-24 14:41:06,"쇼핑,편의||농축산물||육류||정육점||정육점-일반",False
66883,66884,4357676,성재미트,,Sung Jae Meat,Shops and Service,Butcher,126.69360784258288,37.444689452000965,대한민국,KOR,KOR,인천광역시,미추홀구,,관교동,,경원대로716번길,80,486,2022-08-16 16:52:33,"쇼핑,편의||농축산물||육류||정육점||정육점-일반",False
66991,66992,4339845,초원축산,,grassland livestock,Shops and Service,Butcher,126.73704888714394,37.5040555973132,대한민국,KOR,KOR,인천광역시,부평구,,부개동,,길주남로,137,12-301,2022-08-24 14:41:06,"쇼핑,편의||농축산물||육류||정육점||정육점-일반",False
67594,67595,6215550,우향축산,,right-handed livestock,Shops and Service,Butcher,126.74715893087696,37.42550662385276,대한민국,KOR,KOR,인천광역시,남동구,,서창동,,서창남순환로215번길,35,690-3,2022-08-24 14:41:06,"쇼핑,편의||농축산물||육류||정육점||정육점-일반",False
67931,67932,4336980,충남축산,,Chungnam Livestock,Shops and Service,Butcher,126.6881963261509,37.47929889562538,대한민국,KOR,KOR,인천광역시,서구,,가좌동,,가좌로96번길,31,477-4,2022-05-01 12:37:48,"쇼핑,편의||농축산물||육류||정육점||정육점-일반",False
68065,68066,4347927,형제축산도매센타,,Brother Livestock  Wholesale Center,Shops and Service,Butcher,126.65987523316988,37.60316930904074,대한민국,KOR,KOR,인천광역시,서구,,마전동,,검단로,505,932-1,2022-05-01 12:37:48,"쇼핑,편의||농축산물||육류||정육점||정육점-일반",False
68096,68097,1270713,미트촌,,Meat Village,Shops and Service,Butcher,126.75466136696895,37.44986733489337,대한민국,KOR,KOR,인천광역시,남동구,,장수동,,장자로46번길,20,791-10,2021-12-23 15:49:18,"쇼핑,편의||농축산물||육류||정육점||정육점-일반",False
68155,68156,27225099,대지농축산,,land concentrated livestock,Shops and Service,Butcher,126.73353278951204,37.46041111129272,대한민국,KOR,KOR,인천광역시,남동구,,만수동,,만수로,47,72-38,2022-08-12 13:15:03,"쇼핑,편의||농축산물||육류||정육점||정육점-일반",False
68178,68179,1871244,아세아유통,,Asia Distribution,Shops and Service,Butcher,126.6735658190699,37.49726580125726,대한민국,KOR,KOR,인천광역시,서구,,가좌동,,건지로284번길,22-1,114-61,2022-08-24 14:41:06,"쇼핑,편의||농축산물||육류||정육점||정육점-일반",False
68354,68355,2606032,일조정육점,,Iljeong Butcher Shop,Shops and Service,Butcher,126.48285959999984,37.74739459999991,대한민국,KOR,KOR,인천광역시,강화군,,강화읍,신문리,강화대로,439,241-23,2021-12-23 15:49:18,"쇼핑,편의||농축산물||육류||정육점||정육점-일반",False
68597,68598,1259822,신도매정육점,,new wholesale butcher shop,Shops and Service,Butcher,126.6965623785769,37.473191150759774,대한민국,KOR,KOR,인천광역시,부평구,,십정동,,배곶북로,19,301,2022-08-24 14:41:06,"쇼핑,편의||농축산물||육류||정육점||정육점-일반",False
68913,68914,2604213,하나로축산,,Hanaro Livestock,Shops and Service,Butcher,126.71383749999995,37.52583329999982,대한민국,KOR,KOR,인천광역시,계양구,,효성동,,아나지로197번길,4,238-1,2022-05-01 12:37:48,"쇼핑,편의||농축산물||육류||정육점||정육점-일반",False
69304,69305,3144022,늘봄고기백화점,,Neulbom Meat Department Store,Shops and Service,Butcher,126.67362499999994,37.51868329999981,대한민국,KOR,KOR,인천광역시,서구,,가정동,,가정로380번길,4-1,505-15,2022-08-24 14:41:06,"쇼핑,편의||농축산물||육류||정육점||정육점-일반",False
69500,69501,4323180,성호축산유통,,Seongho Livestock Distribution,Shops and Service,Butcher,126.72159389728992,37.45859245393497,대한민국,KOR,KOR,인천광역시,남동구,,구월동,,백범로247번길,42,1253-16,2022-08-24 14:41:06,"쇼핑,편의||농축산물||육류||정육점||정육점-일반",False
69574,69575,20762304,길상회계란집하장,,Gilsang Accounting Egg Storage,Shops and Service,Butcher,126.7327350593944,37.499742226391774,대한민국,KOR,KOR,인천광역시,부평구,,부평동,,장제로160번길,33,112-7,2022-08-30 9:43:30,"쇼핑,편의||농축산물||육류||달걀",False
69795,69796,6232787,대명계란,,Daemyung Egg,Shops and Service,Butcher,126.73503419307092,37.545089869147205,대한민국,KOR,KOR,인천광역시,계양구,,임학동,,임학안로,11,62-6,2022-09-06 15:18:26,"쇼핑,편의||농축산물||육류||달걀",False
70415,70416,2614613,엄마손정육점,,mom's butcher shop,Shops and Service,Butcher,126.69605623436888,37.44804535660688,대한민국,KOR,KOR,인천광역시,남동구,,구월동,,문화서로,31,1354-19,2022-08-24 14:41:06,"쇼핑,편의||농축산물||육류||정육점||정육점-일반",False
70574,70575,2688096,영신정육점,,Youngshin butcher shop,Shops and Service,Butcher,126.49132499999985,37.639458299999845,대한민국,KOR,KOR,인천광역시,강화군,,길상면,온수리,온수길,32,511-1,2022-08-24 14:41:06,"쇼핑,편의||농축산물||육류||정육점||정육점-일반",False
70803,70804,5684303,산에들에정육점,,Butcher shop in the mountains,Shops and Service,Butcher,126.73071839251192,37.55482985907621,대한민국,KOR,KOR,인천광역시,계양구,,방축동,,방축로91번길,36,83-10,2022-08-24 14:41:06,"쇼핑,편의||농축산물||육류||정육점||정육점-일반",False
71116,71117,4328220,장원축산,,Jangwon Livestock,Shops and Service,Butcher,126.69580962128887,37.447294909986965,대한민국,KOR,KOR,인천광역시,남동구,,구월동,,문화서로23번길,3,1380-5,2022-08-24 14:41:06,"쇼핑,편의||농축산물||육류||정육점||정육점-일반",False
71208,71209,4347057,명품한우마을,,Luxury Korean Beef Village,Shops and Service,Butcher,126.72288712688189,37.54533596894922,대한민국,KOR,KOR,인천광역시,계양구,,계산동,,경명대로1045번길,17,931-23,2022-05-01 12:37:48,"쇼핑,편의||농축산물||육류||정육점||정육점-일반",False
71398,71399,3108876,한우판매장,,Korean beef store,Shops and Service,Butcher,126.64691768945087,37.47618926547028,대한민국,KOR,KOR,인천광역시,동구,,송림동,,송림로110번길,5,125-16,2021-12-23 15:49:18,"쇼핑,편의||농축산물||육류||정육점||정육점-일반",False
71448,71449,27223438,골드축산,,Gold Livestock,Shops and Service,Butcher,126.72053100141088,37.45276171190827,대한민국,KOR,KOR,인천광역시,남동구,,구월동,,호구포로790번길,21-4,1267-4,2022-05-01 12:37:48,"쇼핑,편의||농축산물||육류||육류-일반",False
71921,71922,5665853,금호정육점,,Kumho Butcher Shop,Shops and Service,Butcher,126.70908589331188,37.53283697046532,대한민국,KOR,KOR,인천광역시,계양구,,효성동,,안남로553번길,14,46-4,2022-05-01 12:37:48,"쇼핑,편의||농축산물||육류||정육점||정육점-일반",False
72055,72056,4346375,홍성한우정육점,홍성정육점,Hongseong Hanwoo Butcher Shop,Shops and Service,Butcher,126.69532310637788,37.47317199760706,대한민국,KOR,KOR,인천광역시,부평구,,십정동,,배곶남로21번길,21,353-6,2022-08-24 14:41:06,"쇼핑,편의||농축산물||육류||정육점||정육점-일반",False
72693,72694,27108943,참조은한우한돈,,Reference Eun Hanwoo Handon,Shops and Service,Butcher,126.72100527841592,37.40146281462504,대한민국,KOR,KOR,인천광역시,남동구,,논현동,,논현역로,8,631-1,2022-05-01 12:37:48,"쇼핑,편의||농축산물||육류||정육점||정육점-일반",False
72749,72750,4338748,축산물직거래장터,,Livestock products direct market,Shops and Service,Butcher,126.6592136353189,37.603735927909526,대한민국,KOR,KOR,인천광역시,서구,,마전동,,검단로487번길,16,928-15,2022-08-24 14:41:06,"쇼핑,편의||농축산물||육류||정육점||정육점-일반",False
73178,73179,1258660,원축산 with 썰다,,raw livestock,Shops and Service,Butcher,126.68856911208572,37.47931760159752,대한민국,KOR,KOR,인천광역시,서구,,가좌동,,백범로622번길,30,480-20,2022-09-06 15:18:26,"쇼핑,편의||농축산물||육류||정육점||정육점-일반",False
73236,73237,5686115,온누리축산 송도점,,Onnuri Livestock Songdo Branch,Shops and Service,Butcher,126.65767270031088,37.37193710040314,대한민국,KOR,KOR,인천광역시,연수구,,송도동,,송도문화로84번길,84,192-8,2022-08-16 16:52:33,"쇼핑,편의||농축산물||육류||정육점||정육점-일반",False
73299,73300,2154270,대우정육점,,Daewoo Butcher,Shops and Service,Butcher,126.66519590034288,37.44322360090206,대한민국,KOR,KOR,인천광역시,미추홀구,,학익동,,한나루로,400,264-6,2022-05-01 12:37:48,"쇼핑,편의||농축산물||육류||정육점||정육점-일반",False
73608,73609,3121996,하나정육점,,Hana Butcher Shop,Shops and Service,Butcher,126.68328891439587,37.42571084122456,대한민국,KOR,KOR,인천광역시,연수구,,연수동,,함박로,53,513-18,2022-08-24 14:41:06,"쇼핑,편의||농축산물||육류||정육점||정육점-일반",False
73743,73744,3117460,효성정육점,,Hyosung Butcher Shop,Shops and Service,Butcher,126.70964217958893,37.534791019848,대한민국,KOR,KOR,인천광역시,계양구,,효성동,,안남로573번길,7,33-25,2022-08-24 14:41:06,"쇼핑,편의||농축산물||육류||정육점||정육점-일반",False
75131,75132,4347116,현석이네축산 귤현점,,Hyeonseok Ine Livestock  Tangerine Hyeon Branch,Shops and Service,Butcher,126.74927389174997,37.56703358569286,대한민국,KOR,KOR,인천광역시,계양구,,귤현동,,양지로,131,501-12,2022-08-16 16:52:33,"쇼핑,편의||농축산물||육류||정육점||정육점-일반",False
75513,75514,4336169,가람유통,,Garam Distribution,Shops and Service,Butcher,126.68858193977292,37.47961142674239,대한민국,KOR,KOR,인천광역시,서구,,가좌동,,백범로622번길,31,477-3,2021-12-23 15:49:18,"쇼핑,편의||농축산물||육류||정육점||정육점-일반",False
75683,75684,4361065,고려축산,,Goryeo Livestock,Shops and Service,Butcher,126.715737151065,37.4319265502605,대한민국,KOR,KOR,인천광역시,남동구,,남촌동,,남촌동로25번길,4,356-6,2022-08-16 16:52:33,"쇼핑,편의||농축산물||육류||정육점||정육점-일반",False
76281,76282,27047404,정육편의점 영종도6호점,,Butcher convenience store Yeongjongdo 6th branch,Shops and Service,Butcher,126.5625807970118,37.48949667616146,대한민국,KOR,KOR,인천광역시,중구,,중산동,,하늘별빛로65번길,8-11,1883-6,2022-08-16 16:52:33,"쇼핑,편의||농축산물||육류||정육점||정육점-일반",False
76424,76425,27223454,백쩡축산,,Baek Zeng Livestock,Shops and Service,Butcher,126.7195416957899,37.45269031945417,대한민국,KOR,KOR,인천광역시,남동구,,구월동,,호구포로790번길,8,1271-1,2022-05-01 12:37:48,"쇼핑,편의||농축산물||육류||육류-일반",False
76892,76893,4333529,하나정육점,,Hana Butcher Shop,Shops and Service,Butcher,126.64662501829488,37.47922310665477,대한민국,KOR,KOR,인천광역시,동구,,송림동,,샛골로194번길,20,35-38,2022-08-12 13:15:03,"쇼핑,편의||농축산물||육류||정육점||정육점-일반",False
77122,77123,20473945,백마유통,,white horse distribution,Shops and Service,Butcher,126.66970975630296,37.497432396625314,대한민국,KOR,KOR,인천광역시,서구,,가좌동,,건지로250번길,22,119-29,2022-05-01 12:37:48,"쇼핑,편의||농축산물||육류||닭||닭-일반",False
78060,78061,4351667,다드림정육,,Dadim Butcher,Shops and Service,Butcher,126.6713279991189,37.5441855817278,대한민국,KOR,KOR,인천광역시,서구,,심곡동,,탁옥로,17,333-15,2022-08-16 16:52:33,"쇼핑,편의||농축산물||육류||정육점||정육점-일반",False
78171,78172,4321910,현대고기백화점,,Hyundai Meat Department Store,Shops and Service,Butcher,126.69782722977192,37.467173475126174,대한민국,KOR,KOR,인천광역시,남동구,,간석동,,석정로565번길,11,609-2,2022-08-24 14:41:06,"쇼핑,편의||농축산물||육류||정육점||정육점-일반",False
78173,78174,27179276,천하축산,,Cheonha Livestock,Shops and Service,Butcher,126.67754226271389,37.44689365619416,대한민국,KOR,KOR,인천광역시,미추홀구,,주안동,,신기길29번길,13-4,1340-19,2022-05-01 12:37:48,"쇼핑,편의||농축산물||육류||육류-일반",False
79354,79355,3337244,강화섬약쑥한우,약쑥한우,Ganghwa Spicy Korean Beef,Shops and Service,Butcher,126.50991259999986,37.726417899999895,대한민국,KOR,KOR,인천광역시,강화군,,선원면,신정리,선원사지로,32,247-1,2022-08-12 13:15:03,"쇼핑,편의||농축산물||육류||소고기",False
79489,79490,5656041,씨와이미트,,See Y Meat,Shops and Service,Butcher,126.63076889961884,37.610522099683216,대한민국,KOR,KOR,인천광역시,서구,,금곡동,,소담로,19,742-4,2022-08-30 9:43:30,"쇼핑,편의||농축산물||육류||육류-일반",False
79561,79562,5727219,백년숯불정육식당,,cattle pig sleeve,Shops and Service,Butcher,126.53322146347068,37.489042024421,대한민국,KOR,KOR,인천광역시,중구,,운남동,,운남로,128,1570,2022-08-08 10:29:42,"쇼핑,편의||농축산물||육류||육류-일반",False
79902,79903,5675814,신영축산유통,,Shinyoung Livestock Distribution,Shops and Service,Butcher,126.68696999863393,37.479478597384194,대한민국,KOR,KOR,인천광역시,서구,,가좌동,,백범로630번길,22,482,2022-08-16 16:52:33,"쇼핑,편의||농축산물||육류||정육점||정육점-일반",False
80262,80263,4337865,전통한우,,traditional Korean beef,Shops and Service,Butcher,126.73481136792424,37.578857668995774,대한민국,KOR,KOR,인천광역시,계양구,,장기동,,장기로,30,138-4,2022-08-16 16:52:33,"쇼핑,편의||농축산물||육류||정육점||정육점-일반",False
80354,80355,1254232,풍년유통,,bountiful distribution,Shops and Service,Butcher,126.65316636055492,37.41776302083735,대한민국,KOR,KOR,인천광역시,연수구,,옥련동,,청량로113번길,32,563-7,2022-08-18 12:00:50,"쇼핑,편의||농축산물||육류||육류-일반",False
80438,80439,5710654,강화섬한우,,Ganghwa Island Korean Beef,Shops and Service,Butcher,126.48414449999981,37.74632409999991,대한민국,KOR,KOR,인천광역시,강화군,,강화읍,신문리,남산길,9-1,156,2022-08-12 13:15:03,"쇼핑,편의||농축산물||육류||정육점||정육점-일반",False
80648,80649,5715212,토종한우랑한돈,한우랑한돈,Local Korean Beef and Korean Don,Shops and Service,Butcher,126.65284759988992,37.395841800569045,대한민국,KOR,KOR,인천광역시,연수구,,송도동,,신송로,122,2-6,2022-08-24 14:41:06,"쇼핑,편의||농축산물||육류||정육점||정육점-일반",False
80737,80738,27223724,둥이네정육점,,dungine butcher shop,Shops and Service,Butcher,126.63906949999992,37.52596839999982,대한민국,KOR,KOR,인천광역시,서구,,청라동,,청라커낼로,163,173-1,2022-09-06 15:18:26,"쇼핑,편의||농축산물||육류||정육점||정육점-일반",False
80885,80886,3439190,백호축산,,white tiger livestock,Shops and Service,Butcher,126.72698331328658,37.392282038013406,대한민국,KOR,KOR,인천광역시,남동구,,논현동,,에코중앙로156번길,5-29,772-3,2022-08-24 14:41:06,"쇼핑,편의||농축산물||육류||정육점||정육점-일반",False
80892,80893,5700006,고기삼촌,정직한고기삼촌,meat uncle,Shops and Service,Butcher,126.49231699999868,37.63598749999928,대한민국,KOR,KOR,인천광역시,강화군,,길상면,온수리,전등사로,85,615-6,2022-08-16 16:52:33,"쇼핑,편의||농축산물||육류||정육점||정육점-일반",False
81074,81075,27180489,참착한총각네축산,,Four hardworking bachelor's livestock,Shops and Service,Butcher,126.63922876644884,37.457194241197854,대한민국,KOR,KOR,인천광역시,미추홀구,,용현동,,아암대로29번길,48,565-4,2022-08-12 13:15:03,"쇼핑,편의||농축산물||육류||정육점||정육점-일반",False
81148,81149,3142483,주안정육타운,,Juan Meat Town,Shops and Service,Butcher,126.68352210038988,37.46521563063268,대한민국,KOR,KOR,인천광역시,미추홀구,,주안동,,염창로,88-8,31-17,2022-08-24 14:41:06,"쇼핑,편의||농축산물||육류||정육점||정육점-일반",False
81471,81472,3337805,장단정육점,,Jangdan Butcher Shop,Shops and Service,Butcher,126.65327722750588,37.45809387452057,대한민국,KOR,KOR,인천광역시,미추홀구,,용현동,,용삼길,66,492-149,2022-05-01 12:37:48,"쇼핑,편의||농축산물||육류||정육점||정육점-일반",False
82560,82561,5654163,인천도매정육점,인천정육점,Incheon Wholesale Butcher,Shops and Service,Butcher,126.68891739999992,37.47960679999979,대한민국,KOR,KOR,인천광역시,서구,,가좌동,,열우물로,179,480,2022-08-18 12:00:50,"쇼핑,편의||농축산물||육류||정육점||정육점-일반",False
82819,82820,4350098,참진한우마을,,Chamjin Hanwoo Village,Shops and Service,Butcher,126.74889809704464,37.4344934200588,대한민국,KOR,KOR,인천광역시,남동구,,서창동,,독곡로48번길,6,542-9,2022-08-24 14:41:06,"쇼핑,편의||농축산물||육류||정육점||정육점-일반",False
83125,83126,20061485,심축산,,deep livestock,Shops and Service,Butcher,126.72583096093992,37.514946340919394,대한민국,KOR,KOR,인천광역시,부평구,,갈산동,,주부토로,223,171-11,2022-08-24 14:41:06,"쇼핑,편의||농축산물||육류||정육점||정육점-일반",False
83422,83423,5709218,두총각네축산당하점,,Two Bachelors Four Chuksan Dangha Branch,Shops and Service,Butcher,126.67598849567788,37.59219130642112,대한민국,KOR,KOR,인천광역시,서구,,당하동,,청마로167번길,7,1097-8,2022-08-24 14:41:06,"쇼핑,편의||농축산물||육류||정육점||정육점-일반",False
83487,83488,27224866,대림축산생닭전문점,,Daelim Live Chicken Specialty Store,Shops and Service,Butcher,126.73968170751697,37.54783941298581,대한민국,KOR,KOR,인천광역시,계양구,,병방동,,병방시장로,72,399,2022-08-16 16:52:33,"쇼핑,편의||농축산물||육류||닭||닭-일반",False
83546,83547,27195943,신축산도매,,new construction wholesale,Shops and Service,Butcher,126.65324514557284,37.458396392737576,대한민국,KOR,KOR,인천광역시,미추홀구,,용현동,,용삼길,67,492-57,2022-05-01 12:37:48,"쇼핑,편의||농축산물||육류||정육점||정육점-일반",False
83878,83879,3108938,우리닭집,,our chicken coop,Shops and Service,Butcher,126.48432699999984,37.7468999999999,대한민국,KOR,KOR,인천광역시,강화군,,강화읍,신문리,강화대로,423-1,142-1,2018-09-21 10:34:14,"쇼핑,편의||농축산물||육류||정육점||정육점-일반",False
84215,84216,3145834,한돈고기파는사람들,,People who sell Handon meat,Shops and Service,Butcher,126.66871811260089,37.427855520175854,대한민국,KOR,KOR,인천광역시,연수구,,청학동,,계림로,98,548-9,2022-08-24 14:41:06,"쇼핑,편의||농축산물||육류||정육점||정육점-일반",False
84429,84430,3123050,현대정육점,,Hyundai Butcher,Shops and Service,Butcher,126.71718796003088,37.529126833746304,대한민국,KOR,KOR,인천광역시,계양구,,효성동,,새벌로,136,282-8,2022-08-24 14:41:06,"쇼핑,편의||농축산물||육류||정육점||정육점-일반",False
84566,84567,2607256,주부정육백화점,,housewife butcher Department store,Shops and Service,Butcher,126.6798941226059,37.468263080243965,대한민국,KOR,KOR,인천광역시,미추홀구,,주안동,,길파로,30,16-69,2022-08-18 12:00:50,"쇼핑,편의||농축산물||육류||정육점||정육점-일반",False
84695,84696,3127854,황해정육점,,Hwanghae Butcher Shop,Shops and Service,Butcher,126.67003896299988,37.503134400199,대한민국,KOR,KOR,인천광역시,서구,,석남동,,거북로,74-1,587-48,2022-08-24 14:41:06,"쇼핑,편의||농축산물||육류||정육점||정육점-일반",False
85064,85065,2159389,평원정육점,,PyeongwonButcher Shop,Shops and Service,Butcher,126.25383949999959,37.77441129999991,대한민국,KOR,KOR,인천광역시,강화군,,교동면,양갑리,교동서로,242,339-1,2021-12-23 15:49:18,"쇼핑,편의||농축산물||육류||정육점||정육점-일반",False
85435,85436,4330129,으뜸한우정육점,,Best Korean Beef butcher shop,Shops and Service,Butcher,126.67682569999997,37.41127819999978,대한민국,KOR,KOR,인천광역시,연수구,,동춘동,,청능대로,124,923,2022-08-24 14:41:06,"쇼핑,편의||농축산물||육류||정육점||정육점-일반",False
85509,85510,3122402,광명정육점,,Gwangmyeong Butcher Shop,Shops and Service,Butcher,126.7211567463519,37.541677992574606,대한민국,KOR,KOR,인천광역시,계양구,,계산동,,계산천서로,25,940-41,2022-08-24 14:41:06,"쇼핑,편의||농축산물||육류||정육점||정육점-일반",False
85858,85859,2604628,이레축산,,Seven Livestock,Shops and Service,Butcher,126.66084274103088,37.43912211628766,대한민국,KOR,KOR,인천광역시,미추홀구,,학익동,,한나루로341번길,16-22,699-11,2022-08-24 14:41:06,"쇼핑,편의||농축산물||육류||정육점||정육점-일반",False
86146,86147,3138444,국제식품코리아미트,코리아미트,Kukje Food Korea Meat,Shops and Service,Butcher,126.68683872035588,37.48105407218147,대한민국,KOR,KOR,인천광역시,서구,,가좌동,,백범로630번길,38,476-16,2022-08-16 16:52:33,"쇼핑,편의||농축산물||육류||정육점||정육점-일반",False
86147,86148,5690309,부산축산,,Busan Livestock,Shops and Service,Butcher,126.6882130271409,37.4793229951968,대한민국,KOR,KOR,인천광역시,서구,,가좌동,,가좌로96번길,31,477-4,2022-08-24 14:41:06,"쇼핑,편의||농축산물||육류||정육점||정육점-일반",False
86303,86304,27069050,참우리한우,,Chamwoori Korean Beef,Shops and Service,Butcher,126.63678847206984,37.45084697511607,대한민국,KOR,KOR,인천광역시,미추홀구,,용현동,,낙섬중로,27,627-400,2022-08-24 14:41:06,"쇼핑,편의||농축산물||육류||정육점||정육점-일반",False
86676,86677,5666261,천운축산유통,,Cheonun Livestock Distribution,Shops and Service,Butcher,126.66476802013992,37.44894290277677,대한민국,KOR,KOR,인천광역시,미추홀구,,용현동,,인하로,152,39-26,2021-12-23 15:49:18,"쇼핑,편의||농축산물||육류||육류-일반",False
87063,87064,4335950,우리축산,,our livestock,Shops and Service,Butcher,126.72909714023392,37.49723858508617,대한민국,KOR,KOR,인천광역시,부평구,,부평동,,시장로,79,217-36,2022-08-24 14:41:06,"쇼핑,편의||농축산물||육류||정육점||정육점-일반",False
87237,87238,4328497,우리한우축산프라자,,Woori Hanwoo Livestock Plaza,Shops and Service,Butcher,126.69263461529488,37.466789851498206,대한민국,KOR,KOR,인천광역시,남동구,,간석동,,방축로,494,894-7,2022-08-24 14:41:06,"쇼핑,편의||농축산물||육류||정육점||정육점-일반",False
87584,87585,20200851,영진축산,,Yeongjin Livestock,Shops and Service,Butcher,126.68838304385793,37.4789438068933,대한민국,KOR,KOR,인천광역시,서구,,가좌동,,가좌로96번길,35,480-19,2021-12-23 15:49:18,"쇼핑,편의||농축산물||육류||정육점||정육점-일반",False
87728,87729,5677937,올바른정육점,,right butcher shop,Shops and Service,Butcher,126.5639375792018,37.48918181602456,대한민국,KOR,KOR,인천광역시,중구,,중산동,,하늘별빛로65번길,7-3,1886-1,2022-08-16 16:52:33,"쇼핑,편의||농축산물||육류||정육점||정육점-일반",False
87816,87817,5701848,동남축산물유통,,Southeast livestock product distribution,Shops and Service,Butcher,126.71592325314892,37.4636272214095,대한민국,KOR,KOR,인천광역시,남동구,,간석동,,백범로,312-95,41-95,2022-08-24 14:41:06,"쇼핑,편의||농축산물||육류||정육점||정육점-일반",False
87841,87842,4346507,골드축산,,Gold Livestock,Shops and Service,Butcher,126.70889355765325,37.460591551293646,대한민국,KOR,KOR,인천광역시,남동구,,간석동,,남동대로,880,205-1,2022-08-30 9:43:30,"쇼핑,편의||농축산물||육류||정육점||정육점-일반",False
87842,87843,27184210,조은축산,,Jo Eun Livestock,Shops and Service,Butcher,126.72218489999996,37.40365059999978,대한민국,KOR,KOR,인천광역시,남동구,,논현동,,논현로,145,618-1,2022-05-01 12:37:48,"쇼핑,편의||농축산물||육류||정육점||정육점-일반",False
87966,87967,3129106,협진축산,,Cooperative Livestock,Shops and Service,Butcher,126.6890544913039,37.47970732485527,대한민국,KOR,KOR,인천광역시,서구,,가좌동,,열우물로,179,480,2022-08-30 9:43:30,"쇼핑,편의||농축산물||육류||정육점||정육점-일반",False
87984,87985,5705863,고기농장,,meat farm,Shops and Service,Butcher,126.6868366442349,37.480256375838096,대한민국,KOR,KOR,인천광역시,서구,,가좌동,,열우물로197번길,8,476-12,2022-08-16 16:52:33,"쇼핑,편의||농축산물||육류||육류-일반",False
87999,88000,27050395,생생한우와한돈,,Live Wow Handon,Shops and Service,Butcher,126.69073433347388,37.45875582559968,대한민국,KOR,KOR,인천광역시,미추홀구,,주안동,,경원대로852번길,18,953-7,2022-08-12 13:15:03,"쇼핑,편의||농축산물||육류||정육점||정육점-일반",False
88862,88863,3130297,대영정육백화점,,Daeyoung Meat Department Store,Shops and Service,Butcher,126.6746574454789,37.5419163446196,대한민국,KOR,KOR,인천광역시,서구,,심곡동,,심곡로,44-1,256-4,2022-08-18 12:00:50,"쇼핑,편의||농축산물||육류||정육점||정육점-일반",False
89332,89333,20482355,에그촌유통,,Egg Village Distribution,Shops and Service,Butcher,126.72537109853648,37.46250646728805,대한민국,KOR,KOR,인천광역시,남동구,,만수동,,서판로54번길,32,854-9,2022-05-01 12:37:48,"쇼핑,편의||농축산물||육류||달걀",False
89407,89408,4336207,삼성유통,,Samsung Distribution,Shops and Service,Butcher,126.72589834417892,37.53559274031311,대한민국,KOR,KOR,인천광역시,계양구,,작전동,,계산로126번길,18,856-173,2022-08-24 14:41:06,"쇼핑,편의||농축산물||육류||정육점||정육점-일반",False
90290,90291,3131975,한우리축산물도매센타,한우리축산물도매센터,Hanwoori  Livestock Products  Wholesale Center,Shops and Service,Butcher,126.70811619999996,37.4864202999998,대한민국,KOR,KOR,인천광역시,부평구,,십정동,,마장로,86,170-60,2022-08-30 9:43:30,"쇼핑,편의||농축산물||육류||정육점||정육점-일반",False
90368,90369,3132645,안동한우촌,,Andong Korean Beef Village,Shops and Service,Butcher,126.73679799999996,37.505073999999816,대한민국,KOR,KOR,인천광역시,부평구,,부개동,,충선로,176-5,496-6,2022-08-24 14:41:06,"쇼핑,편의||농축산물||육류||정육점||정육점-일반",False
90388,90389,27161791,개성축산물전문점,,Gaeseong Livestock Specialty Store,Shops and Service,Butcher,126.74873021323094,37.42541502947328,대한민국,KOR,KOR,인천광역시,남동구,,서창동,,서창남로,69,687-2,2022-08-12 13:15:03,"쇼핑,편의||농축산물||육류||정육점||정육점-일반",False
90439,90440,4344455,역전정육점,,station butcher shop,Shops and Service,Butcher,126.72324436193291,37.488912210334384,대한민국,KOR,KOR,인천광역시,부평구,,부평동,,동수북로,154,728-18,2022-08-24 14:41:06,"쇼핑,편의||농축산물||육류||정육점||정육점-일반",False
90695,90696,27048036,농협안심축산물전문점 인천구월시장점,,Nonghyup Anshim Livestock Specialty Store Incheon Guwol Market,Shops and Service,Butcher,126.71962838405992,37.45285703000727,대한민국,KOR,KOR,인천광역시,남동구,,구월동,,호구포로790번길,7,1265-28,2022-08-16 16:52:33,"쇼핑,편의||농축산물||육류||정육점||정육점-일반",False
91100,91101,20199881,두리미트,,do limit,Shops and Service,Butcher,126.65274630642494,37.502158081114096,대한민국,KOR,KOR,인천광역시,서구,,석남동,,건지로97번길,34,223-255,2022-08-24 14:41:06,"쇼핑,편의||농축산물||육류||정육점||정육점-일반",False
91120,91121,4345032,한우랑돼지랑,,Korean beef and pork,Shops and Service,Butcher,126.70041583845588,37.5134795882575,대한민국,KOR,KOR,인천광역시,부평구,,산곡동,,세월천로,79-1,51-5,2022-08-24 14:41:06,"쇼핑,편의||농축산물||육류||정육점||정육점-일반",False
91429,91430,4322291,제일정육백화점,,Jeil Beef Department Store,Shops and Service,Butcher,126.67293072005988,37.45907730374986,대한민국,KOR,KOR,인천광역시,미추홀구,,도화동,,제일로,21-4,430-36,2022-08-24 14:41:06,"쇼핑,편의||농축산물||육류||정육점||정육점-일반",False
92493,92494,4336981,미니축산,,mini livestock,Shops and Service,Butcher,126.68824607899396,37.479321112156555,대한민국,KOR,KOR,인천광역시,서구,,가좌동,,가좌로96번길,31,477-4,2022-09-06 15:18:26,"쇼핑,편의||농축산물||육류||정육점||정육점-일반",False
92524,92525,27223062,천재정육점,,genius butcher shop,Shops and Service,Butcher,126.65190902026588,37.45798541866206,대한민국,KOR,KOR,인천광역시,미추홀구,,용현동,,용삼길,41,453-167,2022-05-01 12:37:48,"쇼핑,편의||농축산물||육류||정육점||정육점-일반",False
92682,92683,4347907,호뚱이네정육점,,Hotung's  Butcher,Shops and Service,Butcher,126.72312269969692,37.543975201263,대한민국,KOR,KOR,인천광역시,계양구,,계산동,,경명대로1045번길,4,931-49,2022-08-24 14:41:06,"쇼핑,편의||농축산물||육류||정육점||정육점-일반",False
92822,92823,6215969,참좋은착한정육점 구월점,착한정육점 구월점,Very good and good butcher shop  Guwol,Shops and Service,Butcher,126.70652784819688,37.44708971318448,대한민국,KOR,KOR,인천광역시,남동구,,구월동,,남동대로725번길,5,1157-3,2022-08-24 14:41:06,"쇼핑,편의||농축산물||육류||정육점||정육점-일반",False
92961,92962,4335749,황금축산물센터,,golden livestock center,Shops and Service,Butcher,126.69773409588916,37.5045656472952,대한민국,KOR,KOR,인천광역시,부평구,,산곡동,,원적로,284,180-389,2022-08-16 16:52:33,"쇼핑,편의||농축산물||육류||정육점||정육점-일반",False
92973,92974,2603008,프레시안정육점 대성유통,,Fresh stable butcher shop  Daesung Distribution,Shops and Service,Butcher,126.6986375000001,37.46300959999979,대한민국,KOR,KOR,인천광역시,남동구,,간석동,,주안로,258,530-1,2022-05-01 12:37:48,"쇼핑,편의||농축산물||육류||정육점||정육점-일반",False
92977,92978,4319769,신우축산,,Shinwoo Livestock,Shops and Service,Butcher,126.69035598449788,37.47693820131338,대한민국,KOR,KOR,인천광역시,부평구,,십정동,,가좌로96번길,64,229-2,2022-08-16 16:52:33,"쇼핑,편의||농축산물||육류||닭||닭-일반",False
93018,93019,3139119,풍년식품정육점,,Poongnyeon Food Butcher Shop,Shops and Service,Butcher,126.68705946793588,37.49570200904249,대한민국,KOR,KOR,인천광역시,서구,,가좌동,,원적로124번길,24,81-46,2022-08-24 14:41:06,"쇼핑,편의||농축산물||육류||정육점||정육점-일반",False
93311,93312,3145347,서부축산유통,,Western Livestock Distribution,Shops and Service,Butcher,126.73579948969096,37.446272125699096,대한민국,KOR,KOR,인천광역시,남동구,,만수동,,담방서로3번길,38,1081-12,2019-11-14 23:24:16,"쇼핑,편의||농축산물||육류||정육점||정육점-일반",False
93600,93601,5702035,목우촌연수축산,연수축산,Mokwoochon Yeonsu Livestock,Shops and Service,Butcher,126.67859669446992,37.42026255754686,대한민국,KOR,KOR,인천광역시,연수구,,연수동,,새말로69번길,16-9,545-7,2022-05-01 12:37:48,"쇼핑,편의||농축산물||육류||육류-일반",False
94115,94116,4359297,꿀꿀이축산도소매,,Honey Honey Livestock wholesale and retail,Shops and Service,Butcher,126.6715404950159,37.54217336481001,대한민국,KOR,KOR,인천광역시,서구,,심곡동,,심곡로,18,339-18,2022-08-16 16:52:33,"쇼핑,편의||농축산물||육류||정육점||정육점-일반",False
94143,94144,2597943,동원축산,,Dongwon Livestock,Shops and Service,Butcher,126.72856813261492,37.510135437389295,대한민국,KOR,KOR,인천광역시,부평구,,갈산동,,주부토로172번길,46,370-6,2022-08-16 16:52:33,"쇼핑,편의||농축산물||육류||정육점||정육점-일반",False
94707,94708,27220119,미소축산,,smile livestock,Shops and Service,Butcher,126.66420284077688,37.52249268689139,대한민국,KOR,KOR,인천광역시,서구,,신현동,,새오개로111번안길,25,307-4,2022-08-12 13:15:03,"쇼핑,편의||농축산물||육류||정육점||정육점-일반",False
94801,94802,3139948,I포크축산 인천본점,아이포크축산인천본점,I Pork Livestock  Incheon Main Branch,Shops and Service,Butcher,126.67000628204129,37.502629280512096,대한민국,KOR,KOR,인천광역시,서구,,석남동,,건지로249번길,37,587-31,2022-05-01 12:37:48,"쇼핑,편의||농축산물||육류||정육점||정육점-일반",False
94964,94965,3266596,동문정육점,,Dongmun Butcher,Shops and Service,Butcher,126.48242249999984,37.7478263999999,대한민국,KOR,KOR,인천광역시,강화군,,강화읍,관청리,강화대로,446,544-5,2022-05-01 12:37:48,"쇼핑,편의||농축산물||육류||정육점||정육점-일반",False
95329,95330,429610,가좌축산,,Gajwa Livestock,Shops and Service,Butcher,126.67237593492791,37.49315782020469,대한민국,KOR,KOR,인천광역시,서구,,가좌동,,가정로98번길,6-1,155-9,2022-08-24 14:41:06,"쇼핑,편의||농축산물||육류||정육점||정육점-일반",False
95522,95523,3143848,축산물직판장,,livestock market,Shops and Service,Butcher,126.67852499999996,37.4915416999998,대한민국,KOR,KOR,인천광역시,서구,,가좌동,,신진말로28번길,16,215-3,2022-08-24 14:41:06,"쇼핑,편의||농축산물||육류||정육점||정육점-일반",False
95529,95530,2599858,김가네고기촌,,Kim Gane Meat Village,Shops and Service,Butcher,126.73218302917392,37.486564334949975,대한민국,KOR,KOR,인천광역시,부평구,,부개동,,경인로1012번길,9,235-1,2022-08-24 14:41:06,"쇼핑,편의||농축산물||육류||정육점||정육점-일반",False
95773,95774,4356668,금호정육점,,Kumho Butcher Shop,Shops and Service,Butcher,126.70923179999996,37.507229099999805,대한민국,KOR,KOR,인천광역시,부평구,,청천동,,안남로,274,336-11,2022-08-24 14:41:06,"쇼핑,편의||농축산물||육류||정육점||정육점-일반",False
95901,95902,5659744,동양축산,,Oriental Livestock,Shops and Service,Butcher,126.68781690204592,37.47911275495519,대한민국,KOR,KOR,인천광역시,서구,,가좌동,,가좌로96번길,32,482-4,2022-08-24 14:41:06,"쇼핑,편의||농축산물||육류||정육점||정육점-일반",False
96170,96171,227377,명진축산,,Myeongjin Livestock,Shops and Service,Butcher,126.68811903967188,37.47888096449215,대한민국,KOR,KOR,인천광역시,서구,,가좌동,,가좌로96번길,36,481,2022-08-24 14:41:06,"쇼핑,편의||농축산물||육류||정육점||정육점-일반",False
96890,96891,27227977,안성한우,,Anseong Korean Beef,Shops and Service,Butcher,126.6720155191909,37.512141136603375,대한민국,KOR,KOR,인천광역시,서구,,석남동,,가정로307번길,3-1,454,2022-08-12 13:15:03,"쇼핑,편의||농축산물||육류||정육점||정육점-일반",False
97176,97177,4329446,우리네축산,,our livestock,Shops and Service,Butcher,126.66687811566187,37.45712178159758,대한민국,KOR,KOR,인천광역시,미추홀구,,주안동,,경인북길357번길,7,588,2022-08-24 14:41:06,"쇼핑,편의||농축산물||육류||정육점||정육점-일반",False
97409,97410,5723619,서진축산,,Seojin Livestock,Shops and Service,Butcher,126.67296485881988,37.502985889246695,대한민국,KOR,KOR,인천광역시,서구,,석남동,,거북로,100,576-48,2022-08-16 16:52:33,"쇼핑,편의||농축산물||육류||정육점||정육점-일반",False
97781,97782,4342981,기천순우리토종한우,,Kicheon Soon-uri Native Korean Beef,Shops and Service,Butcher,126.42794338862936,37.63591011708296,대한민국,KOR,KOR,인천광역시,강화군,,화도면,문산리,마니산로,634-9,851,2022-05-01 12:37:48,"쇼핑,편의||농축산물||육류||정육점||정육점-일반",False
97814,97815,4349371,대세정육점,,Daese Butcher Shop,Shops and Service,Butcher,126.63412809999993,37.4708353999998,대한민국,KOR,KOR,인천광역시,중구,,율목동,,개항로96번길,32,53-1,2022-05-01 12:37:48,"쇼핑,편의||농축산물||육류||정육점||정육점-일반",False
97913,97914,6223698,봉쥬르착한정육점,봉쥬르정육점,Bonjour Chakhan Butcher Shop,Shops and Service,Butcher,126.6945305080199,37.46062933004628,대한민국,KOR,KOR,인천광역시,미추홀구,,주안동,,경인로499번길,8,895-3,2022-08-16 16:52:33,"쇼핑,편의||농축산물||육류||정육점||정육점-일반",False
97948,97949,4337526,농협안심축산물전문점 옥련점,,Nonghyup Anshim Livestock Specialty Store  Onnyeon Branch,Shops and Service,Butcher,126.64521219999996,37.42561009999977,대한민국,KOR,KOR,인천광역시,연수구,,옥련동,,독배로,56-1,213-2,2022-09-06 15:18:26,"쇼핑,편의||농축산물||육류||정육점||정육점-일반",False
98060,98061,686274,부영정육백화점,,Booyoung Jeongyuk Department Store,Shops and Service,Butcher,126.67369983072788,37.519286440783794,대한민국,KOR,KOR,인천광역시,서구,,가정동,,석곶로,19,504-15,2022-08-16 16:52:33,"쇼핑,편의||농축산물||육류||정육점||정육점-일반",False
98318,98319,4360217,고기백화점,,meat department store,Shops and Service,Butcher,126.68133309922588,37.54916843874651,대한민국,KOR,KOR,인천광역시,서구,,연희동,,간촌로39번길,1,702-6,2022-08-24 14:41:06,"쇼핑,편의||농축산물||육류||정육점||정육점-일반",False
98424,98425,4326936,제일정육점,,Cheil Butcher Shop,Shops and Service,Butcher,126.74312609999996,37.51024889999981,대한민국,KOR,KOR,인천광역시,부평구,,삼산동,,체육관로,111,456-8,2022-08-24 14:41:06,"쇼핑,편의||농축산물||육류||정육점||정육점-일반",False
98728,98729,4335287,부부정육점,,couple butcher shop,Shops and Service,Butcher,126.49926100000164,37.74291989999903,대한민국,KOR,KOR,인천광역시,강화군,,강화읍,갑곳리,갑룡길,57,81-5,2022-08-16 16:52:33,"쇼핑,편의||농축산물||육류||정육점||정육점-일반",False
98964,98965,20202195,고그린미트,,go Green Meat,Shops and Service,Butcher,126.68144023401295,37.4842720504686,대한민국,KOR,KOR,인천광역시,서구,,가좌동,,가좌로95번길,48,289-65,2021-12-23 15:49:18,"쇼핑,편의||농축산물||육류||육류-일반",False
99050,99051,5700713,본전닭유통,본전유통,Bonjeon Chicken Distribution,Shops and Service,Butcher,126.67588004499588,37.49170230555198,대한민국,KOR,KOR,인천광역시,서구,,가좌동,,원적로47번길,42,209-7,2020-01-14 23:24:59,"쇼핑,편의||농축산물||육류||닭||닭-일반",False
99164,99165,4336295,일구유통,,Ilgu Distribution,Shops and Service,Butcher,126.48730839999985,37.727817099999896,대한민국,KOR,KOR,인천광역시,강화군,,선원면,창리,중앙로,186,413-1,2022-05-01 12:37:48,"쇼핑,편의||농축산물||육류||닭||닭-일반",False
99633,99634,1273418,뽀미정육점,,pomi butcher shop,Shops and Service,Butcher,126.48402749999984,37.74543929999989,대한민국,KOR,KOR,인천광역시,강화군,,강화읍,신문리,남문안길,25,310,2022-05-01 12:37:48,"쇼핑,편의||농축산물||육류||정육점||정육점-일반",False
99645,99646,5674401,두산미트,,Doosan Meat,Shops and Service,Butcher,126.68723839999994,37.47927789999981,대한민국,KOR,KOR,인천광역시,서구,,가좌동,,백범로630번길,22,482,2021-12-23 15:49:18,"쇼핑,편의||농축산물||육류||정육점||정육점-일반",False
99843,99844,5678434,유진축산막창유통,유진축산유통,Eugene Livestock makchang distribution,Shops and Service,Butcher,126.6954561465569,37.46998086993817,대한민국,KOR,KOR,인천광역시,부평구,,십정동,,백범로,505,362-52,2022-05-01 12:37:48,"쇼핑,편의||농축산물||육류||육류-일반",False
99946,99947,4336171,서해축산,,West Sea Livestock,Shops and Service,Butcher,126.68863141514188,37.4793546735055,대한민국,KOR,KOR,인천광역시,서구,,가좌동,,백범로622번길,30,480-20,2022-05-01 12:37:48,"쇼핑,편의||농축산물||육류||정육점||정육점-일반",False
101117,101118,2600077,천복축산물도매센타,천복축산물센타,Cheonbok Livestock Products Wholesale Center,Shops and Service,Butcher,126.64690800686986,37.46791362384317,대한민국,KOR,KOR,인천광역시,미추홀구,,숭의동,,석정로,102-1,81-15,2022-09-06 15:18:26,"쇼핑,편의||농축산물||육류||정육점||정육점-일반",False
101800,101801,871938,신신종합축산,,Shinshin General Livestock,Shops and Service,Butcher,126.68913408418756,37.479680556120634,대한민국,KOR,KOR,인천광역시,서구,,가좌동,,열우물로,179,480,2022-09-06 15:18:26,"쇼핑,편의||농축산물||육류||정육점||정육점-일반",False
102208,102209,4357518,태인유통,,Taein Distribution,Shops and Service,Butcher,126.71272712459393,37.525486551028,대한민국,KOR,KOR,인천광역시,계양구,,효성동,,아나지로,187,273-49,2022-08-16 16:52:33,"쇼핑,편의||농축산물||육류||닭||닭-일반",False
102268,102269,3128724,한결미트,,Hankyul Meat,Shops and Service,Butcher,126.7133134421589,37.41457988925016,대한민국,KOR,KOR,인천광역시,남동구,,논현동,,논곡로77번길,14,560-1,2021-12-23 15:49:18,"쇼핑,편의||농축산물||육류||정육점||정육점-일반",False
102478,102479,5679725,한우나라,,Korean beef,Shops and Service,Butcher,126.69584094542788,37.47303046750277,대한민국,KOR,KOR,인천광역시,부평구,,십정동,,배곶남로21번길,18,321,2022-05-01 12:37:48,"쇼핑,편의||농축산물||육류||정육점||정육점-일반",False
102507,102508,1258486,형제축산,,Brothers Livestock,Shops and Service,Butcher,126.68838802728791,37.47950039533208,대한민국,KOR,KOR,인천광역시,서구,,가좌동,,가좌로96번길,31,477-4,2022-08-24 14:41:06,"쇼핑,편의||농축산물||육류||정육점||정육점-일반",False
103287,103288,1116522,송도정육백화점,송도정육점,Songdo Butcher's Department Store,Shops and Service,Butcher,126.6904535444479,37.4790135422002,대한민국,KOR,KOR,인천광역시,서구,,가좌동,,율도로36번길,75,480-10,2022-08-16 16:52:33,"쇼핑,편의||농축산물||육류||정육점||정육점-일반",False
103311,103312,27388404,한우농가정육점,,Hanwoo farmhouse butcher shop,Shops and Service,Butcher,126.67253094144472,37.405749498779294,대한민국,KOR,KOR,인천광역시,연수구,,동춘동,,원인재로,59,932,2022-07-13 13:54:25,"쇼핑,편의||농축산물||육류||정육점||정육점-일반",False
103389,103390,27177931,행복축산,,happy livestock,Shops and Service,Butcher,126.65370220469886,37.45854492535647,대한민국,KOR,KOR,인천광역시,미추홀구,,용현동,,용삼길,75-1,492-44,2022-05-01 12:37:48,"쇼핑,편의||농축산물||육류||육류-일반",False
103685,103686,27136547,명가축산물도매센타,명가축산물센타 을왕점,Myungga Livestock Products Wholesale Center,Shops and Service,Butcher,126.37621399999972,37.44524289999977,대한민국,KOR,KOR,인천광역시,중구,,을왕동,,용유서로,298,727,2022-08-24 14:41:06,"쇼핑,편의||농축산물||육류||정육점||정육점-일반",False
103771,103772,2617479,한아름정육점,,Hana Reum Butcher Shop,Shops and Service,Butcher,126.71588032923988,37.431151705394875,대한민국,KOR,KOR,인천광역시,남동구,,남촌동,,남촌동로3번길,35,332-6,2022-08-24 14:41:06,"쇼핑,편의||농축산물||육류||정육점||정육점-일반",False
103803,103804,4322360,천재축산유통,,Genius Livestock Distribution,Shops and Service,Butcher,126.7208644360038,37.45339508147076,대한민국,KOR,KOR,인천광역시,남동구,,구월동,,호구포로800번길,28,1267,2022-08-18 12:00:50,"쇼핑,편의||농축산물||육류||정육점||정육점-일반",False
103835,103836,27203192,길상축산전문점,,Gilsang Livestock Specialty Store,Shops and Service,Butcher,126.6546680421829,37.45762027350917,대한민국,KOR,KOR,인천광역시,미추홀구,,용현동,,독정이로16번길,3-1,490-62,2022-05-01 12:37:48,"쇼핑,편의||농축산물||육류||정육점||정육점-일반",False
103890,103891,4327763,시장축산,,market livestock,Shops and Service,Butcher,126.71494353519591,37.464272036487074,대한민국,KOR,KOR,인천광역시,남동구,,간석동,,용천로168번길,14,42-9,2022-08-24 14:41:06,"쇼핑,편의||농축산물||육류||정육점||정육점-일반",False
104074,104075,2602286,황해정육점,,Hwanghae Butcher Shop,Shops and Service,Butcher,126.70781283748488,37.528643543884606,대한민국,KOR,KOR,인천광역시,계양구,,효성동,,효서로111번길,10,170-4,2022-05-01 12:37:48,"쇼핑,편의||농축산물||육류||정육점||정육점-일반",False
104293,104294,4340615,정직한총각네축산부개점,,Honest bachelor's four livestock department opened,Shops and Service,Butcher,126.73264309999996,37.4846984999998,대한민국,KOR,KOR,인천광역시,부평구,,부개동,,동수로120번길,11,442-3,2022-08-24 14:41:06,"쇼핑,편의||농축산물||육류||정육점||정육점-일반",False
104569,104570,20030810,장터정육백화점,,Marketplace Meat Department Store,Shops and Service,Butcher,126.6678039674029,37.5152902286082,대한민국,KOR,KOR,인천광역시,서구,,신현동,,염곡로327번길,19,137-20,2022-08-16 16:52:33,"쇼핑,편의||농축산물||육류||정육점||정육점-일반",False
104776,104777,27223007,바른정육,,Bareun meat,Shops and Service,Butcher,126.739313048336,37.50420069489921,대한민국,KOR,KOR,인천광역시,부평구,,부개동,,부개로,71-12,496-16,2022-08-16 16:52:33,"쇼핑,편의||농축산물||육류||정육점||정육점-일반",False
104968,104969,5686860,송연정육점,,Songyeon Butcher Shop,Shops and Service,Butcher,126.6878835010979,37.47907305508567,대한민국,KOR,KOR,인천광역시,서구,,가좌동,,가좌로96번길,32,482-4,2022-05-01 12:37:48,"쇼핑,편의||농축산물||육류||정육점||정육점-일반",False
105585,105586,2613103,명품한우마을,,Luxury Korean Beef Village,Shops and Service,Butcher,126.69786181180687,37.45606830013547,대한민국,KOR,KOR,인천광역시,남동구,,간석동,,구월로8번길,122,508-139,2022-08-24 14:41:06,"쇼핑,편의||농축산물||육류||정육점||정육점-일반",False
105879,105880,4347664,정가네정육점,,JeonggaNe Butcher Shop,Shops and Service,Butcher,126.7041081894269,37.50676919355558,대한민국,KOR,KOR,인천광역시,부평구,,산곡동,,마장로324번길,12,100-93,2022-08-24 14:41:06,"쇼핑,편의||농축산물||육류||정육점||정육점-일반",False
106103,106104,4322434,황토축산물도매센타 주안점,황토축산물도매주안점,Loess Livestock Wholesale Center  Main Branch,Shops and Service,Butcher,126.67985423472788,37.45769559594356,대한민국,KOR,KOR,인천광역시,미추홀구,,주안동,,미추홀대로,675,468-10,2022-08-24 14:41:06,"쇼핑,편의||농축산물||육류||정육점||정육점-일반",False
106414,106415,3121107,한냉정육점,,cold butcher shop,Shops and Service,Butcher,126.66825513335988,37.46795960026959,대한민국,KOR,KOR,인천광역시,미추홀구,,도화동,,석정로,296,137-10,2022-08-24 14:41:06,"쇼핑,편의||농축산물||육류||정육점||정육점-일반",False
107258,107259,5366964,김박사고기시장, ,Dr. Kim meat market,Shops and Service,Butcher,126.62677999999993,37.4713053999998,대한민국,KOR,KOR,인천광역시,중구,,신포동,,우현로45번길,24,7-56,2022-08-12 13:15:03,"쇼핑,편의||농축산물||육류||정육점||정육점-일반",False
107290,107291,27215975,일등한우축산,,First-class Korean beef livestock,Shops and Service,Butcher,126.63776633462084,37.45114249799606,대한민국,KOR,KOR,인천광역시,미추홀구,,용현동,,낙섬중로32번길,7,617-63,2022-08-16 16:52:33,"쇼핑,편의||농축산물||육류||정육점||정육점-일반",False
107298,107299,3118006,한우랑정육타운,,Korean Beef Rang  Butcher Town,Shops and Service,Butcher,126.63977387085583,37.45715718756966,대한민국,KOR,KOR,인천광역시,미추홀구,,용현동,,아암대로29번길,53-16,571-50,2022-08-24 14:41:06,"쇼핑,편의||농축산물||육류||정육점||정육점-일반",False
107401,107402,5702885,신세계고기장터,,Shinsegae Meat Market,Shops and Service,Butcher,126.60594813074684,37.453567550019166,대한민국,KOR,KOR,인천광역시,중구,,항동7가,,연안부두로33번길,36,27-131,2022-08-24 14:41:06,"쇼핑,편의||농축산물||육류||정육점||정육점-일반",False
107510,107511,20046800,우주정육점,,Space Butcher Shop,Shops and Service,Butcher,126.6796751218266,37.422660451137055,대한민국,KOR,KOR,인천광역시,연수구,,연수동,,함박뫼로,115,535-2,2022-08-16 16:52:33,"쇼핑,편의||농축산물||육류||정육점||정육점-일반",False
107669,107670,6092424,달인축산,,master livestock,Shops and Service,Butcher,126.7157343999999,37.59496469999981,대한민국,KOR,KOR,인천광역시,서구,,원당동,,이음5로,72,산63-2,2022-08-30 9:43:30,"쇼핑,편의||농축산물||육류||정육점||정육점-일반",False
108062,108063,2607285,전동축산,,electric livestock,Shops and Service,Butcher,126.62799999999994,37.478741699999794,대한민국,KOR,KOR,인천광역시,중구,,전동,,참외전로72번길,1,12-14,2021-12-23 15:49:18,"쇼핑,편의||농축산물||육류||정육점||정육점-일반",False
108765,108766,5707086,고기마루,,meat floor Yeonsu point,Shops and Service,Butcher,126.68279119999994,37.425305099999775,대한민국,KOR,KOR,인천광역시,연수구,,연수동,,비류대로433번길,21,507-3,2022-08-16 16:52:33,"쇼핑,편의||농축산물||육류||정육점||정육점-일반",False
108926,108927,3117402,정육점입니다,,butcher shop,Shops and Service,Butcher,126.64099031426372,37.45656617035952,대한민국,KOR,KOR,인천광역시,미추홀구,,용현동,,아암대로29번길,83,568-84,2022-08-16 16:52:33,"쇼핑,편의||농축산물||육류||정육점||정육점-일반",False
109599,109600,3139790,국제정육백화점,국제정육점,international meat Department store,Shops and Service,Butcher,126.6821989499068,37.45756464724209,대한민국,KOR,KOR,인천광역시,미추홀구,,주안동,,경인로380번길,13,434-30,2022-05-01 12:37:48,"쇼핑,편의||농축산물||육류||정육점||정육점-일반",False
109660,109661,27223039,우리정육점,,our butcher shop,Shops and Service,Butcher,126.7202412942629,37.45281375023166,대한민국,KOR,KOR,인천광역시,남동구,,구월동,,호구포로790번길,21-5,1266-10,2022-05-01 12:37:48,"쇼핑,편의||농축산물||육류||정육점||정육점-일반",False
110295,110296,27101441,하나로축산물 도매센타,,Hanaro Livestock Products Wholesale Center,Shops and Service,Butcher,126.71605836157087,37.42990553890846,대한민국,KOR,KOR,인천광역시,남동구,,남촌동,,호구포로535번길,39,284,2022-08-18 12:00:50,"쇼핑,편의||농축산물||육류||정육점||정육점-일반",False
110320,110321,4361989,한성정육도매점 부평본점,한성정육점 부평본점,Hanseong Butcher Wholesale Store Bupyeong Main Store,Shops and Service,Butcher,126.74372278553994,37.48444382683109,대한민국,KOR,KOR,인천광역시,부평구,,일신동,,일신로14번길,34,108-1,2022-08-24 14:41:06,"쇼핑,편의||농축산물||육류||정육점||정육점-일반",False
110407,110408,3264657,대구식품정육,,Daegu Food Meat,Shops and Service,Butcher,126.68824184274088,37.479042614947375,대한민국,KOR,KOR,인천광역시,서구,,가좌동,,가좌로96번길,35,480-19,2022-05-01 12:37:48,"쇼핑,편의||농축산물||육류||정육점||정육점-일반",False
111177,111178,3141145,강남한우축산,강남축산,Gangnam Hanwoo Livestock,Shops and Service,Butcher,126.68795460202988,37.479027555310296,대한민국,KOR,KOR,인천광역시,서구,,가좌동,,가좌로96번길,32,482-4,2022-08-24 14:41:06,"쇼핑,편의||농축산물||육류||정육점||정육점-일반",False
111708,111709,4343865,일송정육점,,Ilsong Butcher Shop,Shops and Service,Butcher,126.68560914002012,37.550789002840204,대한민국,KOR,KOR,인천광역시,서구,,공촌동,,심곡로194번길,33,307-30,2022-08-24 14:41:06,"쇼핑,편의||농축산물||육류||정육점||정육점-일반",False
111772,111773,27021617,대림축산 롯데백화점인천점,,Daelim Livestock Lotte Department Store Incheon,Shops and Service,Butcher,126.70140778999988,37.44243416999976,대한민국,KOR,KOR,인천광역시,미추홀구,,관교동,,연남로,35,15,2022-05-01 12:37:48,"쇼핑,편의||농축산물||육류||정육점||정육점-일반",False
111813,111814,4329974,고운노을정육점,,Gounnoeul Butcher Shop,Shops and Service,Butcher,126.68692936817791,37.467702985755366,대한민국,KOR,KOR,인천광역시,미추홀구,,주안동,,석정로461번길,35-5,19-136,2022-08-24 14:41:06,"쇼핑,편의||농축산물||육류||정육점||정육점-일반",False
112565,112566,4323216,두리축산,,Doori Livestock,Shops and Service,Butcher,126.72131782156993,37.45513669982757,대한민국,KOR,KOR,인천광역시,남동구,,구월동,,복개서로89번길,34,1256-14,2019-11-14 0:00:00,"쇼핑,편의||농축산물||육류||정육점||정육점-일반",False
112907,112908,4341117,정육점,,butcher shop,Shops and Service,Butcher,126.6786492992269,37.411373272496256,대한민국,KOR,KOR,인천광역시,연수구,,연수동,,샘말로8번길,20,631-6,2022-08-16 16:52:33,"쇼핑,편의||농축산물||육류||정육점||정육점-일반",False
113127,113128,1904305,유앤아이미트,,U&I Meat,Shops and Service,Butcher,126.75496240016994,37.525446400434205,대한민국,KOR,KOR,인천광역시,계양구,,서운동,,아나지로,562,144-73,2022-08-18 12:00:50,"쇼핑,편의||농축산물||육류||정육점||정육점-일반",False
113744,113745,3136466,두지종합축산정육백화점,두지축산정육백화점,Dooji General Livestock and Meat Department Store,Shops and Service,Butcher,126.70885069999994,37.4676355999998,대한민국,KOR,KOR,인천광역시,남동구,,간석동,,간석로6번길,11,108-13,2022-08-16 16:52:33,"쇼핑,편의||농축산물||육류||정육점||정육점-일반",False
114009,114010,1274464,강화축산물도매센타,강화축산물센타,Ganghwa Livestock Products wholesale center,Shops and Service,Butcher,126.49301580812345,37.74323160826378,대한민국,KOR,KOR,인천광역시,강화군,,강화읍,갑곳리,대월로,8,198,2022-08-16 16:52:33,"쇼핑,편의||농축산물||육류||정육점||정육점-일반",False
114036,114037,4322639,싱싱생고기백화점,,fresh meat Department store,Shops and Service,Butcher,126.7060219691119,37.447137476409175,대한민국,KOR,KOR,인천광역시,남동구,,구월동,,남동대로725번길,17,1157-1,2022-08-24 14:41:06,"쇼핑,편의||농축산물||육류||정육점||정육점-일반",False
114168,114169,2610849,화도정육점,,Hwado Butcher Shop,Shops and Service,Butcher,126.62848889999992,37.4806166999998,대한민국,KOR,KOR,인천광역시,동구,,화수동,,화도진로,109,321,2022-05-01 12:37:48,"쇼핑,편의||농축산물||육류||정육점||정육점-일반",False
114534,114535,27227309,세미축산,,semi-livestock,Shops and Service,Butcher,126.72127369999995,37.454123399999794,대한민국,KOR,KOR,인천광역시,남동구,,구월동,,구월로276번길,33,1263-2,2022-08-24 14:41:06,"쇼핑,편의||농축산물||육류||정육점||정육점-일반",False
114692,114693,5672535,서준닭유통,,Seojun Chicken Distribution,Shops and Service,Butcher,126.70613641711688,37.526825178314695,대한민국,KOR,KOR,인천광역시,계양구,,효성동,,마장로544번길,7,499-8,2022-05-01 12:37:48,"쇼핑,편의||농축산물||육류||닭||닭-일반",False
114954,114955,4346146,현진미트,,Hyunjin Meat,Shops and Service,Butcher,126.67553091390587,37.503191625072795,대한민국,KOR,KOR,인천광역시,서구,,석남동,,거북로,121-1,549-8,2022-08-16 16:52:33,"쇼핑,편의||농축산물||육류||정육점||정육점-일반",False
115265,115266,3136609,안심축산물전문점 임학동점,,Anshim Livestock Specialty Store Imhak-dong,Shops and Service,Butcher,126.73744584671896,37.54613054599741,대한민국,KOR,KOR,인천광역시,계양구,,임학동,,장제로883번길,16,25-26,2022-08-16 16:52:33,"쇼핑,편의||농축산물||육류||정육점||정육점-일반",False
115395,115396,1253489,인천강화옹진축산농협 축산물판매장,옹진축산물판매장,Incheon Ganghwa Ongjin Livestock Agricultural Cooperative  Livestock Products Store,Shops and Service,Butcher,126.64751761536986,37.42451670516896,대한민국,KOR,KOR,인천광역시,연수구,,옥련동,,독배로40번길,47,462-20,2022-05-01 12:37:48,"쇼핑,편의||농축산물||육류||정육점||정육점-일반",False
115916,115917,27223443,명성축산,,Myeongseong Livestock,Shops and Service,Butcher,126.72459741427292,37.538538124547415,대한민국,KOR,KOR,인천광역시,계양구,,계산동,,계산천동로19번길,1,960-42,2022-08-12 13:15:03,"쇼핑,편의||농축산물||육류||육류-일반",False
116188,116189,4325645,푸른축산,,blue livestock,Shops and Service,Butcher,126.64492241279368,37.47637343031484,대한민국,KOR,KOR,인천광역시,동구,,송림동,,샛골로,156,50-26,2022-05-01 12:37:48,"쇼핑,편의||농축산물||육류||정육점||정육점-일반",False
116415,116416,6226181,대성축산,,Daesung Livestock,Shops and Service,Butcher,126.62573101802784,37.52215159990487,대한민국,KOR,KOR,인천광역시,서구,,청라동,,보석로18번안길,17,104-105,2020-01-14 23:36:43,"쇼핑,편의||농축산물||육류||육류-일반",False
117457,117458,1266975,농축산물도매시장,농축산물시장,Agricultural Products Wholesale Market,Shops and Service,Butcher,126.65413274354589,37.60205472529361,대한민국,KOR,KOR,인천광역시,서구,,왕길동,,검단로445번길,16,636-4,2022-08-18 12:00:50,"쇼핑,편의||농축산물||육류||정육점||정육점-일반",False
117815,117816,5664567,대성정육점,,Daesung Butcher,Shops and Service,Butcher,126.70026729966288,37.5297638012515,대한민국,KOR,KOR,인천광역시,계양구,,효성동,,봉오대로477번길,26,123-85,2022-08-24 14:41:06,"쇼핑,편의||농축산물||육류||정육점||정육점-일반",False
