,OID_,id,name,name_alias,name_eng,category,subcategory,lon,lat,country,country_code,language_code,sd,sgg,sgg_sub,emd,ri,street,number_st,number_jb,update_date,dwnm,result
219,220,20476228,헤라미용실,,her hair salon,Shops and Service,Beauty Salon,126.69521225249593,37.47326157684541,대한민국,KOR,KOR,인천광역시,부평구,,십정동,,배곶남로21번길,21,353-6,2022-05-01 12:37:48,"쇼핑,편의||미용||미용실||미용실-일반",False
298,299,5672383,자매미용실,,sister beauty salon,Shops and Service,Beauty Salon,126.6778554984549,37.46943998028976,대한민국,KOR,KOR,인천광역시,미추홀구,,주안동,,길파로35번길,34-1,10-103,2021-12-23 15:49:18,"쇼핑,편의||미용||미용실||미용실-일반",False
683,684,6226795,유즐미용실,,Yuzul Beauty Salon,Shops and Service,Beauty Salon,126.73704265570798,37.547815352965515,대한민국,KOR,KOR,인천광역시,계양구,,임학동,,병방시장로,48-1,260-1,2021-12-23 15:49:18,"쇼핑,편의||미용||미용실||미용실-일반",False
716,717,5672989,정미용실,,beauty salon,Shops and Service,Beauty Salon,126.7024199517369,37.51880887542618,대한민국,KOR,KOR,인천광역시,부평구,,청천동,,산청로,112,30-5,2022-08-24 14:41:06,"쇼핑,편의||미용||미용실||미용실-일반",False
967,968,3443837,모던뷰티,,Modern Beauty,Shops and Service,Beauty Salon,126.66185365048491,37.43957303871797,대한민국,KOR,KOR,인천광역시,미추홀구,,학익동,,한나루로,351-1,696-4,2022-08-16 16:52:33,"쇼핑,편의||미용||미용실||미용실-일반",False
1010,1011,2598355,주영미용실,,Jooyoung beauty salon,Shops and Service,Beauty Salon,126.72641205473492,37.54522514053921,대한민국,KOR,KOR,인천광역시,계양구,,계산동,,하느재로20번길,12,926,2021-12-23 15:49:18,"쇼핑,편의||미용||미용실||미용실-일반",False
1071,1072,4321717,김성일미용실,,Kim Seong-il Beauty Salon,Shops and Service,Beauty Salon,126.6828799694139,37.45018035020337,대한민국,KOR,KOR,인천광역시,미추홀구,,주안동,,인주대로418번길,22,1488-27,2022-08-24 14:41:06,"쇼핑,편의||미용||미용실||미용실-일반",False
1082,1083,3121326,헤어트릭미용실,,hair trick hair salon,Shops and Service,Beauty Salon,126.65555232161388,37.42472506472616,대한민국,KOR,KOR,인천광역시,연수구,,옥련동,,한나루로,171,352-24,2022-08-18 12:00:50,"쇼핑,편의||미용||미용실||미용실-일반",False
1320,1321,2149992,현대이발관,,modern barber shop,Shops and Service,Beauty Salon,126.48768241528172,37.74241920814804,대한민국,KOR,KOR,인천광역시,강화군,,강화읍,남산리,남문로,51,96-1,2022-05-01 12:37:48,"쇼핑,편의||미용||미용실||일반미용실||이용원",False
1412,1413,6219238,나래미용실,,Narae Beauty Salon,Shops and Service,Beauty Salon,126.65285082691184,37.46548489567027,대한민국,KOR,KOR,인천광역시,미추홀구,,숭의동,,경인로88번길,11,75-10,2021-12-23 15:49:18,"쇼핑,편의||미용||미용실||미용실-일반",False
1537,1538,4333671,신도이용원,,Shindo Yong-won,Shops and Service,Beauty Salon,126.69603367152862,37.45716380818396,대한민국,KOR,KOR,인천광역시,남동구,,간석동,,구월로52번길,2,901-47,2022-05-01 12:37:48,"쇼핑,편의||미용||미용실||일반미용실||이용원",False
1849,1850,27454683,갤러리헤어,,gallery hair,Shops and Service,Beauty Salon,126.67961070137395,37.420325555259566,대한민국,KOR,KOR,인천광역시,연수구,,연수동,,먼우금로251번길,8-19,546-6,2022-08-18 12:00:50,"쇼핑,편의||미용||미용실||미용실-일반",False
1978,1979,4338028,블루클럽 삼산타운점,,Blue Club Samsan Town,Shops and Service,Beauty Salon,126.73410159999995,37.5087945999998,대한민국,KOR,KOR,인천광역시,부평구,,삼산동,,체육관로,27,453-1,2022-09-06 15:18:26,"쇼핑,편의||미용||미용실||남성전문미용실||블루클럽",False
2013,2014,20059115,글램헤어 인천구월점,glamHair,glam hair,Shops and Service,Beauty Salon,126.70395929999997,37.44813209999978,대한민국,KOR,KOR,인천광역시,남동구,,구월동,,남동대로733번길,55-2,201-53,2022-09-06 15:18:26,"쇼핑,편의||미용||미용실||미용실-일반",False
2242,2243,20185448,한영이용원,,Han Young-won,Shops and Service,Beauty Salon,126.72085108692696,37.54154832218653,대한민국,KOR,KOR,인천광역시,계양구,,계산동,,계산천서로24번길,1,974-3,2021-12-23 15:49:18,"쇼핑,편의||미용||미용실||일반미용실||이용원",False
2291,2292,5709463,ys윤헤어살롱,와이에스윤헤어살롱,ys Yoon Hair Salon,Shops and Service,Beauty Salon,126.73806877607193,37.484948196095786,대한민국,KOR,KOR,인천광역시,부평구,,부개동,,마분로,12,352-2,2022-08-24 14:41:06,"쇼핑,편의||미용||미용실||미용실-일반",False
2371,2372,20013243,제니미용실,,Jenny Beauty Salon,Shops and Service,Beauty Salon,126.67089539236687,37.5168588612754,대한민국,KOR,KOR,인천광역시,서구,,신현동,,율도로77번길,35-2,280-5,2021-12-23 15:49:18,"쇼핑,편의||미용||미용실||미용실-일반",False
2637,2638,2621112,가고파미용실,,Gagopa Beauty Salon,Shops and Service,Beauty Salon,126.72479980802592,37.49517946679399,대한민국,KOR,KOR,인천광역시,부평구,,부평동,,부평문화로79번길,20-1,204-23,2022-09-06 15:18:26,"쇼핑,편의||미용||미용실||미용실-일반",False
2737,2738,3142017,연예인헤어클럽,,celebrity hair club,Shops and Service,Beauty Salon,126.736675,37.546291699999834,대한민국,KOR,KOR,인천광역시,계양구,,임학동,,임학안로6번길,25,31-3,2022-08-12 13:15:03,"쇼핑,편의||미용||미용실||미용실-일반",False
3017,3018,3134685,일리아드미용실,,Iliad Beauty Salon,Shops and Service,Beauty Salon,126.6723286090849,37.513312641427405,대한민국,KOR,KOR,인천광역시,서구,,석남동,,가정로,317,455-1,2022-08-16 16:52:33,"쇼핑,편의||미용||미용실||미용실-일반",False
3042,3043,5692935,진미용실,,delicacy salon,Shops and Service,Beauty Salon,126.70238865881988,37.51855677893538,대한민국,KOR,KOR,인천광역시,부평구,,청천동,,산청로,108,30-9,2022-05-01 12:37:48,"쇼핑,편의||미용||미용실||미용실-일반",False
3223,3224,20469476,김명순헤어클럽,,Kim Myung-soon Hair Club,Shops and Service,Beauty Salon,126.6035435005979,37.45441600322751,대한민국,KOR,KOR,인천광역시,중구,,항동7가,,연안부두로33번길,16,58-4,2022-08-24 14:41:06,"쇼핑,편의||미용||미용실||미용실-일반",False
3407,3408,3140600,현정헤어라인,,Hyunjeong Hairline,Shops and Service,Beauty Salon,126.74410584954492,37.484783362847686,대한민국,KOR,KOR,인천광역시,부평구,,일신동,,일신로8번길,32,109-17,2022-05-01 12:37:48,"쇼핑,편의||미용||미용실||미용실-일반",False
3478,3479,3130010,헤어사랑,,hair love,Shops and Service,Beauty Salon,126.64308822553186,37.45263832647356,대한민국,KOR,KOR,인천광역시,미추홀구,,용현동,,낙섬동로86번길,18,610-254,2021-12-23 15:49:18,"쇼핑,편의||미용||미용실||미용실-일반",False
3740,3741,4329975,임재연헤어라인,,Lim Jae-yeon hairline,Shops and Service,Beauty Salon,126.68710554062189,37.46734519645317,대한민국,KOR,KOR,인천광역시,남동구,,간석동,,석정로461번길,24,616-10,2022-05-18 1:18:20,"쇼핑,편의||미용||미용실||미용실-일반",False
3817,3818,5671595,아모레미용실,,Amore Beauty Salon,Shops and Service,Beauty Salon,126.64437196329956,37.46297614824217,대한민국,KOR,KOR,인천광역시,미추홀구,,숭의동,,경인로,7,162-65,2022-08-12 13:15:03,"쇼핑,편의||미용||미용실||미용실-일반",False
3867,3868,2620928,재희이용원,,Jaehee Lee Yongwon,Shops and Service,Beauty Salon,126.6624992377349,37.45547066385736,대한민국,KOR,KOR,인천광역시,미추홀구,,용현동,,수봉남로6번길,120,118-14,2021-12-23 15:49:18,"쇼핑,편의||미용||미용실||일반미용실||이용원",False
4208,4209,4323081,공원앞미용실,,park front beauty salon,Shops and Service,Beauty Salon,126.69483120553488,37.45392636157288,대한민국,KOR,KOR,인천광역시,남동구,,구월동,,구월남로,47,1088-25,2022-08-24 14:41:06,"쇼핑,편의||미용||미용실||미용실-일반",False
4280,4281,20201345,인스타일헤어살롱,INSTYLEhairsalon,InStyle Hair Salon,Shops and Service,Beauty Salon,126.73187000980164,37.494088160831375,대한민국,KOR,KOR,인천광역시,부평구,,부평동,,부평문화로141번길,3,364-19,2022-08-16 16:52:33,"쇼핑,편의||미용||미용실||미용실-일반",False
4634,4635,3443287,케이에행복한미용실,,Kei Happy Beauty Salon,Shops and Service,Beauty Salon,126.75150499999997,37.435807999999774,대한민국,KOR,KOR,인천광역시,남동구,,서창동,,장아산로,175,538,2022-08-16 16:52:33,"쇼핑,편의||미용||미용실||미용실-일반",False
4670,4671,2594498,우성이용원,,Woo Seong Yong-won,Shops and Service,Beauty Salon,126.71401826399888,37.462738484954095,대한민국,KOR,KOR,인천광역시,남동구,,간석동,,석산로197번길,44,133-1,2021-12-23 15:49:18,"쇼핑,편의||미용||미용실||일반미용실||이용원",False
5158,5159,5667532,머리사랑,,hair love,Shops and Service,Beauty Salon,126.69604002846188,37.472485847234886,대한민국,KOR,KOR,인천광역시,부평구,,십정동,,배곶남로,19,354-5,2022-08-24 14:41:06,"쇼핑,편의||미용||미용실||미용실-일반",False
5276,5277,20026580,휴이엠헤어 부평3호점,HUUIM헤어 부평3호점,Huey M Hair Bupyeong 3rd Branch,Shops and Service,Beauty Salon,126.72560529999996,37.4938635999998,대한민국,KOR,KOR,인천광역시,부평구,,부평동,,시장로,31,192-14,2022-09-06 15:18:26,"쇼핑,편의||미용||미용실||일반미용실||휴이엠헤어",False
5375,5376,1870669,효리뷰티컬쳐,효리Beautyculture,Hyori Beauty Culture,Shops and Service,Beauty Salon,126.67508299226188,37.5193890126917,대한민국,KOR,KOR,인천광역시,서구,,가정동,,석곶로22번길,11,500-23,2022-08-24 14:41:06,"쇼핑,편의||미용||미용실||미용실-일반",False
5541,5542,6216494,대원이발관,,Daewon Barber,Shops and Service,Beauty Salon,126.64020821647588,37.45693249451386,대한민국,KOR,KOR,인천광역시,미추홀구,,용현동,,아암대로29번길,53-36,571-46,2021-12-23 15:49:18,"쇼핑,편의||미용||미용실||일반미용실||이용원",False
5647,5648,4343000,박안숙미용실,,Park Ansook Beauty Salon,Shops and Service,Beauty Salon,126.70928902421888,37.52904017859141,대한민국,KOR,KOR,인천광역시,계양구,,효성동,,안남로519번길,18,155-3,2022-08-16 16:52:33,"쇼핑,편의||미용||미용실||미용실-일반",False
5728,5729,4337787,참예쁜미용실,,very pretty salon,Shops and Service,Beauty Salon,126.72464984089592,37.50080197470661,대한민국,KOR,KOR,인천광역시,부평구,,부평동,,주부토로65번길,19,437-2,2022-08-24 14:41:06,"쇼핑,편의||미용||미용실||미용실-일반",False
5818,5819,3129501,희미용실,,dim room,Shops and Service,Beauty Salon,126.70378563855589,37.490721046784174,대한민국,KOR,KOR,인천광역시,부평구,,산곡동,,화랑로,80,370-65,2022-05-01 12:37:48,"쇼핑,편의||미용||미용실||미용실-일반",False
5942,5943,2602369,새로나헤어갤러리,,Saerona Hair Gallery,Shops and Service,Beauty Salon,126.70444633355989,37.466421245643275,대한민국,KOR,KOR,인천광역시,남동구,,간석동,,경인로599번길,32,246-1,2022-08-24 14:41:06,"쇼핑,편의||미용||미용실||미용실-일반",False
6518,6519,3445048,태산미용실,,Taesan Beauty Salon,Shops and Service,Beauty Salon,126.68043099939788,37.41957933248915,대한민국,KOR,KOR,인천광역시,연수구,,연수동,,먼우금로252번길,27-16,574-12,2022-08-16 16:52:33,"쇼핑,편의||미용||미용실||미용실-일반",False
6637,6638,5665749,김정숙미용실,,Kim Jeong-sook Beauty Salon,Shops and Service,Beauty Salon,126.72193656690791,37.450310752377966,대한민국,KOR,KOR,인천광역시,남동구,,구월동,,인주대로763번길,25,1279-7,2019-11-14 23:19:55,"쇼핑,편의||미용||미용실||미용실-일반",False
6968,6969,2157317,임득남미용실,,Im Deuknam Beauty Salon,Shops and Service,Beauty Salon,126.28011289999962,37.782478499999904,대한민국,KOR,KOR,인천광역시,강화군,,교동면,대룡리,대룡안길54번길,44,508-2,2021-12-23 15:49:18,"쇼핑,편의||미용||미용실||미용실-일반",False
7020,7021,27184074,고부자헤어갤러리,,Gobuja Hair Gallery,Shops and Service,Beauty Salon,126.72379040026992,37.40188169975086,대한민국,KOR,KOR,인천광역시,남동구,,논현동,,논고개로,121,631-11,2022-05-01 12:37:48,"쇼핑,편의||미용||미용실||미용실-일반",False
7441,7442,6218426,미추홀이용원,,Michu Hall Userwon,Shops and Service,Beauty Salon,126.66548166511546,37.44488184505048,대한민국,KOR,KOR,인천광역시,미추홀구,,학익동,,한나루로,419,313-2,2022-08-08 10:29:42,"쇼핑,편의||미용||미용실||일반미용실||이용원",False
7840,7841,5671607,살롱차쌤,,Salon Cha,Shops and Service,Beauty Salon,126.4894950000007,37.74414630000433,대한민국,KOR,KOR,인천광역시,강화군,,강화읍,관청리,강화대로,370,117-6,2022-08-16 16:52:33,"쇼핑,편의||미용||미용실||미용실-일반",False
7952,7953,5709283,박소연헤어갤러리,,Soyeon Park Hair Gallery,Shops and Service,Beauty Salon,126.73444789944097,37.45024139978149,대한민국,KOR,KOR,인천광역시,남동구,,만수동,,소래로,677,966,2022-08-16 16:52:33,"쇼핑,편의||미용||미용실||미용실-일반",False
7998,7999,4337584,선미용실,,stern hair salon,Shops and Service,Beauty Salon,126.73613446307294,37.52820758627911,대한민국,KOR,KOR,인천광역시,계양구,,작전동,,까치말로29번길,1,919-3,2022-08-24 14:41:06,"쇼핑,편의||미용||미용실||미용실-일반",False
8004,8005,27089357,살롱드 뚜아에무아,,Salon de Touaemoir,Shops and Service,Beauty Salon,126.66141181558876,37.45221475979224,대한민국,KOR,KOR,인천광역시,미추홀구,,용현동,,한나루로489번길,107,96-47,2022-08-12 13:15:03,"쇼핑,편의||미용||미용실||미용실-일반",False
8007,8008,27451584,아마빌레헤어살롱,,Amabile Hair Salon,Shops and Service,Beauty Salon,126.72904222665296,37.4617578133056,대한민국,KOR,KOR,인천광역시,남동구,,만수동,,만수서로37번길,30,109-127,2022-08-12 13:15:03,"쇼핑,편의||미용||미용실||미용실-일반",False
8109,8110,19323718,뷰림헤어케어살롱 인하점, ,Beaurim Hair Care Salon Inha Branch,Shops and Service,Beauty Salon,126.64912009999996,37.44814629999978,대한민국,KOR,KOR,인천광역시,미추홀구,,용현동,,독배로,311,665-12,2022-09-06 15:18:26,"쇼핑,편의||미용||미용실||일반미용실||뷰림헤어케어살롱",False
8227,8228,5712546,김준뷰티헤어,김준헤어,Kim Jun Beauty Hair,Shops and Service,Beauty Salon,126.72588525821192,37.460162100421,대한민국,KOR,KOR,인천광역시,남동구,,만수동,,백범로,212,861-6,2022-08-18 12:00:50,"쇼핑,편의||미용||미용실||미용실-일반",False
8302,8303,1264483,가나안미용실,,Canaan Beauty Salon,Shops and Service,Beauty Salon,126.70543187916115,37.46247059811719,대한민국,KOR,KOR,인천광역시,남동구,,간석동,,남동대로897번길,48,327-11,2022-05-01 12:37:48,"쇼핑,편의||미용||미용실||미용실-일반",False
8377,8378,5675846,연풍이용원,,Yeonpung Lee Yong-won,Shops and Service,Beauty Salon,126.6587190172609,37.60289053398181,대한민국,KOR,KOR,인천광역시,서구,,마전동,,검단로487번길,6,933-3,2020-01-14 23:23:43,"쇼핑,편의||미용||미용실||일반미용실||이용원",False
8429,8430,20477915,아성이발관,,haircut tube,Shops and Service,Beauty Salon,126.68169967355696,37.54450493748332,대한민국,KOR,KOR,인천광역시,서구,,심곡동,,심곡로,129,283-8,2022-05-01 12:37:48,"쇼핑,편의||미용||미용실||일반미용실||이용원",False
8435,8436,4328345,훈이미용실,,Hooni Beauty Salon,Shops and Service,Beauty Salon,126.6765090300309,37.45544107785737,대한민국,KOR,KOR,인천광역시,미추홀구,,주안동,,남주길125번길,34,544-32,2021-12-23 15:49:18,"쇼핑,편의||미용||미용실||미용실-일반",False
8509,8510,4349116,삼화이용원,,Samhwa Yongwon,Shops and Service,Beauty Salon,126.67353430554792,37.54178486969241,대한민국,KOR,KOR,인천광역시,서구,,심곡동,,승학로216번길,9,257-7,2020-01-14 23:26:11,"쇼핑,편의||미용||미용실||일반미용실||이용원",False
8540,8541,20170906,금조미용실,,Geumjo Beauty Salon,Shops and Service,Beauty Salon,126.74105546210798,37.55519655448703,대한민국,KOR,KOR,인천광역시,계양구,,박촌동,,장제로995번길,42,72-2,2021-12-23 15:49:18,"쇼핑,편의||미용||미용실||미용실-일반",False
8613,8614,27498109,헤어바이반룬하우트 부평점,HAIRBYVANLOENHOUT 부평점,Hair by Van Rune Hout Bupyeong,Shops and Service,Beauty Salon,126.72136279999998,37.49423289999981,대한민국,KOR,KOR,인천광역시,부평구,,부평동,,부평문화로,47-1,542-45,2022-09-06 15:18:26,"쇼핑,편의||미용||미용실||일반미용실||헤어바이반룬하우트",False
8928,8929,2148812,좋은하루미용실,,good day beauty salon,Shops and Service,Beauty Salon,126.49146039999982,37.730345599999886,대한민국,KOR,KOR,인천광역시,강화군,,선원면,창리,고식이길,23,305-1,2022-05-01 12:37:48,"쇼핑,편의||미용||미용실||미용실-일반",False
8998,8999,5663070,살롱드마샬 인천논현점,,Salon de Marshall Incheon Nonhyeon Branch,Shops and Service,Beauty Salon,126.72440002551892,37.40194620058814,대한민국,KOR,KOR,인천광역시,남동구,,논현동,,논고개로,120,616-1,2022-09-06 15:18:26,"쇼핑,편의||미용||미용실||일반미용실||마샬뷰티살롱",False
9150,9151,5721926,예스머리염색방 부평점,예스염색방부평점,Yes Hair Dyeing Room Bupyeong,Shops and Service,Beauty Salon,126.70257939341492,37.520563653178414,대한민국,KOR,KOR,인천광역시,부평구,,청천동,,산청로,130-1,13-24,2022-05-01 12:37:48,"쇼핑,편의||미용||머리염색||머리염색-일반",False
9282,9283,4339308,샤론미용실,,Sharon hair salon,Shops and Service,Beauty Salon,126.64199246510687,37.47221319375007,대한민국,KOR,KOR,인천광역시,동구,,금곡동,,금창로,40,57-6,2022-05-01 12:37:48,"쇼핑,편의||미용||미용실||미용실-일반",False
9496,9497,5685188,이재숙미용실,,Jaesook Lee Beauty Salon,Shops and Service,Beauty Salon,126.69482869999995,37.46313899999979,대한민국,KOR,KOR,인천광역시,미추홀구,,주안동,,주안로,226,1617,2022-05-01 12:37:48,"쇼핑,편의||미용||미용실||미용실-일반",False
9508,9509,3127724,아네스헤어갤러리,,Annes Hair Gallery,Shops and Service,Beauty Salon,126.74534467714996,37.520797291378,대한민국,KOR,KOR,인천광역시,부평구,,삼산동,,영성중로,50,391-3,2022-08-24 14:41:06,"쇼핑,편의||미용||미용실||미용실-일반",False
9730,9731,2149809,진선미미용실,,Jinseon Beauty Salon,Shops and Service,Beauty Salon,126.48509389999984,37.747828299999895,대한민국,KOR,KOR,인천광역시,강화군,,강화읍,관청리,동문안길21번길,20,450,2022-08-18 12:00:50,"쇼핑,편의||미용||미용실||미용실-일반",False
9732,9733,3964590,두쏠뷰티 홈플러스연수점,,Doosol Beauty Homeplus Yeonsu Branch,Shops and Service,Beauty Salon,126.68406539999992,37.40671569999978,대한민국,KOR,KOR,인천광역시,연수구,,동춘동,,청능대로,210,926,2022-08-12 13:15:03,"쇼핑,편의||미용||미용실||일반미용실||두쏠뷰티",False
10089,10090,5667842,정계영미용실,,Jeong Gye-Young Beauty Salon,Shops and Service,Beauty Salon,126.73584739999998,37.44232049999978,대한민국,KOR,KOR,인천광역시,남동구,,만수동,,장승남로34번길,22,1043-7,2022-08-24 14:41:06,"쇼핑,편의||미용||미용실||미용실-일반",False
10365,10366,3123838,헤어살롱팜므,헤어살롱Femme,hair salon femme,Shops and Service,Beauty Salon,126.6313780999998,37.39525609999933,대한민국,KOR,KOR,인천광역시,연수구,,송도동,,아트센터대로,203,83,2022-08-08 10:29:42,"쇼핑,편의||미용||미용실||미용실-일반",False
10385,10386,20054205,감성헤어 인천연수점,,Emotional Hair Incheon Yeonsu Branch,Shops and Service,Beauty Salon,126.67573759366888,37.41463111615428,대한민국,KOR,KOR,인천광역시,연수구,,청학동,,먼우금로,189,503-3,2022-08-16 16:52:33,"쇼핑,편의||미용||미용실||일반미용실||감성헤어",False
10407,10408,4339503,민영헤어라인,,Minyoung hairline,Shops and Service,Beauty Salon,126.72603316539092,37.53369147312441,대한민국,KOR,KOR,인천광역시,계양구,,작전동,,봉오대로691번길,32,860-2,2022-08-16 16:52:33,"쇼핑,편의||미용||미용실||미용실-일반",False
10425,10426,20184686,신동아미용실,,Shindonga Beauty Salon,Shops and Service,Beauty Salon,126.70497789022994,37.4732813137807,대한민국,KOR,KOR,인천광역시,부평구,,십정동,,동암산로55번길,30,499-50,2021-12-23 15:49:18,"쇼핑,편의||미용||미용실||미용실-일반",False
10540,10541,4336461,윤명희머리사랑,,Yoon Myung-hee's hair love,Shops and Service,Beauty Salon,126.73524392596993,37.50442108041021,대한민국,KOR,KOR,인천광역시,부평구,,부개동,,길주남로125번길,11-9,12-205,2022-08-16 16:52:33,"쇼핑,편의||미용||미용실||미용실-일반",False
10541,10542,4348445,기선헤어클럽,,steam hair club,Shops and Service,Beauty Salon,126.74216229999996,37.53339379999982,대한민국,KOR,KOR,인천광역시,계양구,,작전동,,도두리로,70,912-5,2022-08-24 14:41:06,"쇼핑,편의||미용||미용실||미용실-일반",False
10636,10637,20027585,머리랑미용실,,hair salon,Shops and Service,Beauty Salon,126.72225918359695,37.48512042317038,대한민국,KOR,KOR,인천광역시,부평구,,부평동,,동수로,33,671-19,2022-05-02 21:16:34,"쇼핑,편의||미용||미용실||미용실-일반",False
10953,10954,2597782,썬미용실,,Sun Beauty Salon,Shops and Service,Beauty Salon,126.72724045390392,37.46380466038588,대한민국,KOR,KOR,인천광역시,남동구,,만수동,,서판로67번길,1,111-139,2022-08-24 14:41:06,"쇼핑,편의||미용||미용실||미용실-일반",False
10979,10980,4341603,행복한미용실,,happy beauty salon,Shops and Service,Beauty Salon,126.56379889999988,37.48907749999981,대한민국,KOR,KOR,인천광역시,중구,,중산동,,하늘별빛로65번길,7-3,1886-1,2022-08-12 13:15:03,"쇼핑,편의||미용||미용실||미용실-일반",False
11059,11060,3137735,부국이용원,,wealthy service worker,Shops and Service,Beauty Salon,126.67580765114288,37.45452004895676,대한민국,KOR,KOR,인천광역시,미추홀구,,주안동,,경인로326번길,91,548-4,2021-12-23 15:49:18,"쇼핑,편의||미용||미용실||일반미용실||이용원",False
11080,11081,20014251,라보떼헤어살롱,,Labote Hair Salon,Shops and Service,Beauty Salon,126.65156699999994,37.39496819999977,대한민국,KOR,KOR,인천광역시,연수구,,송도동,,신송로125번길,7,3-5,2022-09-06 15:18:26,"쇼핑,편의||미용||미용실||미용실-일반",False
11250,11251,20483768,대성이발관,,Daesung Barber,Shops and Service,Beauty Salon,126.72162858288796,37.4505374047564,대한민국,KOR,KOR,인천광역시,남동구,,구월동,,호구포로764번길,47,1278-21,2022-05-01 12:37:48,"쇼핑,편의||미용||미용실||일반미용실||이용원",False
11259,11260,3124161,블루클럽 구월점,BLUECLUB 구월점,Blue Club Guwol,Shops and Service,Beauty Salon,126.72070176280587,37.452246191229776,대한민국,KOR,KOR,인천광역시,남동구,,구월동,,구월남로,279,1271-8,2022-08-18 12:00:50,"쇼핑,편의||미용||미용실||남성전문미용실||블루클럽",False
12049,12050,5681016,김호증모 예리본 미용실,,Kim Ho Jeungmo Yeribon Beauty Salon,Shops and Service,Beauty Salon,126.7285233624889,37.46100915399289,대한민국,KOR,KOR,인천광역시,남동구,,만수동,,만수서로37번길,47,109-64,2022-08-12 13:15:03,"쇼핑,편의||미용||미용실||미용실-일반",False
12054,12055,2603281,명동미용실,,Myeongdong Beauty Salon,Shops and Service,Beauty Salon,126.66734480095288,37.47014040952488,대한민국,KOR,KOR,인천광역시,미추홀구,,도화동,,석정로279번길,41,115-3,2022-05-01 12:37:48,"쇼핑,편의||미용||미용실||미용실-일반",False
12073,12074,3122573,BL헤어클럽함박점,비엘헤어클럽함박점,BL Hair Club Hambak,Shops and Service,Beauty Salon,126.68273790720887,37.424765816643465,대한민국,KOR,KOR,인천광역시,연수구,,연수동,,비류대로433번길,7,507-10,2022-08-24 14:41:06,"쇼핑,편의||미용||미용실||미용실-일반",False
12290,12291,26878926,주향미용실,,Joohyang Beauty Salon,Shops and Service,Beauty Salon,126.73866229567896,37.4842023016519,대한민국,KOR,KOR,인천광역시,부평구,,부개동,,마분로,21,392-16,2022-05-01 12:37:48,"쇼핑,편의||미용||미용실||미용실-일반",False
12578,12579,6216560,주유자미용실,,Yuja Beauty Salon,Shops and Service,Beauty Salon,126.66668107316389,37.456841204166174,대한민국,KOR,KOR,인천광역시,미추홀구,,주안동,,경인북길,349-2,587-13,2021-12-23 15:49:18,"쇼핑,편의||미용||미용실||미용실-일반",False
12942,12943,4321684,머리사랑,,hair love,Shops and Service,Beauty Salon,126.70668529999995,37.44492709999978,대한민국,KOR,KOR,인천광역시,남동구,,구월동,,남동대로,701,1167,2022-08-24 14:41:06,"쇼핑,편의||미용||미용실||미용실-일반",False
13081,13082,19053546,블루클럽 김포불로점,,Blue Club Gimpo Bulro Branch,Shops and Service,Beauty Salon,126.69050089469263,37.61853862734903,대한민국,KOR,KOR,인천광역시,서구,,불로동,,검단로,842,308,2020-08-20 17:48:39,"쇼핑,편의||미용||미용실||남성전문미용실||블루클럽",False
13105,13106,26958597,미스타일미용실,,beauty style salon,Shops and Service,Beauty Salon,126.70021820011888,37.42169226945968,대한민국,KOR,KOR,인천광역시,연수구,,선학동,,선학로,37,340,2022-08-16 16:52:33,"쇼핑,편의||미용||미용실||미용실-일반",False
13166,13167,20476578,자인헤어갤러리 효성점,,Zain Hair Gallery Hyosung,Shops and Service,Beauty Salon,126.6982279872119,37.527313154629,대한민국,KOR,KOR,인천광역시,계양구,,효성동,,봉오대로,441-1,623-36,2022-05-01 12:37:48,"쇼핑,편의||미용||미용실||미용실-일반",False
13298,13299,3144644,한빛이용원,,Hanbit Lee Yong-won,Shops and Service,Beauty Salon,126.7276764458759,37.45248224314288,대한민국,KOR,KOR,인천광역시,남동구,,만수동,,구월로336번길,60,924-11,2022-05-01 12:37:48,"쇼핑,편의||미용||미용실||일반미용실||이용원",False
13497,13498,5658060,엔젤미용실,,Angel Beauty Salon,Shops and Service,Beauty Salon,126.6651690248989,37.42847641301737,대한민국,KOR,KOR,인천광역시,연수구,,청학동,,청학로16번길,27,534-32,2022-08-24 14:41:06,"쇼핑,편의||미용||미용실||미용실-일반",False
13569,13570,2603143,두레이발관,,Durai Bar Tube,Shops and Service,Beauty Salon,126.67443924254091,37.49850988904328,대한민국,KOR,KOR,인천광역시,서구,,가좌동,,가정로152번길,23-1,108-22,2020-01-14 0:00:00,"쇼핑,편의||미용||미용실||일반미용실||이용원",False
13580,13581,2595659,외출준비미용실,외출준비미용실,Outing preparation beauty salon,Shops and Service,Beauty Salon,126.62786607144984,37.475435288189686,대한민국,KOR,KOR,인천광역시,중구,,전동,,자유공원로,30,19-18,2022-08-18 12:00:50,"쇼핑,편의||미용||미용실||미용실-일반",False
13652,13653,2149771,윤희미용실,,Yoon Hee Beauty Salon,Shops and Service,Beauty Salon,126.4868706999987,37.74705909999564,대한민국,KOR,KOR,인천광역시,강화군,,강화읍,관청리,동문안길,20-3,175-17,2021-12-23 15:49:18,"쇼핑,편의||미용||미용실||미용실-일반",False
13759,13760,20001727,감성헤어 인천용현점,,Emotional Hair Incheon Yonghyeon Branch,Shops and Service,Beauty Salon,126.63967799999996,37.45884699999979,대한민국,KOR,KOR,인천광역시,미추홀구,,용현동,,능해길,38,572-3,2022-09-06 15:18:26,"쇼핑,편의||미용||미용실||일반미용실||감성헤어",False
13894,13895,2609331,보라미용실,,Bora Beauty Salon,Shops and Service,Beauty Salon,126.73012185686892,37.5184936979575,대한민국,KOR,KOR,인천광역시,부평구,,갈산동,,새갈로,6,37-4,2022-08-24 14:41:06,"쇼핑,편의||미용||미용실||미용실-일반",False
14043,14044,2611357,보성미용실,,Boseong Beauty Salon,Shops and Service,Beauty Salon,126.66684513150382,37.45728428732603,대한민국,KOR,KOR,인천광역시,미추홀구,,주안동,,경인북길357번길,14,580-17,2022-08-16 16:52:33,"쇼핑,편의||미용||미용실||미용실-일반",False
14246,14247,4326537,아트미용실,,Art Beauty Salon,Shops and Service,Beauty Salon,126.6675610999999,37.46830939999967,대한민국,KOR,KOR,인천광역시,미추홀구,,도화동,,석정로,289,105-14,2022-05-01 12:37:48,"쇼핑,편의||미용||미용실||미용실-일반",False
14252,14253,5660965,스타헤어라인,,Star Hair Line,Shops and Service,Beauty Salon,126.73415618813294,37.50236622648808,대한민국,KOR,KOR,인천광역시,부평구,,부평동,,부흥북로107번길,33,144-10,2019-11-14 0:00:00,"쇼핑,편의||미용||미용실||미용실-일반",False
14308,14309,20483216,김도연미용실,,Kim Do-yeon Beauty Salon,Shops and Service,Beauty Salon,126.67813994161394,37.44866890714789,대한민국,KOR,KOR,인천광역시,미추홀구,,주안동,,인하로267번길,10,1462,2022-08-24 14:41:06,"쇼핑,편의||미용||미용실||미용실-일반",False
14328,14329,6204763,부홍미용실,,buhong Beauty Salon,Shops and Service,Beauty Salon,126.73222727316691,37.492778528991394,대한민국,KOR,KOR,인천광역시,부평구,,부평동,,부평문화로142번길,28,453-1,2022-05-01 12:37:48,"쇼핑,편의||미용||미용실||미용실-일반",False
14429,14430,4330119,뷰티하우스 헤어 &네일,,Beauty House Hair &Nail,Shops and Service,Beauty Salon,126.67291332882388,37.45111064451945,대한민국,KOR,KOR,인천광역시,미추홀구,,주안동,,인주대로330번길,14,1418-49,2022-05-01 12:37:48,"쇼핑,편의||미용||미용실||미용실-일반",False
14502,14503,20012689,블룸앤블랑 헤어 인천논현점,블룸엔블랑헤어,Bloom & Blanc Hair Incheon Nonhyeon Branch,Shops and Service,Beauty Salon,126.7254897000199,37.39909099999516,대한민국,KOR,KOR,인천광역시,남동구,,논현동,,논고개로,87,746-1,2022-09-06 15:18:26,"쇼핑,편의||미용||미용실||미용실-일반",False
14857,14858,20484401,헤어커트라인,,Hair cut line,Shops and Service,Beauty Salon,126.7334975756629,37.504582344219,대한민국,KOR,KOR,인천광역시,부평구,,부개동,,길주남로101번길,12-8,484-2,2022-05-01 12:37:48,"쇼핑,편의||미용||미용실||미용실-일반",False
14916,14917,27500915,가나안미용실,,Canaan Beauty Salon,Shops and Service,Beauty Salon,126.70507301402596,37.45784001022879,대한민국,KOR,KOR,인천광역시,남동구,,간석동,,구월로131번길,20,410-3,2022-08-30 9:43:30,"쇼핑,편의||미용||미용실||미용실-일반",False
14947,14948,20202938,간석미용실,,Ganseok Beauty Salon,Shops and Service,Beauty Salon,126.71494210030588,37.466387444341386,대한민국,KOR,KOR,인천광역시,남동구,,간석동,,용천로,190-11,37-31,2022-08-24 14:41:06,"쇼핑,편의||미용||미용실||미용실-일반",False
14977,14978,2601893,김서희헤어컴미용실,,Seohee Kim Hair Come Beauty Salon,Shops and Service,Beauty Salon,126.67073934943392,37.54212717019611,대한민국,KOR,KOR,인천광역시,서구,,심곡동,,심곡로,10,339-9,2022-05-01 12:37:48,"쇼핑,편의||미용||미용실||미용실-일반",False
15005,15006,4339229,블루클럽 논현점,BLUECLUB 논현점,Blue Club Nonhyeon,Shops and Service,Beauty Salon,126.72443777323392,37.401785490993554,대한민국,KOR,KOR,인천광역시,남동구,,논현동,,논고개로,118,616-2,2022-08-16 16:52:33,"쇼핑,편의||미용||미용실||남성전문미용실||블루클럽",False
15016,15017,27061142,미스미스터미용실,,mr beauty salon,Shops and Service,Beauty Salon,126.48614800001867,37.74663600140224,대한민국,KOR,KOR,인천광역시,강화군,,강화읍,관청리,강화대로,410,489-1,2022-05-01 12:37:48,"쇼핑,편의||미용||미용실||미용실-일반",False
15163,15164,4339115,은혜미용실,,grace beauty salon,Shops and Service,Beauty Salon,126.6523437651619,37.46439376892867,대한민국,KOR,KOR,인천광역시,미추홀구,,숭의동,,경인로78번길,31,218-1,2019-11-14 23:25:05,"쇼핑,편의||미용||미용실||미용실-일반",False
15297,15298,3125835,장진영미용실,,Jinyoung Jang Beauty Salon,Shops and Service,Beauty Salon,126.72563902665892,37.51163643855641,대한민국,KOR,KOR,인천광역시,부평구,,갈산동,,굴포로,42,364,2022-05-01 12:37:48,"쇼핑,편의||미용||미용실||미용실-일반",False
15389,15390,3167913,성심미용실,,Sacred Heart Beauty Salon,Shops and Service,Beauty Salon,126.39096309999977,37.71704659999989,대한민국,KOR,KOR,인천광역시,강화군,,내가면,고천리,강화서로,226-2,915-7,2021-12-23 15:49:18,"쇼핑,편의||미용||미용실||미용실-일반",False
15517,15518,5720789,아트러쉬미용실,,Art Rush Beauty Salon,Shops and Service,Beauty Salon,126.72979650640092,37.449959082410395,대한민국,KOR,KOR,인천광역시,남동구,,만수동,,하촌서로,14-1,978-1,2022-08-16 16:52:33,"쇼핑,편의||미용||미용실||미용실-일반",False
15539,15540,5694158,사랑미용실,,love beauty salon,Shops and Service,Beauty Salon,126.6939944152609,37.47058095449759,대한민국,KOR,KOR,인천광역시,부평구,,십정동,,정석로,6,360-5,2022-08-24 14:41:06,"쇼핑,편의||미용||미용실||미용실-일반",False
15626,15627,5703407,현미용실,,brown hair salon,Shops and Service,Beauty Salon,126.72550029794292,37.452014615755765,대한민국,KOR,KOR,인천광역시,남동구,,구월동,,구월남로,321,1306-11,2022-08-24 14:41:06,"쇼핑,편의||미용||미용실||미용실-일반",False
15712,15713,3133500,뷰티헤어샵,,Beauty Hair Shop,Shops and Service,Beauty Salon,126.64848216787585,37.59928562171172,대한민국,KOR,KOR,인천광역시,서구,,왕길동,,단봉로,24,300-5,2022-08-24 14:41:06,"쇼핑,편의||미용||미용실||미용실-일반",False
15812,15813,20013875,휴이엠헤어 인천부평시장점,Darteboss인천부평점,The Arte Boss Hair  Incheon Bupyeong Branch,Shops and Service,Beauty Salon,126.72752299999996,37.49443909999981,대한민국,KOR,KOR,인천광역시,부평구,,부평동,,부평문화로,99-1,150-17,2022-09-06 15:18:26,"쇼핑,편의||미용||미용실||일반미용실||휴이엠헤어",False
16096,16097,3137278,정미용실,,beauty salon,Shops and Service,Beauty Salon,126.73854144864492,37.5466299305203,대한민국,KOR,KOR,인천광역시,계양구,,임학동,,임학동로56번길,10-1,25-11,2022-08-24 14:41:06,"쇼핑,편의||미용||미용실||미용실-일반",False
16137,16138,20203018,머리사랑,,hair love,Shops and Service,Beauty Salon,126.67071877754796,37.51688188086111,대한민국,KOR,KOR,인천광역시,서구,,신현동,,신현로37번길,13,280-2,2022-08-24 14:41:06,"쇼핑,편의||미용||미용실||미용실-일반",False
16325,16326,4322648,우리미용실,,our hair salon,Shops and Service,Beauty Salon,126.70578024771396,37.44731780588145,대한민국,KOR,KOR,인천광역시,남동구,,구월동,,남동대로725번길,26-4,1154-7,2022-08-24 14:41:06,"쇼핑,편의||미용||미용실||미용실-일반",False
16494,16495,4334453,청솔미용실,,Cheongsol Beauty Salon,Shops and Service,Beauty Salon,126.72673367894392,37.48687528876518,대한민국,KOR,KOR,인천광역시,부평구,,부평동,,경인로,966-12,642-33,2022-08-12 13:15:03,"쇼핑,편의||미용||미용실||미용실-일반",False
16588,16589,3139107,삼원이발관,,Samwon Barber,Shops and Service,Beauty Salon,126.6820113576129,37.45633701035668,대한민국,KOR,KOR,인천광역시,미추홀구,,주안동,,경인로380번길,42,437-2,2019-11-14 23:19:30,"쇼핑,편의||미용||미용실||일반미용실||이용원",False
16612,16613,4342455,C&C클럽남성헤어전문점,씨엔씨클럽남성헤어전문점,C&C Club Men&#39;s Hair Shop,Shops and Service,Beauty Salon,126.72894306741792,37.503829017296106,대한민국,KOR,KOR,인천광역시,부평구,,부평동,,길주남로66번길,9,12-127,2022-08-12 13:15:03,"쇼핑,편의||미용||미용실||미용실-일반",False
16637,16638,5693457,가정이발관,,home barber shop,Shops and Service,Beauty Salon,126.67397861866645,37.50121361225292,대한민국,KOR,KOR,인천광역시,서구,,석남동,,석남로109번길,4-1,570-1,2022-05-01 12:37:48,"쇼핑,편의||미용||미용실||일반미용실||이용원",False
16775,16776,5706005,십자매미용실,,cross hair salon,Shops and Service,Beauty Salon,126.73848799999992,37.44243389999976,대한민국,KOR,KOR,인천광역시,남동구,,만수동,,담방로,29,1042,2022-08-16 16:52:33,"쇼핑,편의||미용||미용실||미용실-일반",False
16797,16798,3108238,임미용실,,hair salon,Shops and Service,Beauty Salon,126.63081996607885,37.484984536568966,대한민국,KOR,KOR,인천광역시,동구,,화수동,,화수로,78,35-31,2021-12-23 15:49:18,"쇼핑,편의||미용||미용실||미용실-일반",False
16936,16937,3120928,엔젤미용실,,Angel Beauty Salon,Shops and Service,Beauty Salon,126.63840411076336,37.46909000060793,대한민국,KOR,KOR,인천광역시,중구,,도원동,,도원로,54,21-99,2022-05-01 12:37:48,"쇼핑,편의||미용||미용실||미용실-일반",False
18088,18089,20757026,성진이용원,,Seongjin Lee Yong-won,Shops and Service,Beauty Salon,126.72146013054288,37.4887197012398,대한민국,KOR,KOR,인천광역시,부평구,,부평동,,남부역로,17,740-17,2022-05-18 1:20:07,"쇼핑,편의||미용||미용실||일반미용실||이용원",False
18096,18097,27038427,광일이용원,,Gwangil Yongwon,Shops and Service,Beauty Salon,126.71291158386192,37.4665643829344,대한민국,KOR,KOR,인천광역시,남동구,,간석동,,백범로352번길,32,95-5,2022-05-01 12:37:48,"쇼핑,편의||미용||미용실||일반미용실||이용원",False
18418,18419,4339545,모비헤어클럽,,Mobi Hair Club,Shops and Service,Beauty Salon,126.68758090761288,37.48642794565192,대한민국,KOR,KOR,인천광역시,서구,,가좌동,,여우재로,91,360-5,2022-08-24 14:41:06,"쇼핑,편의||미용||미용실||미용실-일반",False
18615,18616,5691805,준헤어아트,,jun Hair Art,Shops and Service,Beauty Salon,126.72229463967392,37.54550928463463,대한민국,KOR,KOR,인천광역시,계양구,,계산동,,경명대로1029번길,22-17,931-77,2022-08-24 14:41:06,"쇼핑,편의||미용||미용실||미용실-일반",False
18674,18675,3118683,순미용실,,pure beauty salon,Shops and Service,Beauty Salon,126.72860499999997,37.542358999999834,대한민국,KOR,KOR,인천광역시,계양구,,계산동,,주부토로,540,355-1,2022-08-24 14:41:06,"쇼핑,편의||미용||미용실||미용실-일반",False
18733,18734,3127037,리안헤어 부평역점,,Lian Hair Bupyeong Station Branch,Shops and Service,Beauty Salon,126.72554815153792,37.49307639636529,대한민국,KOR,KOR,인천광역시,부평구,,부평동,,시장로,24,153-4,2022-09-06 15:18:26,"쇼핑,편의||미용||미용실||일반미용실||리안헤어",False
18845,18846,4359214,샬롬미용실,,Shalom Beauty Salon,Shops and Service,Beauty Salon,126.49312119213069,37.63807685894849,대한민국,KOR,KOR,인천광역시,강화군,,길상면,온수리,온수길,10,538-15,2019-05-09 23:09:08,"쇼핑,편의||미용||미용실||미용실-일반",False
18927,18928,5655541,수양미용실,,suyang Beauty Salon,Shops and Service,Beauty Salon,126.6798908474759,37.44319367818387,대한민국,KOR,KOR,인천광역시,미추홀구,,주안동,,승학길,84,1290-6,2021-12-23 15:49:18,"쇼핑,편의||미용||미용실||미용실-일반",False
19283,19284,20201300,진성이발관,,Jin hair barber,Shops and Service,Beauty Salon,126.73698825164496,37.443665039649886,대한민국,KOR,KOR,인천광역시,남동구,,만수동,,장승남로,41-1,1019-4,2021-12-23 15:49:18,"쇼핑,편의||미용||미용실||일반미용실||이용원",False
19412,19413,3108936,백화미용실,,Baekhwa Beauty Salon,Shops and Service,Beauty Salon,126.48427366435268,37.74677864250944,대한민국,KOR,KOR,인천광역시,강화군,,강화읍,신문리,남산길,5,148,2022-08-24 14:41:06,"쇼핑,편의||미용||미용실||미용실-일반",False
19447,19448,20056149,리안헤어 계산점,,Rihanna's checkpoint,Shops and Service,Beauty Salon,126.73655139999993,37.538650299999816,대한민국,KOR,KOR,인천광역시,계양구,,계산동,,계산새로,71,1062,2022-09-06 15:18:26,"쇼핑,편의||미용||미용실||일반미용실||리안헤어",False
19542,19543,4334542,샤방샤방미용실,,Shabang Shabang Beauty Salon,Shops and Service,Beauty Salon,126.71579610013688,37.464732000545965,대한민국,KOR,KOR,인천광역시,남동구,,간석동,,간석로72번길,33,224-600,2022-08-24 14:41:06,"쇼핑,편의||미용||미용실||미용실-일반",False
19554,19555,2598400,볼륨미용실,,volume hair salon,Shops and Service,Beauty Salon,126.73753996158696,37.45382238347538,대한민국,KOR,KOR,인천광역시,남동구,,만수동,,인수북로4번길,15,67,2022-08-24 14:41:06,"쇼핑,편의||미용||미용실||미용실-일반",False
19901,19902,5678505,럭키이용원,,Lucky Yong-won,Shops and Service,Beauty Salon,126.67337324236291,37.550280347542106,대한민국,KOR,KOR,인천광역시,서구,,연희동,,연희로28번길,11,736-7,2022-05-01 12:37:48,"쇼핑,편의||미용||미용실||일반미용실||이용원",False
20107,20108,5725649,사빈헤어살롱,,Sabine Hair Salon,Shops and Service,Beauty Salon,126.70912919999992,37.50592299999983,대한민국,KOR,KOR,인천광역시,부평구,,산곡동,,안남로,260,124-1,2022-08-24 14:41:06,"쇼핑,편의||미용||미용실||미용실-일반",False
20193,20194,5670899,미소미용실,,smile beauty salon,Shops and Service,Beauty Salon,126.6975535601785,37.45171658202775,대한민국,KOR,KOR,인천광역시,남동구,,구월동,,문화로133번길,38-13,1107-8,2022-05-01 12:37:48,"쇼핑,편의||미용||미용실||미용실-일반",False
20397,20398,5667311,정헤어라인,,straight hair line,Shops and Service,Beauty Salon,126.68464548070088,37.45212098548807,대한민국,KOR,KOR,인천광역시,미추홀구,,주안동,,동주길,17-4,1481-23,2019-11-14 0:00:00,"쇼핑,편의||미용||미용실||미용실-일반",False
20588,20589,6207396,화수분미용실,,Hwasu Water Beauty Salon,Shops and Service,Beauty Salon,126.6770259646359,37.44756327695457,대한민국,KOR,KOR,인천광역시,미추홀구,,주안동,,신기길15번길,5-1,1331-34,2022-08-24 14:41:06,"쇼핑,편의||미용||미용실||미용실-일반",False
20705,20706,3429725,천재손이용원,,Genius Son Lee Yong-won,Shops and Service,Beauty Salon,126.64366099999997,37.45317799999978,대한민국,KOR,KOR,인천광역시,미추홀구,,용현동,,용오로,84,610-265,2018-08-11 0:00:00,"쇼핑,편의||미용||미용실||일반미용실||이용원",False
20785,20786,3128794,샤론미용실,,Sharon hair salon,Shops and Service,Beauty Salon,126.66222499999996,37.42927499999978,대한민국,KOR,KOR,인천광역시,연수구,,청학동,,비류대로239번길,52,521-18,2022-08-24 14:41:06,"쇼핑,편의||미용||미용실||미용실-일반",False
20954,20955,5720485,성신이용원,,Sungshin Yongwon,Shops and Service,Beauty Salon,126.6957623634719,37.46907497264408,대한민국,KOR,KOR,인천광역시,부평구,,십정동,,백범로499번길,17,460-2,2021-12-23 15:49:18,"쇼핑,편의||미용||미용실||일반미용실||이용원",False
20963,20964,27330240,HHH 살롱,,HHH Salon,Shops and Service,Beauty Salon,126.66949059999992,37.5228573999998,대한민국,KOR,KOR,인천광역시,서구,,가정동,,,,476-5,2022-09-06 15:18:26,"쇼핑,편의||미용||미용실||미용실-일반",False
21034,21035,4329286,한양미용실,,Hanyang Beauty Salon,Shops and Service,Beauty Salon,126.67972491553388,37.40939350406746,대한민국,KOR,KOR,인천광역시,연수구,,동춘동,,원인재로,124,925,2020-01-14 23:26:11,"쇼핑,편의||미용||미용실||미용실-일반",False
21249,21250,2616267,갤러리아미용실강화점,,Galleria Beauty Salon Ganghwa Branch,Shops and Service,Beauty Salon,126.48186769999984,37.747070599999915,대한민국,KOR,KOR,인천광역시,강화군,,강화읍,신문리,청하동길,10,585-9,2022-05-01 12:37:48,"쇼핑,편의||미용||미용실||미용실-일반",False
21276,21277,4346555,미샤헤어동인천점,michahair동인천점,Missha Hair Dongincheon Branch,Shops and Service,Beauty Salon,126.62872862173884,37.475414180865975,대한민국,KOR,KOR,인천광역시,중구,,전동,,자유공원로,22,19-10,2022-05-01 12:37:48,"쇼핑,편의||미용||미용실||미용실-일반",False
21314,21315,4336610,회원이용원,,member member,Shops and Service,Beauty Salon,126.72947211273092,37.54140566914641,대한민국,KOR,KOR,인천광역시,계양구,,계산동,,주부토로532번길,10,342,2022-08-24 14:41:06,"쇼핑,편의||미용||미용실||일반미용실||이용원",False
21327,21328,27550557,까끌까뽀끌까미용실,,Kkkakkkakkka beauty salon,Shops and Service,Beauty Salon,126.74093217864296,37.48544295608709,대한민국,KOR,KOR,인천광역시,부평구,,부개동,,경인로1092번길,17-7,324-20,2022-09-06 15:18:26,"쇼핑,편의||미용||미용실||미용실-일반",False
21502,21503,20017857,살롱드에스본,,Salon de Esbourne,Shops and Service,Beauty Salon,126.74727099547394,37.425199956554266,대한민국,KOR,KOR,인천광역시,남동구,,서창동,,서창남순환로215번길,27,691-1,2019-08-15 0:00:00,"쇼핑,편의||미용||미용실||미용실-일반",False
21658,21659,3144032,조윤경미용실,,Jo Yoon-Kyung Beauty Salon,Shops and Service,Beauty Salon,126.70451698951616,37.51663808080224,대한민국,KOR,KOR,인천광역시,부평구,,청천동,,마장로432번길,3,174-7,2022-09-06 15:18:26,"쇼핑,편의||미용||미용실||미용실-일반",False
21719,21720,20203097,아트이용원,ARTBARBERSHOP,Art Lee Yong-won,Shops and Service,Beauty Salon,126.72373925498997,37.40376356331787,대한민국,KOR,KOR,인천광역시,남동구,,논현동,,논현로,158,628-5,2021-12-23 15:49:18,"쇼핑,편의||미용||미용실||일반미용실||이용원",False
21743,21744,4341705,연두미용실,,Yeondu Beauty Salon,Shops and Service,Beauty Salon,126.63049989497584,37.47896680854998,대한민국,KOR,KOR,인천광역시,동구,,화평동,,화도진로,83,344-5,2022-08-24 14:41:06,"쇼핑,편의||미용||미용실||미용실-일반",False
21863,21864,2603812,중앙미용실,,Central hair salon,Shops and Service,Beauty Salon,126.67201041085988,37.495876279581786,대한민국,KOR,KOR,인천광역시,서구,,가좌동,,가정로126번길,1,140-33,2022-08-24 14:41:06,"쇼핑,편의||미용||미용실||미용실-일반",False
21971,21972,20481709,꼼바냐헤어살롱,,Combanya Hair Salon,Shops and Service,Beauty Salon,126.63394694062892,37.47763055656159,대한민국,KOR,KOR,인천광역시,동구,,송현동,,송현로,11-1,72-81,2022-05-01 12:37:48,"쇼핑,편의||미용||미용실||미용실-일반",False
21993,21994,6211774,소영이네미용실,,Soyoung beauty salon,Shops and Service,Beauty Salon,126.70134638874688,37.47356908391278,대한민국,KOR,KOR,인천광역시,부평구,,십정동,,열우물로50번길,26,399-8,2022-08-24 14:41:06,"쇼핑,편의||미용||미용실||미용실-일반",False
22162,22163,20760831,아씨미용실,,Asi beauty salon,Shops and Service,Beauty Salon,126.65214511482588,37.45761616871346,대한민국,KOR,KOR,인천광역시,미추홀구,,용현동,,인주대로137번길,23-10,453-177,2022-05-18 1:21:28,"쇼핑,편의||미용||미용실||미용실-일반",False
22221,22222,4496213,뷰티헤어,,Beauty Hair,Shops and Service,Beauty Salon,126.67415519999994,37.422828099999776,대한민국,KOR,KOR,인천광역시,연수구,,연수동,,새말로,20,538,2022-08-12 13:15:03,"쇼핑,편의||미용||미용실||미용실-일반",False
22347,22348,3105559,가나안미용실,,Canaan Beauty Salon,Shops and Service,Beauty Salon,126.48752729999983,37.7426322999999,대한민국,KOR,KOR,인천광역시,강화군,,강화읍,남산리,남문로,53,95-2,2021-12-23 15:49:18,"쇼핑,편의||미용||미용실||미용실-일반",False
22620,22621,2606361,헤어디자인클럽,,Hair Design Club,Shops and Service,Beauty Salon,126.6846953416649,37.4874438050236,대한민국,KOR,KOR,인천광역시,서구,,가좌동,,고래울로20번길,1,340,2022-08-18 12:00:50,"쇼핑,편의||미용||미용실||미용실-일반",False
22978,22979,5661536,청수이용원,,Cheongsu Yongwon,Shops and Service,Beauty Salon,126.7036347870909,37.517833727984,대한민국,KOR,KOR,인천광역시,부평구,,청천동,,청중로57번길,4,15-9,2021-12-23 15:49:18,"쇼핑,편의||미용||미용실||일반미용실||이용원",False
23378,23379,4334093,모드늬이용원,,Modnui Lee Yong-won,Shops and Service,Beauty Salon,126.67918464788391,37.46818980021207,대한민국,KOR,KOR,인천광역시,미추홀구,,주안동,,길파로27번길,5,14-36,2021-12-23 15:49:18,"쇼핑,편의||미용||미용실||일반미용실||이용원",False
23453,23454,5145643,더 라인 헤어,,The Line Hair,Shops and Service,Beauty Salon,126.71983959999996,37.45604779999979,대한민국,KOR,KOR,인천광역시,남동구,,구월동,,구월로,263,341-5,2022-09-06 15:18:26,"쇼핑,편의||미용||미용실||미용실-일반",False
23556,23557,26558893,살롱뷰,삼사오헤어살롱 계양구청점,Salon View,Shops and Service,Beauty Salon,126.73866796300393,37.538985332723215,대한민국,KOR,KOR,인천광역시,계양구,,용종동,,오조산로,91,212-4,2022-09-06 15:18:26,"쇼핑,편의||미용||미용실||미용실-일반",False
23572,23573,6226771,인영미용실,,Inyoung beauty salon,Shops and Service,Beauty Salon,126.7182922501579,37.4655065285212,대한민국,KOR,KOR,인천광역시,남동구,,간석동,,간석로,98-1,37-88,2022-05-01 12:37:48,"쇼핑,편의||미용||미용실||미용실-일반",False
23577,23578,4350169,김진미용실,,Jin Kim Beauty Salon,Shops and Service,Beauty Salon,126.72117133437192,37.52817665439748,대한민국,KOR,KOR,인천광역시,계양구,,작전동,,효서로,225,865-15,2022-08-26 9:52:19,"쇼핑,편의||미용||미용실||미용실-일반",False
23642,23643,4329306,옥빈미용실,,Okbin Beauty Salon,Shops and Service,Beauty Salon,126.68800698836088,37.44759093995728,대한민국,KOR,KOR,인천광역시,미추홀구,,주안동,,인하로352번길,11-17,1525-10,2019-11-14 0:00:00,"쇼핑,편의||미용||미용실||미용실-일반",False
23790,23791,2595380,새로나이발관,,Saerae Barber Hall,Shops and Service,Beauty Salon,126.47920719999986,37.748203199999914,대한민국,KOR,KOR,인천광역시,강화군,,강화읍,관청리,강화대로470번길,2,896-5,2021-12-23 15:49:18,"쇼핑,편의||미용||미용실||일반미용실||이용원",False
23923,23924,5688096,이쁘게미용실,,pretty beauty salon,Shops and Service,Beauty Salon,126.70022190588888,37.526526446606894,대한민국,KOR,KOR,인천광역시,계양구,,효성동,,아나지로85번길,15,553-4,2022-08-24 14:41:06,"쇼핑,편의||미용||미용실||미용실-일반",False
23943,23944,6207550,이화미용실,,Ewha Beauty Salon,Shops and Service,Beauty Salon,126.63073261448784,37.47772582259417,대한민국,KOR,KOR,인천광역시,동구,,화평동,,송화로7번길,8,503-3,2021-12-23 15:49:18,"쇼핑,편의||미용||미용실||미용실-일반",False
24054,24055,4339367,염색전문점 인천선학점,,Dyeing shop Incheon Sun Credit,Shops and Service,Beauty Salon,126.69773652675588,37.42748385696486,대한민국,KOR,KOR,인천광역시,연수구,,선학동,,경원대로483번길,17,403-1,2022-08-24 14:41:06,"쇼핑,편의||미용||머리염색||머리염색-일반",False
24344,24345,5666987,문학이용원,,Literary Lee Yong-won,Shops and Service,Beauty Salon,126.68400266688488,37.437670744463674,대한민국,KOR,KOR,인천광역시,미추홀구,,문학동,,소성로,329,377-17,2019-11-14 0:00:00,"쇼핑,편의||미용||미용실||일반미용실||이용원",False
24621,24622,6207022,88영클럽,팔팔영클럽,88 Young Club,Shops and Service,Beauty Salon,126.63573267030384,37.46547560240537,대한민국,KOR,KOR,인천광역시,중구,,신흥동3가,,제물량로,58,6-19,2021-12-23 15:49:18,"쇼핑,편의||미용||미용실||남성전문미용실||남성전문미용실-일반",False
24764,24765,2608494,장미미용실,,rose beauty salon,Shops and Service,Beauty Salon,126.64362319758084,37.48011918504067,대한민국,KOR,KOR,인천광역시,동구,,송현동,,솔빛로85번길,85-1,13-1,2022-05-18 1:14:04,"쇼핑,편의||미용||미용실||미용실-일반",False
24810,24811,4344189,성덕미용실,,Seongdeok Beauty Salon,Shops and Service,Beauty Salon,126.62248214668756,37.48165241776344,대한민국,KOR,KOR,인천광역시,동구,,만석동,,만석로,10-1,65-12,2022-08-16 16:52:33,"쇼핑,편의||미용||미용실||남성전문미용실||남성전문미용실-일반",False
24913,24914,5687705,신명이발관,,Shin Myung Barber,Shops and Service,Beauty Salon,126.5577355999999,37.4860818999998,대한민국,KOR,KOR,인천광역시,중구,,중산동,,하늘달빛로,95,1872-1,2021-12-23 15:49:18,"쇼핑,편의||미용||미용실||일반미용실||이용원",False
24965,24966,4342088,블랙정미용실,,black hair salon,Shops and Service,Beauty Salon,126.67353031985392,37.49673438285097,대한민국,KOR,KOR,인천광역시,서구,,가좌동,,건지로284번길,28,140-19,2022-08-18 12:00:50,"쇼핑,편의||미용||미용실||미용실-일반",False
24973,24974,4342997,헤어나라,,break up,Shops and Service,Beauty Salon,126.70977109864587,37.528905717615295,대한민국,KOR,KOR,인천광역시,계양구,,효성동,,안남로519번길,13,232-3,2021-12-23 15:49:18,"쇼핑,편의||미용||미용실||미용실-일반",False
25029,25030,6216520,쏘울뷰티헤어 산곡점,,Soul Beauty Hair Sangok Branch,Shops and Service,Beauty Salon,126.70523183369436,37.497707055542335,대한민국,KOR,KOR,인천광역시,부평구,,산곡동,,마장로220번길,45,234-45,2022-05-01 12:37:48,"쇼핑,편의||미용||미용실||미용실-일반",False
25031,25032,5679486,새현대미용실,,New Hyundai Beauty Salon,Shops and Service,Beauty Salon,126.73172079999988,37.53725959999977,대한민국,KOR,KOR,인천광역시,계양구,,계산동,,계산로,173,66,2022-08-18 12:00:50,"쇼핑,편의||미용||미용실||미용실-일반",False
25155,25156,26874180,한아름이용원,,Han Ah-reum Lee Yong-won,Shops and Service,Beauty Salon,126.71303214975192,37.431374882520565,대한민국,KOR,KOR,인천광역시,남동구,,남촌동,,남촌동로,52-1,343-17,2022-05-01 12:37:48,"쇼핑,편의||미용||미용실||일반미용실||이용원",False
25244,25245,3132223,승금헤어아트,,seunggeum Hair Art,Shops and Service,Beauty Salon,126.67184849168788,37.501552908484186,대한민국,KOR,KOR,인천광역시,서구,,석남동,,가정로,187,582-16,2022-05-01 12:37:48,"쇼핑,편의||미용||미용실||미용실-일반",False
25396,25397,5676016,한스미용실,,HANS Beauty Salon,Shops and Service,Beauty Salon,126.7192604933079,37.45247581326598,대한민국,KOR,KOR,인천광역시,남동구,,구월동,,호구포로,786,1271-21,2022-08-24 14:41:06,"쇼핑,편의||미용||미용실||미용실-일반",False
25508,25509,2608144,김미용실,,Kim Beauty Salon,Shops and Service,Beauty Salon,126.74156149276396,37.48419020862279,대한민국,KOR,KOR,인천광역시,부평구,,부개동,,경인로1104번길,38-6,370,2019-12-09 0:00:00,"쇼핑,편의||미용||미용실||미용실-일반",False
25557,25558,2616524,정희향헤어갤러리,,Jung Hee Hyang Hair Gallery,Shops and Service,Beauty Salon,126.67450648159236,37.45574790389015,대한민국,KOR,KOR,인천광역시,미추홀구,,주안동,,제일로40번길,67-5,555-42,2022-05-01 12:37:48,"쇼핑,편의||미용||미용실||미용실-일반",False
25688,25689,4321676,고미영뷰티헤어,,Go Mi-young Beauty Hair,Shops and Service,Beauty Salon,126.63515335946784,37.44969803568826,대한민국,KOR,KOR,인천광역시,미추홀구,,용현동,,낙섬서로10번길,28,627-341,2022-08-16 16:52:33,"쇼핑,편의||미용||미용실||미용실-일반",False
26132,26133,5367005,신포미용실, ,SinpoBeauty Salon,Shops and Service,Beauty Salon,126.62715875999992,37.47134798999978,대한민국,KOR,KOR,인천광역시,중구,,신포동,,우현로49번길,25,7-40,2021-12-23 15:49:18,"쇼핑,편의||미용||미용실||미용실-일반",False
26165,26166,4331224,여왕미용실,,queen beauty salon,Shops and Service,Beauty Salon,126.64947452160585,37.468841679829765,대한민국,KOR,KOR,인천광역시,미추홀구,,숭의동,,석정로,127,105-7,2022-05-01 12:37:48,"쇼핑,편의||미용||미용실||미용실-일반",False
26197,26198,6218773,모범인천이발샵,인천이발샵,Model Incheon Barber Shop,Shops and Service,Beauty Salon,126.73260809013992,37.49996399073311,대한민국,KOR,KOR,인천광역시,부평구,,부평동,,부흥북로96번길,20-1,118-9,2021-12-23 15:49:18,"쇼핑,편의||미용||미용실||일반미용실||이용원",False
26222,26223,5698865,옛추억의이발관,,Old memories barber shop,Shops and Service,Beauty Salon,126.73213989273692,37.48861244039859,대한민국,KOR,KOR,인천광역시,부평구,,부평동,,경인로1009번길,29,620-2,2022-05-01 12:37:48,"쇼핑,편의||미용||미용실||일반미용실||이용원",False
26394,26395,20047566,그린미용실,,green hair salon,Shops and Service,Beauty Salon,126.41478681311756,37.44790882410589,대한민국,KOR,KOR,인천광역시,중구,,남북동,,남북로,114,240-1,2022-08-24 14:41:06,"쇼핑,편의||미용||미용실||미용실-일반",False
26608,26609,2615896,상지이용원,,Sang Ji Yong-won,Shops and Service,Beauty Salon,126.63586828985284,37.47391834437876,대한민국,KOR,KOR,인천광역시,동구,,금곡동,,화도진로7번길,6-2,2-17,2021-12-23 15:49:18,"쇼핑,편의||미용||미용실||일반미용실||이용원",False
26811,26812,4323376,헤어센스미용실,,Hair Sense Beauty Salon,Shops and Service,Beauty Salon,126.68029373456888,37.448832160847246,대한민국,KOR,KOR,인천광역시,미추홀구,,주안동,,미추홀대로578번길,10,1464-2,2022-05-18 1:17:08,"쇼핑,편의||미용||미용실||미용실-일반",False
26865,26866,4329892,동아헤어라인,,Donga Hairline,Shops and Service,Beauty Salon,126.66554389999995,37.465242299999794,대한민국,KOR,KOR,인천광역시,미추홀구,,도화동,,경인로,203,601-1,2022-05-01 12:37:48,"쇼핑,편의||미용||미용실||미용실-일반",False
26892,26893,4332931,김지영헤어클럽,,Jiyoung Kim Hair Club,Shops and Service,Beauty Salon,126.69865602051291,37.45728719951467,대한민국,KOR,KOR,인천광역시,남동구,,간석동,,구월로,75,510-29,2022-07-13 13:54:25,"쇼핑,편의||미용||미용실||미용실-일반",False
26960,26961,20169478,여왕뷰티클럽,,queen beauty club,Shops and Service,Beauty Salon,126.74030030446994,37.54967130314383,대한민국,KOR,KOR,인천광역시,계양구,,방축동,,장제로927번길,14,200,2022-05-18 1:22:57,"쇼핑,편의||미용||미용실||미용실-일반",False
27120,27121,2618782,연미용실,,hair salon,Shops and Service,Beauty Salon,126.66535872694288,37.44732816327027,대한민국,KOR,KOR,인천광역시,미추홀구,,학익동,,재넘이길29번길,10,306-79,2022-08-24 14:41:06,"쇼핑,편의||미용||미용실||미용실-일반",False
27159,27160,4327786,주연미용실,,main hair salon,Shops and Service,Beauty Salon,126.62125335327184,37.479945165837385,대한민국,KOR,KOR,인천광역시,중구,,송월동1가,,참외전로13번길,2,10-1,2022-05-18 1:16:32,"쇼핑,편의||미용||미용실||미용실-일반",False
27228,27229,6216209,모범이발관,,model barber shop,Shops and Service,Beauty Salon,126.71189933617596,37.53451326029563,대한민국,KOR,KOR,인천광역시,계양구,,효성동,,안남로572번길,15,24-3,2022-05-01 12:37:48,"쇼핑,편의||미용||미용실||일반미용실||이용원",False
27391,27392,4346223,자기창조미용실,,self-creation beauty salon,Shops and Service,Beauty Salon,126.72520340227692,37.545614114671686,대한민국,KOR,KOR,인천광역시,계양구,,계산동,,하느재로,24,925-26,2022-05-01 12:37:48,"쇼핑,편의||미용||미용실||미용실-일반",False
27468,27469,3458218,탑헤어터치동인천점,,Top Hair Touch Dongcheon Branch,Shops and Service,Beauty Salon,126.63071400290784,37.47433008812478,대한민국,KOR,KOR,인천광역시,중구,,인현동,,우현로,84,27-47,2021-12-23 15:49:18,"쇼핑,편의||미용||미용실||미용실-일반",False
27579,27580,27195126,주뷰티 헤어&네일,,Zoo Beauty Hair & Nails,Shops and Service,Beauty Salon,126.70263004685788,37.44665103070438,대한민국,KOR,KOR,인천광역시,남동구,,구월동,,예술로140번길,33,1454-1,2022-08-08 10:29:42,"쇼핑,편의||미용||미용실||미용실-일반",False
27641,27642,5712005,강명화헤어라인,,Myunghwa Kang Hairline,Shops and Service,Beauty Salon,126.63709280240684,37.46906488607527,대한민국,KOR,KOR,인천광역시,중구,,유동,,도원서길,73,19-21,2022-08-16 16:52:33,"쇼핑,편의||미용||미용실||미용실-일반",False
28257,28258,27182415,estrella별 헤어살롱,,hair salon by estrella,Shops and Service,Beauty Salon,126.72423509999997,37.493979799999806,대한민국,KOR,KOR,인천광역시,부평구,,부평동,,부평문화로,72-1,201-132,2022-09-06 15:18:26,"쇼핑,편의||미용||미용실||미용실-일반",False
28434,28435,27184923,수풀림미용실,,Souplim Beauty Salon,Shops and Service,Beauty Salon,126.70943354715801,37.514465034109726,대한민국,KOR,KOR,인천광역시,부평구,,청천동,,세월천로,16,176,2022-05-01 12:37:48,"쇼핑,편의||미용||미용실||미용실-일반",False
28445,28446,5690062,컷트클럽,,cut club,Shops and Service,Beauty Salon,126.7244772066999,37.460085748013995,대한민국,KOR,KOR,인천광역시,남동구,,만수동,,백범로,221,898-2,2022-05-01 12:37:48,"쇼핑,편의||미용||미용실||남성전문미용실||남성전문미용실-일반",False
28882,28883,2598408,머리사랑,,hair love,Shops and Service,Beauty Salon,126.73997499999992,37.45993459999978,대한민국,KOR,KOR,인천광역시,남동구,,만수동,,백범로124번길,162,12,2022-08-24 14:41:06,"쇼핑,편의||미용||미용실||미용실-일반",False
29049,29050,4337690,한정숙헤어클럽,,Hanjeongsuk Hair Club,Shops and Service,Beauty Salon,126.6747780080629,37.51731154521679,대한민국,KOR,KOR,인천광역시,서구,,가정동,,원창로,228,515-31,2022-05-18 1:18:35,"쇼핑,편의||미용||미용실||미용실-일반",False
29092,29093,4329916,그날미용실 본점,,That Day Beauty Salon Head Office,Shops and Service,Beauty Salon,126.65734440585788,37.46763518999849,대한민국,KOR,KOR,인천광역시,미추홀구,,도화동,,석정로,198,85-1,2022-08-12 13:15:03,"쇼핑,편의||미용||미용실||미용실-일반",False
29249,29250,6230593,강남미용실,,Gangnam Beauty Salon,Shops and Service,Beauty Salon,126.73213812780294,37.493783006837695,대한민국,KOR,KOR,인천광역시,부평구,,부평동,,부평문화로142번길,3,368-13,2022-08-24 14:41:06,"쇼핑,편의||미용||미용실||미용실-일반",False
29422,29423,3124278,미스터클럽,,Mr Club,Shops and Service,Beauty Salon,126.72718939480988,37.537139723159115,대한민국,KOR,KOR,인천광역시,계양구,,계산동,,계산로,134,990-9,2022-08-16 16:52:33,"쇼핑,편의||미용||미용실||남성전문미용실||남성전문미용실-일반",False
29649,29650,4331823,탑미용실,,top beauty salon,Shops and Service,Beauty Salon,126.70817628694589,37.446080769298575,대한민국,KOR,KOR,인천광역시,남동구,,구월동,,성리로35번길,17,1184-1,2022-08-24 14:41:06,"쇼핑,편의||미용||미용실||미용실-일반",False
29877,29878,5684013,머릿결사랑,,hair love,Shops and Service,Beauty Salon,126.71032989949487,37.483910902081,대한민국,KOR,KOR,인천광역시,부평구,,십정동,,창휘로,28,180-14,2022-05-01 12:37:48,"쇼핑,편의||미용||머리염색||프랜차이즈||머릿결사랑",False
29940,29941,4328317,주헤어갤러리,,Zhu Hair Gallery,Shops and Service,Beauty Salon,126.72082760155789,37.45122446763918,대한민국,KOR,KOR,인천광역시,남동구,,구월동,,인주대로751번길,45,1276-33,2022-08-24 14:41:06,"쇼핑,편의||미용||미용실||미용실-일반",False
29958,29959,6230710,새마을헤어아트,,Saemaeul Hair Art,Shops and Service,Beauty Salon,126.71527665530188,37.4849373192116,대한민국,KOR,KOR,인천광역시,부평구,,부평동,,안남로15번길,27,756-200,2022-05-18 1:15:40,"쇼핑,편의||미용||미용실||미용실-일반",False
30293,30294,3143928,초원이발관,,meadow barber shop,Shops and Service,Beauty Salon,126.71465059659089,37.482492775710895,대한민국,KOR,KOR,인천광역시,부평구,,부평동,,경인로834번길,3,768-48,2022-05-01 12:37:48,"쇼핑,편의||미용||미용실||일반미용실||이용원",False
30725,30726,20016960,수아미용실,,SuaBeauty Salon,Shops and Service,Beauty Salon,126.64044156566781,37.46876863406647,대한민국,KOR,KOR,인천광역시,중구,,도원동,,참외전로244번길,10,18-19,2021-12-23 15:49:18,"쇼핑,편의||미용||미용실||미용실-일반",False
30868,30869,2594058,선원이발관,,sailor's barber,Shops and Service,Beauty Salon,126.48454269999984,37.712187599999886,대한민국,KOR,KOR,인천광역시,강화군,,선원면,금월리,대문고개로,16,248-1,2021-12-23 15:49:18,"쇼핑,편의||미용||미용실||일반미용실||이용원",False
31018,31019,4787406,로이드밤 인천청라점,로이드밤헤어청라점,Lloyd's Bomb Incheon Cheongna Branch,Shops and Service,Beauty Salon,126.65026459999994,37.53210859999982,대한민국,KOR,KOR,인천광역시,서구,,청라동,,중봉대로,588,162-14,2022-09-06 15:18:26,"쇼핑,편의||미용||미용실||일반미용실||로이드밤",False
31148,31149,2615733,용두이용원,,Yongdu Yongwon,Shops and Service,Beauty Salon,126.71558700640388,37.46457307025398,대한민국,KOR,KOR,인천광역시,남동구,,간석동,,간석로72번길,40,44-1,2022-05-01 12:37:48,"쇼핑,편의||미용||미용실||일반미용실||이용원",False
31195,31196,3105500,챠밍헤어클럽,,Charming Hair Club,Shops and Service,Beauty Salon,126.63670838066086,37.473785887734174,대한민국,KOR,KOR,인천광역시,동구,,송림동,,화도진로,4,234-21,2022-07-19 20:20:05,"쇼핑,편의||미용||미용실||미용실-일반",False
31301,31302,4336343,송림이용원,,Songlim Lee Yong-won,Shops and Service,Beauty Salon,126.71285308265588,37.46058792036595,대한민국,KOR,KOR,인천광역시,남동구,,간석동,,석산로,188,143-3,2021-12-23 15:49:18,"쇼핑,편의||미용||미용실||일반미용실||이용원",False
31338,31339,3129119,숙미용실,,beauty salon,Shops and Service,Beauty Salon,126.67179230927788,37.495321607455686,대한민국,KOR,KOR,인천광역시,서구,,가좌동,,가정로,120,144-35,2021-12-23 15:49:18,"쇼핑,편의||미용||미용실||미용실-일반",False
31433,31434,4337216,헤어갤러리,,Hair Gallery,Shops and Service,Beauty Salon,126.7106528617369,37.462170249515594,대한민국,KOR,KOR,인천광역시,남동구,,간석동,,석촌로20번길,28,190-1,2019-11-14 0:00:00,"쇼핑,편의||미용||미용실||미용실-일반",False
31455,31456,6209933,사랑방미용실,,Sarangbang Beauty Salon,Shops and Service,Beauty Salon,126.73580894195293,37.44625778408638,대한민국,KOR,KOR,인천광역시,남동구,,만수동,,담방서로3번길,38,1081-12,2019-11-14 23:30:26,"쇼핑,편의||미용||미용실||미용실-일반",False
31643,31644,4335220,뷰티헤어,,Beauty Hair,Shops and Service,Beauty Salon,126.66452709999994,37.427437899999774,대한민국,KOR,KOR,인천광역시,연수구,,청학동,,청학로6번길,20,527-6,2022-08-24 14:41:06,"쇼핑,편의||미용||미용실||미용실-일반",False
31713,31714,5670404,연미용실,,hair salon,Shops and Service,Beauty Salon,126.7004852398319,37.5057608455616,대한민국,KOR,KOR,인천광역시,부평구,,산곡동,,마장로307번길,48,87-410,2022-05-01 12:37:48,"쇼핑,편의||미용||미용실||미용실-일반",False
32042,32043,5723798,살롱드비아,SalondeBia,Salon de Via,Shops and Service,Beauty Salon,126.64773044943988,37.47698579245908,대한민국,KOR,KOR,인천광역시,동구,,송림동,,송림로,119,42-64,2022-08-12 13:15:03,"쇼핑,편의||미용||미용실||미용실-일반",False
32089,32090,27055868,루미너스헤어살롱,,Luminous Hair Salon,Shops and Service,Beauty Salon,126.6733453521689,37.560531430385,대한민국,KOR,KOR,인천광역시,서구,,검암동,,승학로434번길,1,630-5,2022-09-06 15:18:26,"쇼핑,편의||미용||미용실||미용실-일반",False
32287,32288,3130844,이미숙헤어라인,,Lee Mi Sook Hairline,Shops and Service,Beauty Salon,126.73812299999996,37.51940899999981,대한민국,KOR,KOR,인천광역시,부평구,,삼산동,,후정동로,12,170-1,2022-08-24 14:41:06,"쇼핑,편의||미용||미용실||미용실-일반",False
32348,32349,3120498,준미용실,,semi hair salon,Shops and Service,Beauty Salon,126.66171216894293,37.46805728271268,대한민국,KOR,KOR,인천광역시,미추홀구,,도화동,,석정로,238,94-5,2022-05-01 12:37:48,"쇼핑,편의||미용||미용실||미용실-일반",False
32349,32350,2599782,더헤어아트,,the hair art,Shops and Service,Beauty Salon,126.71479646790588,37.46050156596129,대한민국,KOR,KOR,인천광역시,남동구,,구월동,,용천로,122-1,7-65,2022-08-24 14:41:06,"쇼핑,편의||미용||미용실||미용실-일반",False
32396,32397,27553754,모나미용실,,Mona Beauty Salon,Shops and Service,Beauty Salon,126.71263387287892,37.4892346384534,대한민국,KOR,KOR,인천광역시,부평구,,부평동,,안남로64번길,2,284-68,2022-09-06 15:18:26,"쇼핑,편의||미용||미용실||미용실-일반",False
32422,32423,5690824,금잔디미용실,,Geumjandee Beauty Salon,Shops and Service,Beauty Salon,126.73156856455292,37.45964643351288,대한민국,KOR,KOR,인천광역시,남동구,,만수동,,만수로27번길,10-2,868-34,2021-12-23 15:49:18,"쇼핑,편의||미용||미용실||미용실-일반",False
32559,32560,5657704,샬롬뷰티,,Shalom Beauty,Shops and Service,Beauty Salon,126.7375935356954,37.548490340036295,대한민국,KOR,KOR,인천광역시,계양구,,병방동,,계양산로193번길,12,351,2022-05-01 12:37:48,"쇼핑,편의||미용||미용실||미용실-일반",False
32639,32640,3132910,레드클럽,,red club,Shops and Service,Beauty Salon,126.6596194991865,37.60441136970864,대한민국,KOR,KOR,인천광역시,서구,,마전동,,검단로487번길,26,928-9,2022-08-12 13:15:03,"쇼핑,편의||미용||미용실||남성전문미용실||남성전문미용실-일반",False
32657,32658,5679227,한강미용실,,Han River Beauty Salon,Shops and Service,Beauty Salon,126.68720941315387,37.61516269541809,대한민국,KOR,KOR,인천광역시,서구,,불로동,,검단로,790,328,2022-08-24 14:41:06,"쇼핑,편의||미용||미용실||미용실-일반",False
33055,33056,4324101,제일이용원,,Jeil Lee Yong-won,Shops and Service,Beauty Salon,126.6572496504849,37.45476488814856,대한민국,KOR,KOR,인천광역시,미추홀구,,용현동,,인주대로174번길,24,141-74,2019-11-14 0:00:00,"쇼핑,편의||미용||미용실||일반미용실||이용원",False
33216,33217,2604200,이지헤어클럽,,easy hair club,Shops and Service,Beauty Salon,126.73545896849195,37.57778339061085,대한민국,KOR,KOR,인천광역시,계양구,,장기동,,장기로,16,148-4,2022-05-01 12:37:48,"쇼핑,편의||미용||미용실||미용실-일반",False
33325,33326,20464200,숙미용실,,beauty salon,Shops and Service,Beauty Salon,126.743407073997,37.52915413317572,대한민국,KOR,KOR,인천광역시,계양구,,서운동,,서운로,33-10,26-12,2022-05-01 12:37:48,"쇼핑,편의||미용||미용실||미용실-일반",False
33326,33327,4343561,수지미용실,,Suzy Beauty Salon,Shops and Service,Beauty Salon,126.74315024875756,37.55572638770533,대한민국,KOR,KOR,인천광역시,계양구,,박촌동,,박촌로,54,70-4,2022-05-01 12:37:48,"쇼핑,편의||미용||미용실||미용실-일반",False
33435,33436,2622494,SM미용실,에스엠미용실,SM beauty salon,Shops and Service,Beauty Salon,126.7158308652279,37.42766545724567,대한민국,KOR,KOR,인천광역시,남동구,,남촌동,,남촌로,68,256-5,2021-12-23 15:49:18,"쇼핑,편의||미용||미용실||미용실-일반",False
33545,33546,27330352,크레이머 파리 헤어살롱 스타카토점,,Kramer Paris Hair Salon Staccato Branch,Shops and Service,Beauty Salon,126.66960319999988,37.52301639999979,대한민국,KOR,KOR,인천광역시,서구,,가정동,,,,476-33,2022-09-06 15:18:26,"쇼핑,편의||미용||미용실||미용실-일반",False
33585,33586,5664839,태후사랑 주안점,,Empress Dowager's Love  Main Point,Shops and Service,Beauty Salon,126.68640470528088,37.461023471790575,대한민국,KOR,KOR,인천광역시,미추홀구,,주안동,,경원대로875번길,53,58-26,2022-05-01 12:37:48,"쇼핑,편의||미용||머리염색||프랜차이즈||태후사랑",False
33622,33623,20481984,지윤헤어살롱,,ji YOON HAIR SALON,Shops and Service,Beauty Salon,126.68118491135296,37.44539541925309,대한민국,KOR,KOR,인천광역시,미추홀구,,주안동,,인하로298번길,55,1242,2022-08-16 16:52:33,"쇼핑,편의||미용||미용실||미용실-일반",False
33670,33671,5680073,컷트클럽,,cut club,Shops and Service,Beauty Salon,126.67052200401088,37.455931696243056,대한민국,KOR,KOR,인천광역시,미추홀구,,주안동,,한나루로,556,606-8,2022-08-16 16:52:33,"쇼핑,편의||미용||미용실||남성전문미용실||남성전문미용실-일반",False
33914,33915,2593936,헤어리폼 부평점,,Hair Reform Bupyeong,Shops and Service,Beauty Salon,126.72230864035092,37.500554095873504,대한민국,KOR,KOR,인천광역시,부평구,,부평동,,부평대로,102,439-12,2021-12-23 15:49:18,"쇼핑,편의||미용||미용실||미용실-일반",False
34156,34157,2596675,카리스마 미용실,,Charisma Beauty Salon,Shops and Service,Beauty Salon,126.6700663506469,37.502922063519,대한민국,KOR,KOR,인천광역시,서구,,석남동,,건지로249번길,39-2,587-49,2022-05-01 12:37:48,"쇼핑,편의||미용||미용실||미용실-일반",False
34350,34351,3114306,모범이발관,,model barber shop,Shops and Service,Beauty Salon,126.49327099999982,37.743629999999904,대한민국,KOR,KOR,인천광역시,강화군,,강화읍,갑곳리,대월로,14,190-1,2021-12-23 15:49:18,"쇼핑,편의||미용||미용실||일반미용실||이용원",False
34384,34385,6216434,송숙경미용실,,Song Sook-kyung Beauty Salon,Shops and Service,Beauty Salon,126.71596492364787,37.46139560239416,대한민국,KOR,KOR,인천광역시,남동구,,간석동,,백범로297번길,30,30-7,2021-12-23 15:49:18,"쇼핑,편의||미용||미용실||미용실-일반",False
34456,34457,20468832,나이스컷이용원,,Nice Cut Lee Yong-won,Shops and Service,Beauty Salon,126.72153102653397,37.53267782989772,대한민국,KOR,KOR,인천광역시,계양구,,작전동,,계양대로97번길,6,853-23,2022-05-01 12:37:48,"쇼핑,편의||미용||미용실||일반미용실||이용원",False
34549,34550,5843086,김포이용원,,Gimpo Lee Yong-won,Shops and Service,Beauty Salon,126.67569658334097,37.45416588174553,대한민국,KOR,KOR,인천광역시,미추홀구,,주안동,,경인로326번길,99,548-8,2022-05-01 12:37:48,"쇼핑,편의||미용||미용실||일반미용실||이용원",False
34643,34644,5680433,세련미용실,,stylish hair salon,Shops and Service,Beauty Salon,126.66780151000988,37.42754943294227,대한민국,KOR,KOR,인천광역시,연수구,,청학동,,비류대로291번길,30,549-1,2021-12-23 15:49:18,"쇼핑,편의||미용||미용실||미용실-일반",False
34727,34728,4323254,커팅클럽헤어샵,,cutting club hair shop,Shops and Service,Beauty Salon,126.65806041027288,37.45428908241447,대한민국,KOR,KOR,인천광역시,미추홀구,,용현동,,인주대로198번길,5-38,151-1,2022-05-18 1:15:41,"쇼핑,편의||미용||미용실||미용실-일반",False
34766,34767,3125952,나리이용원,,Narii Yong-won,Shops and Service,Beauty Salon,126.67107885064388,37.543939989241515,대한민국,KOR,KOR,인천광역시,서구,,심곡동,,탁옥로,14,335-5,2020-01-14 23:43:29,"쇼핑,편의||미용||미용실||일반미용실||이용원",False
34971,34972,4347846,독도이용원,,Dokdo Userwon,Shops and Service,Beauty Salon,126.67391213010892,37.50341649725889,대한민국,KOR,KOR,인천광역시,서구,,석남동,,거북로,107,541-28,2022-05-01 12:37:48,"쇼핑,편의||미용||미용실||일반미용실||이용원",False
35097,35098,4327484,선미미용실,,Sunmi Beauty Salon,Shops and Service,Beauty Salon,126.72071993687892,37.45039472277487,대한민국,KOR,KOR,인천광역시,남동구,,구월동,,호구포로764번길,32,1282-1,2019-11-14 23:19:54,"쇼핑,편의||미용||미용실||미용실-일반",False
35237,35238,5683311,태후사랑 구월1동점,,Love for the Empress Dowager  September 1st,Shops and Service,Beauty Salon,126.7123341411723,37.451710521393615,대한민국,KOR,KOR,인천광역시,남동구,,구월동,,용천로21번길,34-1,1213-17,2022-05-01 12:37:48,"쇼핑,편의||미용||머리염색||프랜차이즈||태후사랑",False
35418,35419,26559049,아재살롱,THE STYLE,Ajae Salon,Shops and Service,Beauty Salon,126.66891009999992,37.5146656999998,대한민국,KOR,KOR,인천광역시,서구,,신현동,,염곡로,336,290-36,2022-08-12 13:15:03,"쇼핑,편의||미용||미용실||미용실-일반",False
35666,35667,6230620,문화이용원,,Culture User Center,Shops and Service,Beauty Salon,126.66137870714688,37.45178685187487,대한민국,KOR,KOR,인천광역시,미추홀구,,용현동,,경인남길102번길,67-7,96-48,2022-08-24 14:41:06,"쇼핑,편의||미용||미용실||일반미용실||이용원",False
35735,35736,3121195,동양이용원,,Dongyang Yongwon,Shops and Service,Beauty Salon,126.70574560704388,37.5279124147383,대한민국,KOR,KOR,인천광역시,계양구,,효성동,,효서로,89,533-1,2021-12-23 15:49:18,"쇼핑,편의||미용||미용실||일반미용실||이용원",False
35913,35914,4324437,가위손미용실,,Scissors hair salon,Shops and Service,Beauty Salon,126.69808010791388,37.45597733741128,대한민국,KOR,KOR,인천광역시,남동구,,간석동,,구월로72번길,21,508-29,2019-11-14 23:24:14,"쇼핑,편의||미용||미용실||미용실-일반",False
36074,36075,5657196,유진헤어아트,큐사랑 관교점,Eugene hair art,Shops and Service,Beauty Salon,126.6944358042169,37.441890313955966,대한민국,KOR,KOR,인천광역시,미추홀구,,관교동,,경원대로640번길,19-38,500-13,2022-08-16 16:52:33,"쇼핑,편의||미용||미용실||미용실-일반",False
36333,36334,27038247,골든뷰티헤어,,Golden Beauty Hair,Shops and Service,Beauty Salon,126.69670084728195,37.44681007591048,대한민국,KOR,KOR,인천광역시,남동구,,구월동,,문화서로18번길,12,1378-1,2022-05-01 12:37:48,"쇼핑,편의||미용||미용실||미용실-일반",False
36341,36342,2606298,블루클럽 청천남점,,Blue Club Cheongcheonnam Branch,Shops and Service,Beauty Salon,126.71474505920273,37.505958789148245,대한민국,KOR,KOR,인천광역시,부평구,,청천동,,원길로,26,259-18,2022-08-18 12:00:50,"쇼핑,편의||미용||미용실||남성전문미용실||블루클럽",False
36439,36440,4332502,대성이발관,,Daesung Barber,Shops and Service,Beauty Salon,126.71466291279988,37.458628748090575,대한민국,KOR,KOR,인천광역시,남동구,,구월동,,용천로,101,70-83,2021-12-23 15:49:18,"쇼핑,편의||미용||미용실||일반미용실||이용원",False
36447,36448,2595441,모나미미용실,,Monami Beauty Salon,Shops and Service,Beauty Salon,126.64038523351584,37.47285159342277,대한민국,KOR,KOR,인천광역시,동구,,금곡동,,금곡안로,29,43-13,2021-12-23 15:49:18,"쇼핑,편의||미용||미용실||미용실-일반",False
36519,36520,4335432,모범이용원,,model user,Shops and Service,Beauty Salon,126.68626883266688,37.48625562517649,대한민국,KOR,KOR,인천광역시,서구,,가좌동,,고래울로,38-1,346,2021-12-23 15:49:18,"쇼핑,편의||미용||미용실||일반미용실||이용원",False
36662,36663,20476222,금광미용실,,Geumgwang Beauty Salon,Shops and Service,Beauty Salon,126.71744615160397,37.4861663696263,대한민국,KOR,KOR,인천광역시,부평구,,부평동,,경인로879번길,22,760-365,2022-08-24 14:41:06,"쇼핑,편의||미용||미용실||미용실-일반",False
37021,37022,27038179,까꼬뽀꼬미용실,,Kakko poco beauty salon,Shops and Service,Beauty Salon,126.67549552741797,37.44558446089668,대한민국,KOR,KOR,인천광역시,미추홀구,,주안동,,인하로248번길,58,1335-56,2022-05-01 12:37:48,"쇼핑,편의||미용||미용실||미용실-일반",False
37079,37080,3143226,세시봉미용실,,Seshibong Beauty Salon,Shops and Service,Beauty Salon,126.7059042504289,37.468288285512266,대한민국,KOR,KOR,인천광역시,남동구,,간석동,,동암남로26번길,51,229-8,2021-12-23 15:49:18,"쇼핑,편의||미용||미용실||미용실-일반",False
37138,37139,5717045,누시아헤어라인,,nu Sia Hair Line,Shops and Service,Beauty Salon,126.6653659331599,37.44474782199566,대한민국,KOR,KOR,인천광역시,미추홀구,,학익동,,한나루로,417,314-10,2022-05-18 1:17:08,"쇼핑,편의||미용||미용실||미용실-일반",False
37301,37302,4334302,장명주미용실,,Jang Myung-ju Beauty Salon,Shops and Service,Beauty Salon,126.67679909105088,37.44581393169888,대한민국,KOR,KOR,인천광역시,미추홀구,,주안동,,신기길,51,1343-35,2022-08-24 14:41:06,"쇼핑,편의||미용||미용실||미용실-일반",False
37450,37451,20013105,연희미용실,,Yeonhee Beauty Salon,Shops and Service,Beauty Salon,126.63017117203884,37.46879426335536,대한민국,KOR,KOR,인천광역시,중구,,답동,,인중로144번길,79,44-3,2021-12-23 15:49:18,"쇼핑,편의||미용||미용실||미용실-일반",False
37619,37620,4324116,본헤어아트,,bone hair art,Shops and Service,Beauty Salon,126.67190529999993,37.4420998999998,대한민국,KOR,KOR,인천광역시,미추홀구,,학익동,,학익소로63번길,23-18,36-1,2022-05-01 12:37:48,"쇼핑,편의||미용||미용실||미용실-일반",False
37638,37639,3444177,김나영헤어갤러리,,Nayoung Kim Hair Gallery,Shops and Service,Beauty Salon,126.7116556450039,37.4899075690678,대한민국,KOR,KOR,인천광역시,부평구,,부평동,,안남로,75,284-36,2022-08-24 14:41:06,"쇼핑,편의||미용||미용실||미용실-일반",False
37823,37824,5707956,마담포라미용실,,Madame Pora Beauty Salon,Shops and Service,Beauty Salon,126.6635019240299,37.44919338597766,대한민국,KOR,KOR,인천광역시,미추홀구,,용현동,,인하로,140-3,49-12,2021-12-23 15:49:18,"쇼핑,편의||미용||미용실||미용실-일반",False
38134,38135,3136409,펌앤컷미용실,,Perm & Cut Beauty Salon,Shops and Service,Beauty Salon,126.6857991362949,37.45720935537338,대한민국,KOR,KOR,인천광역시,미추홀구,,주안동,,경원대로833번길,61-1,402-2,2022-05-01 12:37:48,"쇼핑,편의||미용||미용실||미용실-일반",False
38161,38162,27152710,또바기살롱,,Tobagi Salon,Shops and Service,Beauty Salon,126.73165339999989,37.44992169999976,대한민국,KOR,KOR,인천광역시,남동구,,만수동,,소래로669번길,47,981-1,2022-09-06 15:18:26,"쇼핑,편의||미용||미용실||미용실-일반",False
38359,38360,27143917,아트헤어,,art hair,Shops and Service,Beauty Salon,126.69524364715188,37.44801815873127,대한민국,KOR,KOR,인천광역시,남동구,,구월동,,문화서로23번길,22,1359-9,2022-05-01 12:37:48,"쇼핑,편의||미용||미용실||미용실-일반",False
38360,38361,6207215,간석미용실,,Ganseok Beauty Salon,Shops and Service,Beauty Salon,126.70938177957088,37.46199425224598,대한민국,KOR,KOR,인천광역시,남동구,,간석동,,석촌로14번길,5,190-26,2022-05-01 12:37:48,"쇼핑,편의||미용||미용실||미용실-일반",False
38418,38419,27552567,컷트클럽,,cut club,Shops and Service,Beauty Salon,126.64477883759064,37.52868488659568,대한민국,KOR,KOR,인천광역시,서구,,청라동,,청라커낼로,232,184-1,2022-09-06 15:18:26,"쇼핑,편의||미용||미용실||미용실-일반",False
38463,38464,2597835,서일이발관,,Seoil Barber,Shops and Service,Beauty Salon,126.69769118667996,37.45501799643312,대한민국,KOR,KOR,인천광역시,남동구,,구월동,,문화로169번길,45,1089-5,2022-05-01 12:37:48,"쇼핑,편의||미용||미용실||일반미용실||이용원",False
38559,38560,4336571,하경애컷트클럽,,Hakyung Ae Cut Club,Shops and Service,Beauty Salon,126.53334632513172,37.49252305488436,대한민국,KOR,KOR,인천광역시,중구,,운남동,,운남로,168,1523,2022-08-18 12:00:50,"쇼핑,편의||미용||미용실||미용실-일반",False
38621,38622,20185441,코지살롱,COZYSALON,Cozy Salon,Shops and Service,Beauty Salon,126.75560914837995,37.55816559732782,대한민국,KOR,KOR,인천광역시,계양구,,동양동,,동양로,96-1,581,2022-08-12 13:15:03,"쇼핑,편의||미용||미용실||미용실-일반",False
38740,38741,3321155,그레이스리헤어아트,,Grace Lee Hair Art,Shops and Service,Beauty Salon,126.67915629999995,37.58567619999983,대한민국,KOR,KOR,인천광역시,서구,,당하동,,독정로25번길,26-6,820-1,2022-08-16 16:52:33,"쇼핑,편의||미용||미용실||미용실-일반",False
38806,38807,4338140,행복한미용실,,happy beauty salon,Shops and Service,Beauty Salon,126.73926002074694,37.498407882269504,대한민국,KOR,KOR,인천광역시,부평구,,부개동,,부개로,9,500-6,2022-05-01 12:37:48,"쇼핑,편의||미용||미용실||미용실-일반",False
38857,38858,20481823,큐사랑 용현점,,Q Sarang Yonghyeon Branch,Shops and Service,Beauty Salon,126.63889726585592,37.45182750734609,대한민국,KOR,KOR,인천광역시,미추홀구,,용현동,,낙섬중로46번길,17,617-73,2022-08-08 10:29:42,"쇼핑,편의||미용||머리염색||머리염색-일반",False
38906,38907,5676647,소망이용원,,Somyeong Yong-won,Shops and Service,Beauty Salon,126.63916694618452,37.45271548801264,대한민국,KOR,KOR,인천광역시,미추홀구,,용현동,,토금중로51번길,13,611-44,2022-05-01 12:37:48,"쇼핑,편의||미용||미용실||일반미용실||이용원",False
39208,39209,3123492,헤어살롱7,,Hair Salon 7,Shops and Service,Beauty Salon,126.69371699999996,37.465853999999794,대한민국,KOR,KOR,인천광역시,남동구,,간석동,,방축로,503,893-1,2022-08-24 14:41:06,"쇼핑,편의||미용||미용실||미용실-일반",False
39229,39230,20063084,지나헤어클럽,,Gina Hair Club,Shops and Service,Beauty Salon,126.6981648796449,37.459517101901575,대한민국,KOR,KOR,인천광역시,남동구,,간석동,,경인로524번길,39,518-48,2022-08-24 14:41:06,"쇼핑,편의||미용||미용실||미용실-일반",False
39255,39256,6204816,용천이용원,,Yongcheon Yongwon,Shops and Service,Beauty Salon,126.72541961188092,37.4990859675804,대한민국,KOR,KOR,인천광역시,부평구,,부평동,,주부토로46번길,3,415-27,2021-12-23 15:49:18,"쇼핑,편의||미용||미용실||일반미용실||이용원",False
39492,39493,2616352,아이리스헤어라인,,iris hair line,Shops and Service,Beauty Salon,126.70718542145087,37.470476786121765,대한민국,KOR,KOR,인천광역시,부평구,,십정동,,동암남로,32,482-1,2022-08-24 14:41:06,"쇼핑,편의||미용||미용실||미용실-일반",False
39989,39990,26958480,오드리헤어살롱,Audrey헤어살롱,Audrey Hair Salon,Shops and Service,Beauty Salon,126.72200575584188,37.502500005170994,대한민국,KOR,KOR,인천광역시,부평구,,부평동,,부평대로,124,431-22,2022-08-16 16:52:33,"쇼핑,편의||미용||미용실||미용실-일반",False
40166,40167,20055518,로이드밤 인천동춘점,로이드밤헤어인천동춘점,Lloyd's Balm Incheon Dongchun Branch,Shops and Service,Beauty Salon,126.67187539999996,37.40748229999978,대한민국,KOR,KOR,인천광역시,연수구,,동춘동,,앵고개로264번길,10-11,934-1,2022-09-06 15:18:26,"쇼핑,편의||미용||미용실||일반미용실||로이드밤",False
40416,40417,4353431,루디아미용실,,lydia beauty salon,Shops and Service,Beauty Salon,126.71411950535288,37.43197560598108,대한민국,KOR,KOR,인천광역시,남동구,,남촌동,,남촌동로,42,349-9,2021-12-23 15:49:18,"쇼핑,편의||미용||미용실||미용실-일반",False
40549,40550,4339108,정미용실,,beauty salon,Shops and Service,Beauty Salon,126.72797539999996,37.53893969999982,대한민국,KOR,KOR,인천광역시,계양구,,계산동,,주부토로,501,963-7,2022-05-01 12:37:48,"쇼핑,편의||미용||미용실||미용실-일반",False
40713,40714,20185444,탈렌트미용실,,talent Beauty Salon,Shops and Service,Beauty Salon,126.70344525046895,37.5103013218513,대한민국,KOR,KOR,인천광역시,부평구,,산곡동,,마장로,359,7-26,2021-12-23 15:49:18,"쇼핑,편의||미용||미용실||미용실-일반",False
40727,40728,5702941,대명이발관,,Daemyung Barber,Shops and Service,Beauty Salon,126.68035058129988,37.4960595233313,대한민국,KOR,KOR,인천광역시,서구,,가좌동,,건지로348번길,18,186-10,2020-01-14 23:23:42,"쇼핑,편의||미용||미용실||일반미용실||이용원",False
40843,40844,3130609,명동미용실,,Myeongdong Beauty Salon,Shops and Service,Beauty Salon,126.62709227153984,37.48053186703947,대한민국,KOR,KOR,인천광역시,동구,,만석동,,석수로,31,72-68,2020-01-14 23:43:14,"쇼핑,편의||미용||미용실||미용실-일반",False
41069,41070,2149811,진주미용실,,pearl beauty salon,Shops and Service,Beauty Salon,126.48276271217615,37.74712985680205,대한민국,KOR,KOR,인천광역시,강화군,,강화읍,신문리,청하동길7번길,5-1,241-52,2022-05-01 12:37:48,"쇼핑,편의||미용||미용실||미용실-일반",False
41070,41071,5928947,목점자미용실,,Mokjeomja Beauty Salon,Shops and Service,Beauty Salon,126.42498468034078,37.77287860262441,대한민국,KOR,KOR,인천광역시,강화군,,하점면,부근리,강화대로,1095,681-3,2022-08-16 16:52:33,"쇼핑,편의||미용||미용실||미용실-일반",False
41109,41110,3119306,유진미용실,,Eugene beauty salon,Shops and Service,Beauty Salon,126.72823499999996,37.53585299999983,대한민국,KOR,KOR,인천광역시,계양구,,작전동,,주부토로,468,34-5,2021-12-23 15:49:18,"쇼핑,편의||미용||미용실||미용실-일반",False
41175,41176,4350745,에덴헤어갤러리 갈산점,,Eden Hair Gallery Galsan,Shops and Service,Beauty Salon,126.73118690000092,37.510462999996086,대한민국,KOR,KOR,인천광역시,부평구,,갈산동,,장제로,277,369,2022-05-01 12:37:48,"쇼핑,편의||미용||미용실||미용실-일반",False
41269,41270,3143328,SSO뷰티헤어,,SSO Beauty Hair,Shops and Service,Beauty Salon,126.67294921773988,37.50365979669219,대한민국,KOR,KOR,인천광역시,서구,,석남동,,면개포로,6-1,541-29,2022-05-01 12:37:48,"쇼핑,편의||미용||미용실||미용실-일반",False
41677,41678,20200038,모범이용원,,model user,Shops and Service,Beauty Salon,126.67555057406496,37.45617152530819,대한민국,KOR,KOR,인천광역시,미추홀구,,주안동,,한나루로564번길,84,555-29,2021-12-23 15:49:18,"쇼핑,편의||미용||미용실||일반미용실||이용원",False
41809,41810,5692636,용남이용원,,Yong-Nam Yong-Won,Shops and Service,Beauty Salon,126.6646888805229,37.44927507110216,대한민국,KOR,KOR,인천광역시,미추홀구,,용현동,,인하로,149-1,31-23,2021-12-23 15:49:18,"쇼핑,편의||미용||미용실||일반미용실||이용원",False
41821,41822,27109440,로이드밤 인천서구청점,,Lloyd's Bomb Incheon Seo-gu Office,Shops and Service,Beauty Salon,126.67648759999994,37.54313799999984,대한민국,KOR,KOR,인천광역시,서구,,심곡동,,서곶로,285,248-2,2022-09-06 15:18:26,"쇼핑,편의||미용||미용실||일반미용실||로이드밤",False
42008,42009,5667355,유진미용실,,Eugene beauty salon,Shops and Service,Beauty Salon,126.6943432801969,37.47386936566178,대한민국,KOR,KOR,인천광역시,부평구,,십정동,,백범로540번길,37-4,326-11,2022-08-24 14:41:06,"쇼핑,편의||미용||미용실||미용실-일반",False
42313,42314,5688496,마리아미용실,,Maria beauty salon,Shops and Service,Beauty Salon,126.64158779999994,37.4581413999998,대한민국,KOR,KOR,인천광역시,미추홀구,,용현동,,능해길77번길,3,684-115,2022-08-24 14:41:06,"쇼핑,편의||미용||미용실||미용실-일반",False
42719,42720,5708443,유현숙헤어라인,,Hyunsook Yoo Hairline,Shops and Service,Beauty Salon,126.73815761821395,37.45141161250616,대한민국,KOR,KOR,인천광역시,남동구,,만수동,,백범로,67,423-3,2022-08-16 16:52:33,"쇼핑,편의||미용||미용실||미용실-일반",False
42776,42777,6209780,문상숙미용실,,Moon Sang-sook Beauty Salon,Shops and Service,Beauty Salon,126.64333561990688,37.45491734508816,대한민국,KOR,KOR,인천광역시,미추홀구,,용현동,,낙섬동로,107,556-6,2022-08-24 14:41:06,"쇼핑,편의||미용||미용실||미용실-일반",False
42850,42851,5668440,살롱드블랑쉬,,Salon de Blanche,Shops and Service,Beauty Salon,126.73440318627794,37.5308632780494,대한민국,KOR,KOR,인천광역시,계양구,,작전동,,장제로,708,901-4,2022-09-06 15:18:26,"쇼핑,편의||미용||미용실||미용실-일반",False
42946,42947,2607792,박석영미용실,,Park Seok-young Beauty Salon,Shops and Service,Beauty Salon,126.64777175715285,37.468833269386366,대한민국,KOR,KOR,인천광역시,미추홀구,,숭의동,,석정로,113,103-18,2021-12-23 15:49:18,"쇼핑,편의||미용||미용실||미용실-일반",False
43112,43113,3124892,양파헤어라인,,Onion Hair Line,Shops and Service,Beauty Salon,126.74102900739393,37.54819473772893,대한민국,KOR,KOR,인천광역시,계양구,,병방동,,장제로,913-1,420,2022-08-24 14:41:06,"쇼핑,편의||미용||미용실||미용실-일반",False
43332,43333,27185362,살롱드 레겐보겐,,Salon de Regenbogen,Shops and Service,Beauty Salon,126.62557969999995,37.52864299999983,대한민국,KOR,KOR,인천광역시,서구,,청라동,,청라사파이어로,158,103-2,2022-08-12 13:15:03,"쇼핑,편의||미용||미용실||미용실-일반",False
43443,43444,4965256,쉐르헤어살롱,,Sher Hair Salon,Shops and Service,Beauty Salon,126.5645553999999,37.49516399999982,대한민국,KOR,KOR,인천광역시,중구,,중산동,,오작로,6-6,1896-7,2022-08-12 13:15:03,"쇼핑,편의||미용||미용실||미용실-일반",False
44000,44001,2607505,시대이용원,,Age Yong-won,Shops and Service,Beauty Salon,126.73285999614592,37.54492491542321,대한민국,KOR,KOR,인천광역시,계양구,,임학동,,임학서로,22,46-1,2019-11-14 0:00:00,"쇼핑,편의||미용||미용실||일반미용실||이용원",False
44174,44175,5456171,스타일하우스 인천송도본점, ,Style House Incheon Songdo Main Branch,Shops and Service,Beauty Salon,126.65094399999997,37.39569459999976,대한민국,KOR,KOR,인천광역시,연수구,,송도동,,컨벤시아대로,69,3-1,2022-09-06 15:18:26,"쇼핑,편의||미용||미용실||미용실-일반",False
44381,44382,4347055,신촌미용실,,Sinchon Beauty Salon,Shops and Service,Beauty Salon,126.70943046436088,37.48802467054728,대한민국,KOR,KOR,인천광역시,부평구,,부평동,,경원대로1256번길,6-13,278-23,2022-08-24 14:41:06,"쇼핑,편의||미용||미용실||미용실-일반",False
44391,44392,5709446,지오미용실,,Geo Beauty Salon,Shops and Service,Beauty Salon,126.73917309999997,37.44136849999979,대한민국,KOR,KOR,인천광역시,남동구,,만수동,,담방로,20,1048,2022-08-24 14:41:06,"쇼핑,편의||미용||미용실||미용실-일반",False
44397,44398,27081213,인하뷰티에스테틱,,Inha Beauty Aesthetic,Shops and Service,Beauty Salon,126.66085879206788,37.46799171752148,대한민국,KOR,KOR,인천광역시,미추홀구,,도화동,,석정로,228,94-1,2022-05-01 12:37:48,"쇼핑,편의||미용||미용실||미용실-일반",False
44478,44479,2621531,김윤경미용실,,Kim Yoon-kyung Beauty Salon,Shops and Service,Beauty Salon,126.66912499999992,37.46338329999979,대한민국,KOR,KOR,인천광역시,미추홀구,,도화동,,경인로246번길,8,543-10,2022-08-24 14:41:06,"쇼핑,편의||미용||미용실||미용실-일반",False
44646,44647,2597436,서울미용실,,Seoul Beauty Salon,Shops and Service,Beauty Salon,126.66970699980725,37.46021784860936,대한민국,KOR,KOR,인천광역시,미추홀구,,도화동,,수봉로181번길,25,527-9,2022-05-01 12:37:48,"쇼핑,편의||미용||미용실||미용실-일반",False
44925,44926,4337668,동경이용원,,Tokyo Yongwon,Shops and Service,Beauty Salon,126.67485879756288,37.5200068953679,대한민국,KOR,KOR,인천광역시,서구,,가정동,,가정로394번길,15,495-14,2021-12-23 15:49:18,"쇼핑,편의||미용||미용실||일반미용실||이용원",False
45096,45097,6216470,행복미용실,,happy hair salon,Shops and Service,Beauty Salon,126.71251798273592,37.466977815665594,대한민국,KOR,KOR,인천광역시,남동구,,간석동,,간석로41번길,2,91-11,2022-05-01 12:37:48,"쇼핑,편의||미용||미용실||미용실-일반",False
45136,45137,2598425,조희미용실,,Johee Beauty Salon,Shops and Service,Beauty Salon,126.73000562972383,37.454941989819645,대한민국,KOR,KOR,인천광역시,남동구,,만수동,,구월로,354,947-7,2022-08-24 14:41:06,"쇼핑,편의||미용||미용실||미용실-일반",False
45167,45168,20201180,장미용실,,rose room,Shops and Service,Beauty Salon,126.60562148180192,37.45491404622298,대한민국,KOR,KOR,인천광역시,중구,,항동7가,,축항대로86번길,22,27-130,2021-12-23 15:49:18,"쇼핑,편의||미용||미용실||미용실-일반",False
45308,45309,20014509,다정미용실,,Dajeong Beauty Salon,Shops and Service,Beauty Salon,126.67403114115788,37.51760419007359,대한민국,KOR,KOR,인천광역시,서구,,가정동,,원창로,221-1,507-21,2022-09-06 15:18:26,"쇼핑,편의||미용||미용실||미용실-일반",False
45419,45420,5709513,이윤정뷰티헤어,이윤정헤어,Yoonjung Lee Beauty Hair,Shops and Service,Beauty Salon,126.64149070113685,37.474996671906574,대한민국,KOR,KOR,인천광역시,동구,,송림동,,송림로,59-1,227-3,2022-05-18 1:15:31,"쇼핑,편의||미용||미용실||미용실-일반",False
45595,45596,20062623,이철헤어커커 인천삼산롯데마트점,,Leecheol Haircut Incheon Samsan Lotte Mart,Shops and Service,Beauty Salon,126.73204359999993,37.507895799999794,대한민국,KOR,KOR,인천광역시,부평구,,삼산동,,길주로,623,465-1,2022-09-06 15:18:26,"쇼핑,편의||미용||미용실||일반미용실||이철헤어커커",False
45869,45870,2613845,새한미용실,,SehanBeauty Salon,Shops and Service,Beauty Salon,126.67049636814772,37.455174949494285,대한민국,KOR,KOR,인천광역시,미추홀구,,주안동,,남주길11번길,19,607-1,2022-08-16 16:52:33,"쇼핑,편의||미용||미용실||미용실-일반",False
45891,45892,4343639,화원이발관,,Hwawon Barber,Shops and Service,Beauty Salon,126.71968212717888,37.487393730794174,대한민국,KOR,KOR,인천광역시,부평구,,부평동,,경인로901번길,25,751-19,2022-05-01 12:37:48,"쇼핑,편의||미용||미용실||일반미용실||이용원",False
45899,45900,5669745,혜성이발관,,comet barber,Shops and Service,Beauty Salon,126.65084235669487,37.45297905593666,대한민국,KOR,KOR,인천광역시,미추홀구,,용현동,,독배로382번길,42,211-6,2021-12-23 15:49:18,"쇼핑,편의||미용||미용실||일반미용실||이용원",False
46271,46272,5657557,선영미용실,,Sunyoung Beauty Salon,Shops and Service,Beauty Salon,126.63438980890987,37.47838586347908,대한민국,KOR,KOR,인천광역시,동구,,송현동,,송현로19번길,8,67-34,2022-08-24 14:41:06,"쇼핑,편의||미용||미용실||미용실-일반",False
46296,46297,4343665,비주사랑 백운점,,Bijusarang Baegun Branch,Shops and Service,Beauty Salon,126.71063813692808,37.48833253536221,대한민국,KOR,KOR,인천광역시,부평구,,부평동,,경원대로1256번길,21,283-113,2022-05-01 12:37:48,"쇼핑,편의||미용||머리염색||머리염색-일반",False
46428,46429,2618902,금빛미용실,,golden beauty salon,Shops and Service,Beauty Salon,126.63682499999992,37.4801582999998,대한민국,KOR,KOR,인천광역시,동구,,송현동,,,,56-2,2022-08-18 12:00:50,"쇼핑,편의||미용||미용실||미용실-일반",False
46525,46526,3144800,이쁜맘헤어라인,,pretty mom hairline,Shops and Service,Beauty Salon,126.75351719983696,37.451293000495085,대한민국,KOR,KOR,인천광역시,남동구,,장수동,,장자로21번길,10-25,778-15,2022-08-16 16:52:33,"쇼핑,편의||미용||미용실||미용실-일반",False
46543,46544,20477490,명지헤어 인천서구점,,Myongji Hair Incheon Seogu Branch,Shops and Service,Beauty Salon,126.6816821613699,37.54499738094232,대한민국,KOR,KOR,인천광역시,서구,,심곡동,,심곡로,133,285,2022-05-01 12:37:48,"쇼핑,편의||미용||미용실||미용실-일반",False
46658,46659,4333735,필헤어클럽,필HAIRCLUB,Feel Hair Club,Shops and Service,Beauty Salon,126.74466200780832,37.51838570280276,대한민국,KOR,KOR,인천광역시,부평구,,삼산동,,영성중로,19,122-13,2022-08-12 13:15:03,"쇼핑,편의||미용||미용실||미용실-일반",False
46730,46731,3134979,은혜미용실,,grace beauty salon,Shops and Service,Beauty Salon,126.63209880187183,37.48309879510498,대한민국,KOR,KOR,인천광역시,동구,,화수동,,화수로47번길,12-1,39-6,2021-12-23 15:49:18,"쇼핑,편의||미용||미용실||미용실-일반",False
46786,46787,6221293,수정미용실,,Crystal Beauty Salon,Shops and Service,Beauty Salon,126.64328862656895,37.4812443204816,대한민국,KOR,KOR,인천광역시,동구,,송현동,,인중로,641,1-9,2021-12-23 15:49:18,"쇼핑,편의||미용||미용실||미용실-일반",False
46944,46945,4333470,김정희미용실,,Kim Jeong-hee Beauty Salon,Shops and Service,Beauty Salon,126.63889404776585,37.451960707248745,대한민국,KOR,KOR,인천광역시,미추홀구,,용현동,,토금중로,54,617-74,2022-08-24 14:41:06,"쇼핑,편의||미용||미용실||미용실-일반",False
47047,47048,3110241,삼각이용원,,Samgak Yongwon,Shops and Service,Beauty Salon,126.63127222496384,37.477574579363065,대한민국,KOR,KOR,인천광역시,동구,,화평동,,송화로,4-2,520-1,2021-12-23 15:49:18,"쇼핑,편의||미용||미용실||일반미용실||이용원",False
47075,47076,6212248,새마을이용원,,Saemaeul User Center,Shops and Service,Beauty Salon,126.64301611688887,37.47428356199937,대한민국,KOR,KOR,인천광역시,동구,,송림동,,송림로70번길,19,112-69,2021-12-23 15:49:18,"쇼핑,편의||미용||미용실||일반미용실||이용원",False
47267,47268,6230652,큐사랑 마장로점,Q사랑 마장로점,Q Sarang Majang-ro Branch,Shops and Service,Beauty Salon,126.70548294237288,37.51822355428448,대한민국,KOR,KOR,인천광역시,부평구,,청천동,,마장로450번길,18,11-4,2019-11-14 23:30:26,"쇼핑,편의||미용||머리염색||머리염색-일반",False
47476,47477,4340124,마야미용실,,Maya hair salon,Shops and Service,Beauty Salon,126.66682669086056,37.51292784337057,대한민국,KOR,KOR,인천광역시,서구,,석남동,,율도로50번길,10-8,179-19,2022-08-24 14:41:06,"쇼핑,편의||미용||미용실||미용실-일반",False
47487,47488,2614616,블루클럽 부개남점,,Blue Club Bugaenam Branch,Shops and Service,Beauty Salon,126.73854899999996,37.49739199999977,대한민국,KOR,KOR,인천광역시,부평구,,부개동,,부흥로,420,502-5,2022-08-18 12:00:50,"쇼핑,편의||미용||미용실||남성전문미용실||블루클럽",False
47776,47777,2597982,강낭혜헤어라인,,Kang Nang Hye Hairline,Shops and Service,Beauty Salon,126.67333904522587,37.51287533282239,대한민국,KOR,KOR,인천광역시,서구,,석남동,,명가골로,33,456-22,2022-08-24 14:41:06,"쇼핑,편의||미용||미용실||미용실-일반",False
47854,47855,20007548,박준뷰티랩 인천계양점,,Park Jun Beauty Lab Incheon Gyeyang Branch,Shops and Service,Beauty Salon,126.73761799999996,37.53158589999983,대한민국,KOR,KOR,인천광역시,계양구,,작전동,,오조산로7번길,4,910-8,2022-09-06 15:18:26,"쇼핑,편의||미용||미용실||일반미용실||박준뷰티랩",False
47954,47955,4321155,미래이발관,,future barber shop,Shops and Service,Beauty Salon,126.7196870126819,37.46099438793178,대한민국,KOR,KOR,인천광역시,남동구,,간석동,,백범로,267,914-14,2021-12-23 15:49:18,"쇼핑,편의||미용||미용실||일반미용실||이용원",False
48261,48262,3137198,민헤어라인,,bare hair line,Shops and Service,Beauty Salon,126.73008332837792,37.420215643022246,대한민국,KOR,KOR,인천광역시,남동구,,도림동,,도림로7번길,19,657-10,2022-05-01 12:37:48,"쇼핑,편의||미용||미용실||미용실-일반",False
48317,48318,5670602,하이센스미용실,,Hisense Beauty Salon,Shops and Service,Beauty Salon,126.67508467401188,37.45500332377628,대한민국,KOR,KOR,인천광역시,미추홀구,,주안동,,한나루로550번길,90,557-12,2021-12-23 15:49:18,"쇼핑,편의||미용||미용실||미용실-일반",False
48440,48441,26559086,라벨르헤어살롱,,Labelle Hair Salon,Shops and Service,Beauty Salon,126.6806069570799,37.5438066672796,대한민국,KOR,KOR,인천광역시,서구,,심곡동,,탁옥로97번길,2,283-1,2022-08-12 13:15:03,"쇼핑,편의||미용||미용실||미용실-일반",False
48612,48613,4361017,H STYLE헤어살롱 청라점,HSTYLE청라점,H STYLE Hair Salon Cheongna Branch,Shops and Service,Beauty Salon,126.65732226028128,37.53408153011792,대한민국,KOR,KOR,인천광역시,서구,,청라동,,청라에메랄드로102번길,10,167-1,2022-08-16 16:52:33,"쇼핑,편의||미용||미용실||일반미용실||H STYLE",False
48810,48811,4344415,태후사랑 선학점,,Empress Dowager Love  Seon Credit,Shops and Service,Beauty Salon,126.69454582845188,37.423634394532456,대한민국,KOR,KOR,인천광역시,연수구,,선학동,,학나래로5번길,38,369-9,2022-08-16 16:52:33,"쇼핑,편의||미용||머리염색||프랜차이즈||태후사랑",False
48959,48960,27072054,헤어아티스트M 부평역점,,Hair Artist M Bupyeong Station Branch,Shops and Service,Beauty Salon,126.72202289999994,37.490850399999815,대한민국,KOR,KOR,인천광역시,부평구,,부평동,,광장로4번길,14,534-3,2022-09-06 15:18:26,"쇼핑,편의||미용||미용실||일반미용실||헤어아티스트M",False
48964,48965,2595974,성원이발관,,Sungwon Barber,Shops and Service,Beauty Salon,126.68522393330989,37.48741442111249,대한민국,KOR,KOR,인천광역시,서구,,가좌동,,고래울로,23-3,351-7,2021-12-23 15:49:18,"쇼핑,편의||미용||미용실||일반미용실||이용원",False
49169,49170,3131243,키키헤어클럽,,KikiHair Club,Shops and Service,Beauty Salon,126.62816389999992,37.4721749999998,대한민국,KOR,KOR,인천광역시,중구,,내동,,개항로,50,209-31,2022-05-01 12:37:48,"쇼핑,편의||미용||미용실||미용실-일반",False
49170,49171,20184223,행복한미용실,,happy beauty salon,Shops and Service,Beauty Salon,126.65891113696988,37.46731044627457,대한민국,KOR,KOR,인천광역시,미추홀구,,도화동,,석정로202번길,11-32,88-20,2022-08-24 14:41:06,"쇼핑,편의||미용||미용실||미용실-일반",False
49215,49216,3131921,가위전설미용실,,Scissors Legend Beauty Salon,Shops and Service,Beauty Salon,126.6707740131969,37.40672900842635,대한민국,KOR,KOR,인천광역시,연수구,,동춘동,,앵고개로264번길,46,933-8,2022-08-18 12:00:50,"쇼핑,편의||미용||미용실||미용실-일반",False
49317,49318,5700035,주영헤어갤러리,,Jooyoung Hair Gallery,Shops and Service,Beauty Salon,126.73301113711692,37.5049745056891,대한민국,KOR,KOR,인천광역시,부평구,,부개동,,길주남로101번길,19,482-1,2022-08-16 16:52:33,"쇼핑,편의||미용||미용실||미용실-일반",False
49455,49456,4343215,엄지머리사랑,,thumb love,Shops and Service,Beauty Salon,126.72725809525392,37.45608066600729,대한민국,KOR,KOR,인천광역시,남동구,,만수동,,만경로,6,887-25,2022-08-16 16:52:33,"쇼핑,편의||미용||미용실||미용실-일반",False
49586,49587,1263747,유행통신미용실,,Fashion Communication Beauty Salon,Shops and Service,Beauty Salon,126.7077919654949,37.46150640743977,대한민국,KOR,KOR,인천광역시,남동구,,간석동,,남동대로,883-8,283-16,2022-08-18 12:00:50,"쇼핑,편의||미용||미용실||미용실-일반",False
49720,49721,4322738,유정미용실,,Yujeong Beauty Salon,Shops and Service,Beauty Salon,126.64763862631588,37.473832907401295,대한민국,KOR,KOR,인천광역시,동구,,송림동,,금곡로108번길,20,65-19,2022-08-24 14:41:06,"쇼핑,편의||미용||미용실||미용실-일반",False
50170,50171,3129097,현대미용실,,modern hair salon,Shops and Service,Beauty Salon,126.67042886405687,37.506020642584986,대한민국,KOR,KOR,인천광역시,서구,,석남동,,길주로76번길,3,533-46,2022-08-24 14:41:06,"쇼핑,편의||미용||미용실||미용실-일반",False
50322,50323,2613095,와이미용실,,Y Beauty Salon,Shops and Service,Beauty Salon,126.6984720172919,37.4531222674175,대한민국,KOR,KOR,인천광역시,남동구,,구월동,,문화서로90번길,32,1094,2022-08-24 14:41:06,"쇼핑,편의||미용||미용실||미용실-일반",False
50498,50499,27182395,하미유 부평H 2호점,,Hamille Bupyeong H 2nd Branch,Shops and Service,Beauty Salon,126.72590249999996,37.4932696999998,대한민국,KOR,KOR,인천광역시,부평구,,부평동,,시장로30번길,4,153-48,2022-09-06 15:18:26,"쇼핑,편의||미용||미용실||미용실-일반",False
50585,50586,20062834,로꼬헤어,,Immi manor,Shops and Service,Beauty Salon,126.70837329999993,37.4572335999998,대한민국,KOR,KOR,인천광역시,남동구,,간석동,,남동대로837번길,1,292-3,2022-09-06 15:18:26,"쇼핑,편의||미용||미용실||미용실-일반",False
50593,50594,4336186,유리이용원,,glass user,Shops and Service,Beauty Salon,126.49670489999984,37.742239299999895,대한민국,KOR,KOR,인천광역시,강화군,,강화읍,갑곳리,강화대로312번길,16,341-1,2021-12-23 15:49:18,"쇼핑,편의||미용||미용실||일반미용실||이용원",False
50671,50672,2152492,대화미용실,,conversation beauty parlor,Shops and Service,Beauty Salon,126.41885139999911,37.63578860000003,대한민국,KOR,KOR,인천광역시,강화군,,화도면,상방리,가능포로,30,775,2022-05-01 12:37:48,"쇼핑,편의||미용||미용실||미용실-일반",False
50698,50699,6212297,젠틀맨클럽,,Gentleman Club,Shops and Service,Beauty Salon,126.7204659488389,37.45454373217858,대한민국,KOR,KOR,인천광역시,남동구,,구월동,,호구포로800번길,21-17,1264-19,2022-08-24 14:41:06,"쇼핑,편의||미용||미용실||남성전문미용실||남성전문미용실-일반",False
50937,50938,27241687,봉쥬르미용실,,Bonjour Beauty Salon,Shops and Service,Beauty Salon,126.68436837933896,37.41315839656056,대한민국,KOR,KOR,인천광역시,연수구,,연수동,,원인재로,180,634,2022-08-12 13:15:03,"쇼핑,편의||미용||미용실||미용실-일반",False
51226,51227,5691491,예예미용실,,beauty salon,Shops and Service,Beauty Salon,126.71208828887488,37.52661301956198,대한민국,KOR,KOR,인천광역시,계양구,,효성동,,아나지로183번길,16,273-26,2022-08-16 16:52:33,"쇼핑,편의||미용||미용실||미용실-일반",False
51239,51240,3127235,나드리미용실,,Nadrim beauty salon,Shops and Service,Beauty Salon,126.68035389519687,37.49617054042399,대한민국,KOR,KOR,인천광역시,서구,,가좌동,,건지로348번길,16,186-26,2022-08-24 14:41:06,"쇼핑,편의||미용||미용실||미용실-일반",False
51262,51263,2621904,하얀미용실,,white hair salon,Shops and Service,Beauty Salon,126.62515727924918,37.47974989154784,대한민국,KOR,KOR,인천광역시,중구,,송월동1가,,참외전로45번길,1,4-71,2022-08-26 9:52:19,"쇼핑,편의||미용||미용실||미용실-일반",False
51361,51362,4337652,미선미용실,,beauty salon,Shops and Service,Beauty Salon,126.72790055363993,37.49439262748779,대한민국,KOR,KOR,인천광역시,부평구,,부평동,,부평문화로,103,150-13,2019-11-14 0:00:00,"쇼핑,편의||미용||미용실||미용실-일반",False
51695,51696,3133820,태양이발관,,sun barber shop,Shops and Service,Beauty Salon,126.68153283715388,37.41560721827966,대한민국,KOR,KOR,인천광역시,연수구,,연수동,,샘말로,109,615-3,2021-12-23 15:49:18,"쇼핑,편의||미용||미용실||일반미용실||이용원",False
51754,51755,3439878,하얀미용실,,white hair salon,Shops and Service,Beauty Salon,126.71153479139788,37.46068965334148,대한민국,KOR,KOR,인천광역시,남동구,,간석동,,석산로,175,153-6,2022-05-01 12:37:48,"쇼핑,편의||미용||미용실||미용실-일반",False
51897,51898,3126327,김경미헤어클럽,,Kyungmi Kim Hair Club,Shops and Service,Beauty Salon,126.6555064444019,37.42754614579466,대한민국,KOR,KOR,인천광역시,연수구,,옥련동,,한나루로197번길,30,285-1,2022-08-24 14:41:06,"쇼핑,편의||미용||미용실||미용실-일반",False
52281,52282,2594691,쎄븐미용실,,Seven Beauty Salon,Shops and Service,Beauty Salon,126.66660225563592,37.51211183988931,대한민국,KOR,KOR,인천광역시,서구,,석남동,,율도로42번길,16-1,177,2021-12-23 15:49:18,"쇼핑,편의||미용||미용실||미용실-일반",False
52304,52305,20200968,리뉴뷰티살롱 인천6호점,리뉴살롱 인천6호점,Renew Beauty Salon Incheon 6th Branch,Shops and Service,Beauty Salon,126.67428843449687,37.5122266074784,대한민국,KOR,KOR,인천광역시,서구,,석남동,,가정로308번길,13-1,460-24,2022-05-01 12:37:48,"쇼핑,편의||미용||미용실||미용실-일반",False
52444,52445,3104807,연희미용실,,Yeonhee Beauty Salon,Shops and Service,Beauty Salon,126.64331005043488,37.47146679131268,대한민국,KOR,KOR,인천광역시,동구,,금곡동,,샛골로,100-1,67-28,2022-05-01 12:37:48,"쇼핑,편의||미용||미용실||미용실-일반",False
52450,52451,4340215,신정선머리나라 부평점,,Shin Jeong-seon Meori Nara Bupyeong Branch,Shops and Service,Beauty Salon,126.71778555350768,37.504015566939486,대한민국,KOR,KOR,인천광역시,부평구,,부평동,,부평대로165번길,62,799-3,2022-08-16 16:52:33,"쇼핑,편의||미용||미용실||미용실-일반",False
52574,52575,4360181,정혜정헤어아트,,Hyejeong Jung Hair Art,Shops and Service,Beauty Salon,126.67138031750892,37.54510902624241,대한민국,KOR,KOR,인천광역시,서구,,심곡동,,용두산로13번길,1,331-2,2022-08-16 16:52:33,"쇼핑,편의||미용||미용실||미용실-일반",False
52576,52577,4359311,가온미용실,,GaonBeauty Salon,Shops and Service,Beauty Salon,126.67181567960016,37.54700559963148,대한민국,KOR,KOR,인천광역시,서구,,심곡동,,대평로,47,323-6,2022-08-24 14:41:06,"쇼핑,편의||미용||미용실||미용실-일반",False
52936,52937,4331610,김자영헤어라인,,Kim Ja-young hairline,Shops and Service,Beauty Salon,126.69736810011888,37.44501921087848,대한민국,KOR,KOR,인천광역시,남동구,,구월동,,문화서로4번길,41-4,1403-11,2022-05-18 1:17:08,"쇼핑,편의||미용||미용실||미용실-일반",False
52956,52957,6207645,선교미용실,,missionary hair salon,Shops and Service,Beauty Salon,126.71066212038002,37.48892669584764,대한민국,KOR,KOR,인천광역시,부평구,,부평동,,경원대로1262번길,16,276-34,2022-09-06 15:18:26,"쇼핑,편의||미용||미용실||미용실-일반",False
53085,53086,2603149,금광이발관,,gold barber shop,Shops and Service,Beauty Salon,126.6698554373069,37.49654501087878,대한민국,KOR,KOR,인천광역시,서구,,가좌동,,건지로250번길,27,139-17,2021-12-23 15:49:18,"쇼핑,편의||미용||미용실||일반미용실||이용원",False
53326,53327,5686526,미즈미용실,,Ms. Beauty Salon,Shops and Service,Beauty Salon,126.73524805736092,37.44600112800099,대한민국,KOR,KOR,인천광역시,남동구,,만수동,,장승로,21,1080-1,2022-08-24 14:41:06,"쇼핑,편의||미용||미용실||미용실-일반",False
53529,53530,5726795,미사랑헤어,,Miss love hair,Shops and Service,Beauty Salon,126.65145489999996,37.60244109999985,대한민국,KOR,KOR,인천광역시,서구,,왕길동,,봉수대로1440번길,27,634-1,2022-08-12 13:15:03,"쇼핑,편의||미용||미용실||미용실-일반",False
53639,53640,5714123,살롱드라엘,SalondeLael,Salon Drael,Shops and Service,Beauty Salon,126.6727341702999,37.54787098244329,대한민국,KOR,KOR,인천광역시,서구,,연희동,,연희로39번길,15,742-20,2022-08-24 14:41:06,"쇼핑,편의||미용||미용실||미용실-일반",False
53799,53800,4324100,안나미용실,,Anna Beauty Salon,Shops and Service,Beauty Salon,126.6574771688696,37.45479339572154,대한민국,KOR,KOR,인천광역시,미추홀구,,용현동,,인주대로174번길,27,139-26,2022-05-01 12:37:48,"쇼핑,편의||미용||미용실||미용실-일반",False
53832,53833,2620984,삼환미용실,,Samhwan Beauty Salon,Shops and Service,Beauty Salon,126.69828209999996,37.441431199999776,대한민국,KOR,KOR,인천광역시,미추홀구,,관교동,,문화로,27,13-10,2022-08-24 14:41:06,"쇼핑,편의||미용||미용실||미용실-일반",False
53851,53852,5682767,현희미용실,,Hyunhee Beauty Salon,Shops and Service,Beauty Salon,126.73936542298294,37.504397127947485,대한민국,KOR,KOR,인천광역시,부평구,,부개동,,부개로,71-12,496-16,2019-11-14 23:24:12,"쇼핑,편의||미용||미용실||미용실-일반",False
54090,54091,2605077,금빛미용실,,golden beauty salon,Shops and Service,Beauty Salon,126.67033825703793,37.512362090054395,대한민국,KOR,KOR,인천광역시,서구,,석남동,,가정로307번길,20-2,448-28,2022-08-24 14:41:06,"쇼핑,편의||미용||미용실||미용실-일반",False
54171,54172,3140626,태후사랑 신현점,,Empress Dowager Shinhyeon Branch,Shops and Service,Beauty Salon,126.67085471304593,37.516988676842885,대한민국,KOR,KOR,인천광역시,서구,,신현동,,율도로77번길,37,279-5,2022-08-16 16:52:33,"쇼핑,편의||미용||머리염색||프랜차이즈||태후사랑",False
54189,54190,2609404,어울림미용실,,Oullim Beauty Salon,Shops and Service,Beauty Salon,126.70547009441889,37.45907586939228,대한민국,KOR,KOR,인천광역시,남동구,,간석동,,남동대로837번길,68,351-7,2022-08-16 16:52:33,"쇼핑,편의||미용||미용실||미용실-일반",False
54208,54209,4336774,동네미용실,,neighborhood hair salon,Shops and Service,Beauty Salon,126.7058397612209,37.49581560219288,대한민국,KOR,KOR,인천광역시,부평구,,산곡동,,화랑북로24번길,1,317-52,2022-08-16 16:52:33,"쇼핑,편의||미용||미용실||미용실-일반",False
54880,54881,3132908,미광이용원,,Mikwang Yong-won,Shops and Service,Beauty Salon,126.65970193210896,37.604733558137326,대한민국,KOR,KOR,인천광역시,서구,,마전동,,검단로487번길,27,918-7,2022-05-01 12:37:48,"쇼핑,편의||미용||미용실||일반미용실||이용원",False
54885,54886,4343877,나이스가이 인천동양점,NICEGUY동양점,Nice Gai Incheon Dongyang Branch,Shops and Service,Beauty Salon,126.75680585910492,37.559366847000234,대한민국,KOR,KOR,인천광역시,계양구,,동양동,,당미1길,7,579-4,2022-08-26 9:52:19,"쇼핑,편의||미용||미용실||남성전문미용실||나이스가이",False
54942,54943,20482927,강남이용원,,Gangnam Lee Yong-won,Shops and Service,Beauty Salon,126.67369156784893,37.51224840792411,대한민국,KOR,KOR,인천광역시,서구,,석남동,,가정로308번길,9,460-18,2022-05-01 12:37:48,"쇼핑,편의||미용||미용실||일반미용실||이용원",False
55196,55197,6227044,풍림미용실,,Poonglim Beauty Salon,Shops and Service,Beauty Salon,126.68152200171696,37.56797258916493,대한민국,KOR,KOR,인천광역시,서구,,검암동,,검암로40번길,5-1,502-6,2022-08-16 16:52:33,"쇼핑,편의||미용||미용실||미용실-일반",False
55285,55286,5711070,두앤업헤어클럽,두엔업헤어클럽,Do 'n Up Hair Club,Shops and Service,Beauty Salon,126.63644142814984,37.45042465430197,대한민국,KOR,KOR,인천광역시,미추홀구,,용현동,,낙섬중로,21,627-397,2022-05-01 12:37:48,"쇼핑,편의||미용||미용실||미용실-일반",False
55328,55329,5670041,벧엘미용실,,Bethel Beauty Salon,Shops and Service,Beauty Salon,126.64659744578287,37.46309801316596,대한민국,KOR,KOR,인천광역시,미추홀구,,숭의동,,미추로,35,165-11,2019-11-14 0:00:00,"쇼핑,편의||미용||미용실||미용실-일반",False
55338,55339,3124451,샘미용실,,Sam Beauty Salon,Shops and Service,Beauty Salon,126.6668256539009,37.421723451090365,대한민국,KOR,KOR,인천광역시,연수구,,청학동,,미추홀대로251번길,9,450,2021-12-23 15:49:18,"쇼핑,편의||미용||미용실||미용실-일반",False
55922,55923,3129551,광성이용원,,Gwangseong Yongwon,Shops and Service,Beauty Salon,126.73392916045992,37.50094595653541,대한민국,KOR,KOR,인천광역시,부평구,,부평동,,부흥북로107번길,1,98-119,2021-12-23 15:49:18,"쇼핑,편의||미용||미용실||일반미용실||이용원",False
56165,56166,4323440,정인미용실,,JeonginBeauty Salon,Shops and Service,Beauty Salon,126.70553251642905,37.44595632970875,대한민국,KOR,KOR,인천광역시,남동구,,구월동,,남동대로711번길,25-3,1165,2022-05-01 12:37:48,"쇼핑,편의||미용||미용실||미용실-일반",False
56327,56328,27036080,도이미용실,,doi beauty salon,Shops and Service,Beauty Salon,126.67742277048094,37.50189871577712,대한민국,KOR,KOR,인천광역시,서구,,석남동,,길주로142번길,46,558-15,2022-05-01 12:37:48,"쇼핑,편의||미용||미용실||미용실-일반",False
56518,56519,4327787,수양미용실,,suyang Beauty Salon,Shops and Service,Beauty Salon,126.62119875363388,37.47997626612558,대한민국,KOR,KOR,인천광역시,중구,,송월동1가,,참외전로13번길,2,10-1,2022-05-18 1:18:35,"쇼핑,편의||미용||미용실||미용실-일반",False
56586,56587,5667216,초원미용실,,grassland beauty salon,Shops and Service,Beauty Salon,126.64884849822688,37.453829830099274,대한민국,KOR,KOR,인천광역시,미추홀구,,용현동,,독배로,382,206-1,2022-08-16 16:52:33,"쇼핑,편의||미용||미용실||미용실-일반",False
56848,56849,4348055,소담뷰티헤어,,Sodam Beauty Hair,Shops and Service,Beauty Salon,126.74978421352796,37.56843080215452,대한민국,KOR,KOR,인천광역시,계양구,,귤현동,,형제봉길,69,490-8,2022-08-16 16:52:33,"쇼핑,편의||미용||미용실||미용실-일반",False
57023,57024,2616443,조은미용실,,Joeun Beauty Salon,Shops and Service,Beauty Salon,126.71994745640488,37.545423250281914,대한민국,KOR,KOR,인천광역시,계양구,,계산동,,계양산로18번길,7,896-8,2022-08-24 14:41:06,"쇼핑,편의||미용||미용실||미용실-일반",False
57047,57048,3127126,썬미용실,,Sun Beauty Salon,Shops and Service,Beauty Salon,126.71400599999994,37.50213899999981,대한민국,KOR,KOR,인천광역시,부평구,,산곡동,,부영로,165,294-35,2022-08-24 14:41:06,"쇼핑,편의||미용||미용실||미용실-일반",False
57087,57088,3126524,블루클럽 가좌점,,Blue Club Gajwa,Shops and Service,Beauty Salon,126.68103427502372,37.49406113151012,대한민국,KOR,KOR,인천광역시,서구,,가좌동,,원적로,79-1,129-34,2022-08-16 16:52:33,"쇼핑,편의||미용||미용실||남성전문미용실||블루클럽",False
57092,57093,20203053,비주뷰티,,Bijou Beauty,Shops and Service,Beauty Salon,126.7158615023669,37.46420368646848,대한민국,KOR,KOR,인천광역시,남동구,,간석동,,간석로72번길,45-2,224-571,2022-05-01 12:37:48,"쇼핑,편의||미용||미용실||미용실-일반",False
57153,57154,4362034,애영이용원,,Aeyoung Lee Yong-won,Shops and Service,Beauty Salon,126.73897881201295,37.54654506799191,대한민국,KOR,KOR,인천광역시,계양구,,임학동,,임학동로56번길,16,25-8,2019-11-14 0:00:00,"쇼핑,편의||미용||미용실||일반미용실||이용원",False
57338,57339,2595379,주희미용실,,Joohee Beauty Salon,Shops and Service,Beauty Salon,126.47925899999984,37.68587299999987,대한민국,KOR,KOR,인천광역시,강화군,,불은면,두운리,강화동로,564,249-5,2021-12-23 15:49:18,"쇼핑,편의||미용||미용실||미용실-일반",False
57422,57423,26959527,수앤미헤어라인,수&미헤어라인,Soo & Me Hairline,Shops and Service,Beauty Salon,126.67082476382788,37.41313090827806,대한민국,KOR,KOR,인천광역시,연수구,,동춘동,,먼우금로141번길,62,918,2022-08-12 13:15:03,"쇼핑,편의||미용||미용실||미용실-일반",False
57447,57448,5682622,송헤어살롱,,song Hair Salon,Shops and Service,Beauty Salon,126.7302463993309,37.454653700620376,대한민국,KOR,KOR,인천광역시,남동구,,만수동,,하촌서로,66,948-9,2019-11-14 23:05:38,"쇼핑,편의||미용||미용실||미용실-일반",False
57477,57478,6216461,조아미용실,,Joa Beauty Salon,Shops and Service,Beauty Salon,126.67331885698094,37.42370376002688,대한민국,KOR,KOR,인천광역시,연수구,,연수동,,새말로,6,537,2022-08-24 14:41:06,"쇼핑,편의||미용||미용실||미용실-일반",False
57529,57530,2152625,은하미용실,,Eunha Beauty Salon,Shops and Service,Beauty Salon,126.39058390000176,37.71617289999909,대한민국,KOR,KOR,인천광역시,강화군,,내가면,고천리,강화서로,217-6,870-6,2021-12-23 15:49:18,"쇼핑,편의||미용||미용실||미용실-일반",False
57731,57732,20066469,본헤어라인,,bone hair line,Shops and Service,Beauty Salon,126.65762144239189,37.461895293558875,대한민국,KOR,KOR,인천광역시,미추홀구,,숭의동,,수봉로,52,31-61,2022-08-16 16:52:33,"쇼핑,편의||미용||미용실||미용실-일반",False
57766,57767,5716401,하이센스헤어아트,,Hi Sense Hair Art,Shops and Service,Beauty Salon,126.6946138005249,37.44501030002687,대한민국,KOR,KOR,인천광역시,미추홀구,,관교동,,인하로430번길,9,13-3,2022-05-01 12:37:48,"쇼핑,편의||미용||미용실||미용실-일반",False
57932,57933,2619879,싹썬이용원,,Sprout Lee Yong-won,Shops and Service,Beauty Salon,126.66260582763088,37.44429598591216,대한민국,KOR,KOR,인천광역시,미추홀구,,학익동,,한나루로403번길,42,422-24,2021-12-23 15:49:18,"쇼핑,편의||미용||미용실||일반미용실||이용원",False
58032,58033,6203935,예쁜미용실,,pretty hair salon,Shops and Service,Beauty Salon,126.72588068564193,37.44925466433818,대한민국,KOR,KOR,인천광역시,남동구,,구월동,,구월말로4번길,25,1311-4,2022-08-24 14:41:06,"쇼핑,편의||미용||미용실||미용실-일반",False
58323,58324,4335743,헤어갤러리,,Hair Gallery,Shops and Service,Beauty Salon,126.70158860451588,37.51368652006409,대한민국,KOR,KOR,인천광역시,부평구,,산곡동,,산청로,53,55-1,2022-08-24 14:41:06,"쇼핑,편의||미용||미용실||미용실-일반",False
58474,58475,4340591,세리헤어클럽,,Seri Hair Club,Shops and Service,Beauty Salon,126.7155634329909,37.461813953185455,대한민국,KOR,KOR,인천광역시,남동구,,간석동,,용천로136번길,15,28-5,2021-12-23 15:49:18,"쇼핑,편의||미용||미용실||미용실-일반",False
58657,58658,4357760,머리사랑,,hair love,Shops and Service,Beauty Salon,126.64322168119584,37.48012015927376,대한민국,KOR,KOR,인천광역시,동구,,송현동,,안송로,108-1,13-6,2022-08-16 16:52:33,"쇼핑,편의||미용||미용실||미용실-일반",False
58893,58894,27049778,안다미로 헤어살롱,,Andamiro Hair Salon,Shops and Service,Beauty Salon,126.71066719999995,37.532814399999815,대한민국,KOR,KOR,인천광역시,계양구,,효성동,,안남로,558,25,2022-08-12 13:15:03,"쇼핑,편의||미용||미용실||미용실-일반",False
59032,59033,3122372,한흥이용원,,Hanheung Lee Yong-won,Shops and Service,Beauty Salon,126.64735361688088,37.46225917918706,대한민국,KOR,KOR,인천광역시,미추홀구,,숭의동,,미추로,24,190-38,2019-11-14 0:00:00,"쇼핑,편의||미용||미용실||일반미용실||이용원",False
59053,59054,20203052,비전미용실,,Vision Beauty Salon,Shops and Service,Beauty Salon,126.68766035720294,37.464273861061386,대한민국,KOR,KOR,인천광역시,미추홀구,,주안동,,경원대로,911-74,965-3,2022-08-24 14:41:06,"쇼핑,편의||미용||미용실||미용실-일반",False
59094,59095,4335257,상록수이용원,,Sangnoksu Yongwon,Shops and Service,Beauty Salon,126.66772619432788,37.42742588553257,대한민국,KOR,KOR,인천광역시,연수구,,청학동,,비류대로291번길,26,549-2,2021-12-23 15:49:18,"쇼핑,편의||미용||미용실||일반미용실||이용원",False
59161,59162,5661579,오렌지헤어 인천점,,Orange Hair Incheon Branch,Shops and Service,Beauty Salon,126.73567409545694,37.44362469166648,대한민국,KOR,KOR,인천광역시,남동구,,만수동,,장승남로33번길,9,1018,2022-08-08 10:29:42,"쇼핑,편의||미용||미용실||미용실-일반",False
59326,59327,5679566,김명화헤어아트,,Myeonghwa Kim Hair Art,Shops and Service,Beauty Salon,126.73648705972496,37.548087444068315,대한민국,KOR,KOR,인천광역시,계양구,,임학동,,병방시장로43번길,1,202,2022-08-12 13:15:03,"쇼핑,편의||미용||미용실||미용실-일반",False
59642,59643,4334551,살롱드일리헤어스투디오,MADEMOISELLE헤어샵,Mademoiselle Hair Shop,Shops and Service,Beauty Salon,126.72857499999996,37.489684599999805,대한민국,KOR,KOR,인천광역시,부평구,,부평동,,장제로,45,541-2,2022-09-06 15:18:26,"쇼핑,편의||미용||미용실||미용실-일반",False
59666,59667,4337324,새인천이발관,,Sae IncheonBarbershop,Shops and Service,Beauty Salon,126.64573336341697,37.461106277685566,대한민국,KOR,KOR,인천광역시,미추홀구,,숭의동,,독배로462번길,55,170-12,2022-05-01 12:37:48,"쇼핑,편의||미용||미용실||일반미용실||이용원",False
60004,60005,5673958,지아미용실,,Gia Beauty Salon,Shops and Service,Beauty Salon,126.70178055254792,37.474426170951766,대한민국,KOR,KOR,인천광역시,부평구,,십정동,,하정로15번길,5,392-15,2022-08-24 14:41:06,"쇼핑,편의||미용||미용실||미용실-일반",False
60403,60404,5674899,현헤어아트,,Hyun Hair Art,Shops and Service,Beauty Salon,126.6640702643989,37.44577421830587,대한민국,KOR,KOR,인천광역시,미추홀구,,학익동,,재넘이길29번길,56-12,306-151,2021-12-23 15:49:18,"쇼핑,편의||미용||미용실||미용실-일반",False
60695,60696,20009479,에리카헤어 부평역사점,,Erica Hair  Bupyeong Station Branch,Shops and Service,Beauty Salon,126.72283389999996,37.4901235999998,대한민국,KOR,KOR,인천광역시,부평구,,부평동,,광장로,16,738-21,,"쇼핑,편의||미용||미용실||일반미용실||에리카헤어",False
60874,60875,27084717,더헤어 인천검단점,,The Hair Incheon Geomdan Branch,Shops and Service,Beauty Salon,126.65839752035988,37.60201799439163,대한민국,KOR,KOR,인천광역시,서구,,마전동,,완정로,162,979-18,2022-08-12 13:15:03,"쇼핑,편의||미용||미용실||일반미용실||더헤어",False
60945,60946,20011800,로이드밤 인천부평점, ,Lloyd's Bomb Incheon Bupyeong Branch,Shops and Service,Beauty Salon,126.72493219961775,37.49384149967723,대한민국,KOR,KOR,인천광역시,부평구,,부평동,,부평문화로80번길,10,201-140,2020-12-02 15:33:15,"쇼핑,편의||미용||미용실||일반미용실||로이드밤",False
60992,60993,2612437,성심이발관,,Sacred Heart Barber,Shops and Service,Beauty Salon,126.67467499999997,37.516033299999805,대한민국,KOR,KOR,인천광역시,서구,,가정동,,가정로352번길,16,518-20,2022-05-01 12:37:48,"쇼핑,편의||미용||미용실||일반미용실||이용원",False
61163,61164,5665904,사마헤어라인,,Sama Hair Line,Shops and Service,Beauty Salon,126.72565623792292,37.54000102664899,대한민국,KOR,KOR,인천광역시,계양구,,계산동,,주부토로501번길,27,960,2022-08-24 14:41:06,"쇼핑,편의||미용||미용실||미용실-일반",False
61176,61177,4339793,헤어펌 미용실,,hair perm salon,Shops and Service,Beauty Salon,126.71492634131188,37.46497583503157,대한민국,KOR,KOR,인천광역시,남동구,,간석동,,간석로66번길,28,43-2,2022-08-18 12:00:50,"쇼핑,편의||미용||미용실||미용실-일반",False
61436,61437,4347316,올리브이용원,,Olive Garden,Shops and Service,Beauty Salon,126.71679839999996,37.526643999999806,대한민국,KOR,KOR,인천광역시,계양구,,효성동,,새벌로,108,200-1,2017-03-14 12:12:12,"쇼핑,편의||미용||미용실||일반미용실||이용원",False
61473,61474,4350030,새리미용실,,Saari Beauty Salon,Shops and Service,Beauty Salon,126.71735749999993,37.43024129999978,대한민국,KOR,KOR,인천광역시,남동구,,남촌동,,호구포로535번길,16,320-2,2022-08-16 16:52:33,"쇼핑,편의||미용||미용실||미용실-일반",False
61530,61531,2598364,웰빙미용실,,Well-being Beauty Salon,Shops and Service,Beauty Salon,126.72613125164392,37.5381620203503,대한민국,KOR,KOR,인천광역시,계양구,,계산동,,계산천동로33번길,6,964-14,2022-08-24 14:41:06,"쇼핑,편의||미용||미용실||미용실-일반",False
61573,61574,6209857,아트미스헤어라인,,Artis Hairline,Shops and Service,Beauty Salon,126.70735196307892,37.498081608762185,대한민국,KOR,KOR,인천광역시,부평구,,산곡동,,마장로220번길,65,233-26,2022-05-18 1:18:39,"쇼핑,편의||미용||미용실||미용실-일반",False
61911,61912,2606982,가나미용실,,Kana Beauty Salon,Shops and Service,Beauty Salon,126.67793619999976,37.49043169999936,대한민국,KOR,KOR,인천광역시,서구,,가좌동,,원적로37번길,21,262-1,2022-08-16 16:52:33,"쇼핑,편의||미용||미용실||미용실-일반",False
61967,61968,20060381,라자미용실,,Raja Beauty Salon,Shops and Service,Beauty Salon,126.74095459020556,37.494338011460194,대한민국,KOR,KOR,인천광역시,부평구,,부개동,,수변로107번길,39,120-347,2022-05-01 12:37:48,"쇼핑,편의||미용||미용실||미용실-일반",False
62059,62060,2601742,소희미용실,,Sohee Beauty Salon,Shops and Service,Beauty Salon,126.69805157538931,37.4475051338845,대한민국,KOR,KOR,인천광역시,남동구,,구월동,,문화서로28번길,34,1368-8,2022-08-24 14:41:06,"쇼핑,편의||미용||미용실||미용실-일반",False
62210,62211,4329442,경원이발관,,Gyeongwon Barber,Shops and Service,Beauty Salon,126.73827789465695,37.46504535946818,대한민국,KOR,KOR,인천광역시,남동구,,만수동,,만수로,113,1-160,2021-12-23 15:49:18,"쇼핑,편의||미용||미용실||일반미용실||이용원",False
62230,62231,2608371,원미용실,,Won Beauty Salon,Shops and Service,Beauty Salon,126.70055252324688,37.5079276727428,대한민국,KOR,KOR,인천광역시,부평구,,산곡동,,길주로348번길,17,87-85,2021-12-23 15:49:18,"쇼핑,편의||미용||미용실||미용실-일반",False
62648,62649,5691820,린주미용실,,linju Beauty Salon,Shops and Service,Beauty Salon,126.71109142349889,37.4884303696304,대한민국,KOR,KOR,인천광역시,부평구,,부평동,,신촌로,57-3,283-21,2022-08-24 14:41:06,"쇼핑,편의||미용||미용실||미용실-일반",False
62700,62701,27131202,미앤미 미용실,,me and me beauty salon,Shops and Service,Beauty Salon,126.71442909999996,37.50732959999981,대한민국,KOR,KOR,인천광역시,부평구,,청천동,,원길로,37,200-58,2022-05-01 12:37:48,"쇼핑,편의||미용||미용실||미용실-일반",False
62801,62802,5667249,란미용실,,Ran hair salon,Shops and Service,Beauty Salon,126.63214584425783,37.48214117972947,대한민국,KOR,KOR,인천광역시,동구,,화수동,,화도안로,48,275-50,2020-01-14 23:23:42,"쇼핑,편의||미용||미용실||미용실-일반",False
62877,62878,2611802,호두깍기 부평점,,Nutcracker,Shops and Service,Beauty Salon,126.72495015342672,37.50195870264715,대한민국,KOR,KOR,인천광역시,부평구,,부평동,,주부토로75번길,6,433-171,2022-08-24 14:41:06,"쇼핑,편의||미용||미용실||미용실-일반",False
62928,62929,2610009,헤어클럽,,hair club,Shops and Service,Beauty Salon,126.70452080681788,37.462468596689966,대한민국,KOR,KOR,인천광역시,남동구,,간석동,,남동대로897번길,66,428-6,2021-12-23 15:49:18,"쇼핑,편의||미용||미용실||미용실-일반",False
