,OID_,id,name,name_alias,name_eng,category,subcategory,lon,lat,country,country_code,language_code,sd,sgg,sgg_sub,emd,ri,street,number_st,number_jb,update_date,dwnm,result
59,60,1872483,음식나라조리학원 계양점,,Food Nara Cooking School  Gyeyang Branch,Education,Other Education,126.73126279999995,37.54345909999982,대한민국,KOR,KOR,인천광역시,계양구,,계산동,,경명대로,1117,918-8,2022-08-18 12:00:50,교육||학원||요리학원||요리학원-일반,False
250,251,742175,소라유치원,,Sora Kindergarten,Education,Other Education,126.68915975280989,37.45414303735848,대한민국,KOR,KOR,인천광역시,미추홀구,,주안동,,경원대로,799,253-14,2019-11-14 23:22:22,교육||아동교육||유치원,False
297,298,2604244,인천고잔유치원,고잔유치원,Incheon Gojan Kindergarten,Education,Other Education,126.72173506713592,37.39669831807325,대한민국,KOR,KOR,인천광역시,남동구,,논현동,,앵고개로815번길,71,738-3,2019-11-14 23:28:46,교육||아동교육||유치원,False
537,538,3586627,청천2동어린이집,,Cheongcheon 2-dong Day care Center,Education,Other Education,126.71521270503588,37.50664130392031,대한민국,KOR,KOR,인천광역시,부평구,,청천동,,원길로34번길,8,259-33,2022-05-01 12:37:48,교육||아동교육||어린이집||국공립어린이집,False
942,943,329412,송현유치원,,Songhyeon Kindergarten,Education,Other Education,126.63485979999976,37.48339189999973,대한민국,KOR,KOR,인천광역시,동구,,송현동,,화수로,40,66-777,2022-08-18 12:00:50,교육||아동교육||유치원,False
1172,1173,3242382,양지초등학교병설유치원,인천양지초등학교병설유치원,Kindergarten attached to Yangji Elementary School,Education,Other Education,126.67135935576589,37.5400723137912,대한민국,KOR,KOR,인천광역시,서구,,심곡동,,승학로197번길,11,144-2,2020-01-14 23:39:43,교육||아동교육||병설유치원,False
1241,1242,1030970,해승유치원,,Haesung Kindergarten,Education,Other Education,126.74022049999996,37.53340199999981,대한민국,KOR,KOR,인천광역시,계양구,,작전동,,,,912-10,2022-05-01 12:37:48,교육||아동교육||유치원,False
1333,1334,460130,청학숲유치원,,Cheonghak Forest Kindergarten,Education,Other Education,126.6644294552199,37.431530006783454,대한민국,KOR,KOR,인천광역시,연수구,,청학동,,청학로,49,22-4,2020-01-14 23:38:08,교육||아동교육||유치원,False
1368,1369,5879843,소담어린이집,,Sodam Nursery School,Education,Other Education,126.74033929999992,37.44131479999977,대한민국,KOR,KOR,인천광역시,남동구,,만수동,,담방로,22-16,1048,2021-12-23 15:49:18,교육||아동교육||어린이집||어린이집-일반,False
1477,1478,2149995,코끼리유치원,,Elephant Kindergarten,Education,Other Education,126.48276329999985,37.7360278999999,대한민국,KOR,KOR,인천광역시,강화군,,강화읍,남산리,충렬사로,52-2,343-6,2022-05-01 12:37:48,교육||아동교육||유치원,False
1518,1519,495216,연희유치원,,Yeonhee Kindergarten,Education,Other Education,126.67928869999996,37.54431609999984,대한민국,KOR,KOR,인천광역시,서구,,심곡동,,탁옥로85번길,6,285-4,2022-05-01 12:37:48,교육||아동교육||유치원,False
1664,1665,478148,남양유치원,,Namyang Kindergarten,Education,Other Education,126.7159043289659,37.431179405501446,대한민국,KOR,KOR,인천광역시,남동구,,남촌동,,남촌동로3번길,35,332-6,2019-11-14 23:19:30,교육||아동교육||유치원,False
1727,1728,27110381,토스어학원,,Toss Language School,Education,Other Education,126.71547369999993,37.59480489999984,대한민국,KOR,KOR,인천광역시,서구,,원당동,,이음5로,70,1030-5,2022-08-12 13:15:03,교육||학원||어학원||영어학원||영어학원-일반,False
1921,1922,4338242,이튼유치원,,Eaton Kindergarten,Education,Other Education,126.51997836275375,37.48131135514157,대한민국,KOR,KOR,인천광역시,중구,,운남동,,남디로안길,34-7,1676-2,2022-08-16 16:52:33,교육||아동교육||유치원,False
1928,1929,3242557,인천동부초등학교 병설유치원,동부초등학교병설유치원,Incheon Dongbu Elementary School  Auxiliary Kindergarten,Education,Other Education,126.7276013998489,37.46289521566826,대한민국,KOR,KOR,인천광역시,남동구,,만수동,,만수서로33번길,25,111-5,2022-05-01 12:37:48,교육||아동교육||병설유치원,False
1932,1933,3242385,신석초등학교병설유치원,인천신석초등학교병설유치원,Kindergarten attached to Shinseok Elementary School,Education,Other Education,126.6638874999999,37.51090829999979,대한민국,KOR,KOR,인천광역시,서구,,석남동,,새오개로,9,208-2,2021-12-23 15:49:18,교육||아동교육||병설유치원,False
1962,1963,27091469,삼성중장비운전학원,,Samsung Heavy Equipment Driving School,Education,Other Education,126.67707151796787,37.62621596943375,대한민국,KOR,KOR,인천광역시,서구,,대곡동,,설원로,102,415-8,2022-08-12 13:15:03,"교육||학원||직업,기술학원||기술학원",False
2182,2183,5705667,에이스화인유치원,,Ace Fine Kindergarten,Education,Other Education,126.72104,37.386172399999765,대한민국,KOR,KOR,인천광역시,남동구,,논현동,,에코중앙로84번길,9,766-3,2022-05-01 12:37:48,교육||아동교육||유치원,False
2296,2297,1256980,여성의광장어린이집,,women's square Day care Center,Education,Other Education,126.66496249999994,37.412948699999774,대한민국,KOR,KOR,인천광역시,연수구,,동춘동,,앵고개로,183,920,2022-05-01 12:37:48,교육||아동교육||어린이집||국공립어린이집,False
2323,2324,27173454,김혜리 국어학원,,Hyeri Kim Korean Language School,Education,Other Education,126.72435707166893,37.40003765598907,대한민국,KOR,KOR,인천광역시,남동구,,논현동,,논고개로,101,649-3,2022-06-07 17:23:36,교육||학원||보습학원,False
2346,2347,27126515,쇼팽심포니음악학원,,Chopin Symphony School of Music,Education,Other Education,126.75873609999996,37.55934709999983,대한민국,KOR,KOR,인천광역시,계양구,,동양동,,동양로,123,641-8,2022-09-06 15:18:26,교육||학원||음악학원||음악학원-일반,False
2415,2416,5874852,꿈꾸는어린이집, ,dream nursery,Education,Other Education,126.62443469972784,37.52543380018279,대한민국,KOR,KOR,인천광역시,서구,,청라동,,비즈니스로,10,102-16,2018-12-03 20:39:11,교육||아동교육||어린이집||어린이집-일반,False
2564,2565,964440,큰별유치원,,Big Star Kindergarten,Education,Other Education,126.67676819999994,37.40723419999977,대한민국,KOR,KOR,인천광역시,연수구,,동춘동,,원인재로,81,924-3,2022-08-24 14:41:06,교육||아동교육||유치원,False
2569,2570,3138555,부평사임당 어린이집,,Bupyeong Saimdang Day care Center,Education,Other Education,126.73165692135692,37.49762787786169,대한민국,KOR,KOR,인천광역시,부평구,,부평동,,부흥로360번길,10,132-31,2019-11-14 23:29:08,교육||아동교육||어린이집||어린이집-일반,False
2573,2574,1073653,꿈동산유치원,,Dream Garden Kindergarten,Education,Other Education,126.66970550000188,37.42397419999956,대한민국,KOR,KOR,인천광역시,연수구,,청학동,,용담로,3,451,2022-08-16 16:52:33,교육||아동교육||유치원,False
2603,2604,3131928,에벤에셀영수학원,,Ebenezer English Academy,Education,Other Education,126.6706146628869,37.408399231493355,대한민국,KOR,KOR,인천광역시,연수구,,동춘동,,앵고개로246번길,10,937-1,2022-07-05 16:31:26,교육||학원||어학원||영어학원||영어학원-일반,False
2666,2667,3242900,경서초등학교병설유치원,인천경서초등학교병설유치원,Kindergarten attached to Gyeongseo Elementary School,Education,Other Education,126.65090253111087,37.55639188398663,대한민국,KOR,KOR,인천광역시,서구,,경서동,,경서로31번길,31,741,2020-01-14 23:43:25,교육||아동교육||병설유치원,False
2779,2780,1252280,정철어학원주니어 논현캠퍼스,,Jeongcheol Language School Junior Nonhyeon Campus,Education,Other Education,126.72380802549894,37.401932667484765,대한민국,KOR,KOR,인천광역시,남동구,,논현동,,논고개로,121,631-11,2022-05-01 12:37:48,교육||학원||어학원||영어학원||정철어학원주니어,False
2885,2886,5884417,아이랑어린이집,,child and nursery,Education,Other Education,126.69129282231223,37.420792525756255,대한민국,KOR,KOR,인천광역시,연수구,,연수동,,원인재로,315,533,2021-12-23 15:49:18,교육||아동교육||어린이집||어린이집-일반,False
3125,3126,5860946,꽃뜰어린이집,,Flower Garden Nursery,Education,Other Education,126.73226372123452,37.58031514666716,대한민국,KOR,KOR,인천광역시,계양구,,오류동,,황어로115번길,12,180,2022-05-01 12:37:48,교육||아동교육||어린이집||어린이집-일반,False
3126,3127,288643,해나라어린이집,,Haenara Nursery School,Education,Other Education,126.66827965984288,37.50085432598329,대한민국,KOR,KOR,인천광역시,서구,,석남동,,석남로,60,589-12,2020-01-14 23:41:43,교육||아동교육||어린이집||어린이집-일반,False
3230,3231,5864538,별꽃어린이집,,Star Flower Nursery,Education,Other Education,126.73750248101607,37.44089175749826,대한민국,KOR,KOR,인천광역시,남동구,,만수동,,담방로21번길,23,1045,2021-12-23 15:49:18,교육||아동교육||어린이집||어린이집-일반,False
3288,3289,5862756,엄지어린이집,,thumb nursery,Education,Other Education,126.73846339999996,37.51850519999981,대한민국,KOR,KOR,인천광역시,부평구,,삼산동,,후정동로,12,170-1,,교육||아동교육||어린이집||어린이집-일반,False
3358,3359,5885927,예쁜무지개어린이집,,Pretty Rainbow Nursery School,Education,Other Education,126.73583904114838,37.45853857452257,대한민국,KOR,KOR,인천광역시,남동구,,만수동,,백범로124번길,43,29,2021-12-23 15:49:18,교육||아동교육||어린이집||어린이집-일반,False
3460,3461,866933,행복한유치원,,happy kindergarten,Education,Other Education,126.73772823852796,37.40484452325135,대한민국,KOR,KOR,인천광역시,남동구,,논현동,,포구로,64-14,577,2022-08-18 12:00:50,교육||아동교육||유치원,False
3747,3748,27069537,원투영수학원,,One Two Young Water Academy,Education,Other Education,126.73727806747092,37.49711853888419,대한민국,KOR,KOR,인천광역시,부평구,,부개동,,동수천로,132,502-9,2022-08-12 13:15:03,교육||학원||어학원||영어학원||영어학원-일반,False
3850,3851,3242567,부개초등학교병설유치원,인천부개초등학교병설유치원,Kindergarten attached to Bugae Elementary School,Education,Other Education,126.73885784363397,37.485696211317595,대한민국,KOR,KOR,인천광역시,부평구,,부개동,,마분로,9,356,2019-11-14 23:28:26,교육||아동교육||병설유치원,False
4018,4019,5702701,리더스영수학원,리더스학원,Leaders Young Academy,Education,Other Education,126.64932359999995,37.47033669999978,대한민국,KOR,KOR,인천광역시,동구,,송림동,,동산로,23,94-2,2022-08-24 14:41:06,교육||학원||보습학원,False
4258,4259,27185334,E3원어민어학원,,E3 Native Language School,Education,Other Education,126.62355090918584,37.523551719502976,대한민국,KOR,KOR,인천광역시,서구,,청라동,,솔빛로,20,104-3,2022-08-16 16:52:33,교육||학원||어학원||어학원-일반,False
4361,4362,1871458,꿈터어린이집,,Dreamteo Nursery,Education,Other Education,126.67681410345789,37.43724782249076,대한민국,KOR,KOR,인천광역시,미추홀구,,문학동,,소성로,270-20,170-8,2022-05-01 12:37:48,교육||아동교육||어린이집||어린이집-일반,False
4439,4440,1268219,경희대어린이집,,Kyunghee University Nursery School,Education,Other Education,126.70274633814088,37.51909325563889,대한민국,KOR,KOR,인천광역시,부평구,,청천동,,마장로459번길,27,30-37,2021-12-23 15:49:18,교육||아동교육||어린이집||어린이집-일반,False
4581,4582,27135886,EiE어학원 인천논현캠퍼스,,EiE Language School Incheon Nonhyeon Campus,Education,Other Education,126.73359604852293,37.40173613938277,대한민국,KOR,KOR,인천광역시,남동구,,논현동,,앵고개로,928,671-1,2022-08-12 13:15:03,교육||학원||어학원||영어학원||EiE어학원,False
4630,4631,27138937,정상어학원 청라캠퍼스,,Jeongsang Language School Cheongna Campus,Education,Other Education,126.65020741129987,37.53205396792869,대한민국,KOR,KOR,인천광역시,서구,,청라동,,중봉대로,588,162-14,2022-08-24 14:41:06,교육||학원||어학원||영어학원||영어학원-일반,False
4880,4881,1246866,루시드어학원,지엔비영어전문학원인동캠퍼스,Lucid language school,Education,Other Education,126.71754875691587,37.45624033324807,대한민국,KOR,KOR,인천광역시,남동구,,구월동,,구월로,243,1244-12,2022-08-18 12:00:50,교육||학원||어학원||영어학원||영어학원-일반,False
5008,5009,5885045,초록나무어린이집,,Green Tree Nursery,Education,Other Education,126.7117288592849,37.407687566247866,대한민국,KOR,KOR,인천광역시,남동구,,논현동,,은봉로165번길,24,580-1,2022-05-01 12:37:48,교육||아동교육||어린이집||어린이집-일반,False
5099,5100,5890588,꿈에그린어린이집, ,Dream Nursery School,Education,Other Education,126.64007053163992,37.538855617396926,대한민국,KOR,KOR,인천광역시,서구,,청라동,,크리스탈로,148,139-1,2022-05-01 12:37:48,교육||아동교육||어린이집||어린이집-일반,False
5270,5271,3242549,창영초등학교병설유치원,인천창영초등학교병설유치원,Kindergarten attached to Changyeong Elementary School,Education,Other Education,126.63966553798284,37.472247943722856,대한민국,KOR,KOR,인천광역시,동구,,창영동,,우각로15번길,16,30,2021-12-23 15:49:18,교육||아동교육||병설유치원,False
5363,5364,2614632,프라임예지유치원,예지유치원,Prime Yeji Kindergarten,Education,Other Education,126.72857879999997,37.39355069999976,대한민국,KOR,KOR,인천광역시,남동구,,논현동,,에코중앙로,192,774-3,2022-05-01 12:37:48,교육||아동교육||유치원,False
5404,5405,793937,해마루유치원,,Haemaru Kindergarten,Education,Other Education,126.74825959999998,37.4777743999998,대한민국,KOR,KOR,인천광역시,부평구,,구산동,,일신로,120,360,2022-05-01 12:37:48,교육||아동교육||유치원,False
5504,5505,678285,동부동심유치원,관인동심유치원,Eastern Concentric Kindergarten,Education,Other Education,126.7048604425199,37.448048847909874,대한민국,KOR,KOR,인천광역시,남동구,,구월동,,성말로35번길,61,1152-1,2022-05-01 12:37:48,교육||아동교육||유치원,False
5571,5572,672052,인기자동차운전전문학원,인기자동차운전학원,Popular Auto Driving School,Education,Other Education,126.71372503074488,37.39120086664144,대한민국,KOR,KOR,인천광역시,남동구,,고잔동,,논현고잔로128번길,68-28,308-16,2022-08-12 13:15:03,"교육||학원||직업,기술학원||운전학원",False
5614,5615,5871669,아이랑어린이집,,child and nursery,Education,Other Education,126.71342795871976,37.50759232802277,대한민국,KOR,KOR,인천광역시,부평구,,청천동,,안남로,272,200,2022-08-16 16:52:33,교육||아동교육||어린이집||어린이집-일반,False
5658,5659,20022932,이노필유치원,,Innopil Kindergarten,Education,Other Education,126.74082621776196,37.49210653119461,대한민국,KOR,KOR,인천광역시,부평구,,부개동,,수변로,64,191-21,2022-05-01 12:37:48,교육||아동교육||유치원,False
5767,5768,3139299,리틀마리보나어린이집,보나어린이집,Little Maribona Nursery School,Education,Other Education,126.71159758483688,37.526716179453125,대한민국,KOR,KOR,인천광역시,계양구,,효성동,,안남로490번길,6,273-14,2021-12-23 15:49:18,교육||아동교육||어린이집||어린이집-일반,False
5845,5846,5862873,꾸미어린이집,,Decorating Nursery,Education,Other Education,126.67573155417382,37.56662083528829,대한민국,KOR,KOR,인천광역시,서구,,검암동,,승학로495번길,7,595-3,2021-12-23 15:49:18,교육||아동교육||어린이집||어린이집-일반,False
6037,6038,27139577,한국직업능력전문학원,,Korea Vocational Competency College,Education,Other Education,126.67969716302188,37.46294415295888,대한민국,KOR,KOR,인천광역시,미추홀구,,주안동,,미추홀대로733번길,7,224-2,2022-08-18 12:00:50,"교육||학원||직업,기술학원||미용||미용-일반",False
6064,6065,27173602,비상학원,,emergency school,Education,Other Education,126.74258287472196,37.521722205493006,대한민국,KOR,KOR,인천광역시,부평구,,삼산동,,부평북로,442,388-11,2022-08-08 10:29:42,교육||학원||보습학원,False
6204,6205,5892438,The즐거운어린이집,,The Joyful Nursery,Education,Other Education,126.69022109999996,37.61806499999986,대한민국,KOR,KOR,인천광역시,서구,,불로동,,검단로,832,312-2,,교육||아동교육||어린이집||어린이집-일반,False
6214,6215,27148417,루원대성학원,,Luwon University,Education,Other Education,126.66381099999992,37.522471299999815,대한민국,KOR,KOR,인천광역시,서구,,신현동,,새오개로111번안길,21,307-6,2022-08-24 14:41:06,교육||학원||수학학원||수학학원-일반,False
6453,6454,27102176,삼성영어 남동초교실,,Samsung English Namdong Elementary School,Education,Other Education,126.73639088579591,37.44362698691577,대한민국,KOR,KOR,인천광역시,남동구,,만수동,,장승남로,37,1019-7,2022-08-12 13:15:03,교육||학원||어학원||영어학원||삼성영어,False
6718,6719,5887111,동심어린이집,,Concentric Nursery,Education,Other Education,126.67542816284843,37.40702930659032,대한민국,KOR,KOR,인천광역시,연수구,,동춘동,,원인재로,81,924-3,2021-12-23 15:49:18,교육||아동교육||어린이집||어린이집-일반,False
6721,6722,5868325,채송화어린이집,,Chae Songhwa Nursery School,Education,Other Education,126.74384419999996,37.51896979999982,대한민국,KOR,KOR,인천광역시,부평구,,삼산동,,영성서로,10,500,2022-08-16 16:52:33,교육||아동교육||어린이집||어린이집-일반,False
6753,6754,27052733,영수원칙 학원,,Receipt principle school,Education,Other Education,126.64845741688283,37.39844768714255,대한민국,KOR,KOR,인천광역시,연수구,,송도동,,신송로,166,20-14,2022-08-16 16:52:33,교육||학원||보습학원,False
6765,6766,27182652,송도류궈링중국어학원,,Songdo Liu Guoling Chinese Language School,Education,Other Education,126.64508339999993,37.39475269999976,대한민국,KOR,KOR,인천광역시,연수구,,송도동,,해돋이로,165,22-4,2022-08-16 16:52:33,교육||학원||어학원||중국어학원||중국어학원-일반,False
6831,6832,20016238,한얼학원,,Korean language school,Education,Other Education,126.67768239999992,37.50285669999981,대한민국,KOR,KOR,인천광역시,서구,,석남동,,서달로49번길,3,559,2021-12-23 15:49:18,교육||학원||보습학원,False
6835,6836,894343,새싹어린이집,,Sprout Nursery,Education,Other Education,126.69670279999995,37.42646599999978,대한민국,KOR,KOR,인천광역시,연수구,,선학동,,경원대로467번길,38,403-15,2018-09-18 15:00:00,교육||아동교육||어린이집||어린이집-일반,False
6862,6863,3895716,아띠어린이집,,Atti Nursery,Education,Other Education,126.64711689999977,37.381488399999725,대한민국,KOR,KOR,인천광역시,연수구,,송도동,,해송로30번길,19,9-6,2022-08-16 16:52:33,교육||아동교육||어린이집||어린이집-일반,False
6909,6910,126155,소리엘어린이집,,Soriel Nursery School,Education,Other Education,126.6910253303599,37.446387009754176,대한민국,KOR,KOR,인천광역시,미추홀구,,관교동,,경원대로716번길,16,468-1,2021-12-23 15:49:18,교육||아동교육||어린이집||어린이집-일반,False
6916,6917,4679885,한솔빛어린이집,,Hansol Bit Nursery,Education,Other Education,126.69825807488688,37.46035129604727,대한민국,KOR,KOR,인천광역시,남동구,,간석동,,석산로62번길,8-8,516-9,2022-08-16 16:52:33,교육||아동교육||어린이집||어린이집-일반,False
6944,6945,5867813,은행나무어린이집,,Ginkgo Nursery,Education,Other Education,126.71285777694088,37.40308648945816,대한민국,KOR,KOR,인천광역시,남동구,,논현동,,논현로,45,635-1,2022-05-01 12:37:48,교육||아동교육||어린이집||국공립어린이집,False
6971,6972,5867009,베베어린이집,,Bebe Nursery School,Education,Other Education,126.70746062553108,37.51308491985158,대한민국,KOR,KOR,인천광역시,부평구,,청천동,,세월천로,16,176,2022-08-18 12:00:50,교육||아동교육||어린이집||어린이집-일반,False
6981,6982,5886801,꾸러기어린이집,,Naughty Kindergarten,Education,Other Education,126.68033498277612,37.5683978687556,대한민국,KOR,KOR,인천광역시,서구,,검암동,,검암로,53,501-1,2021-12-23 15:49:18,교육||아동교육||어린이집||어린이집-일반,False
7008,7009,4349854,마리보나어린이집,,Maribona Nursery School,Education,Other Education,126.71189200692088,37.52693824742619,대한민국,KOR,KOR,인천광역시,계양구,,효성동,,안남로490번길,7-2,272-17,2021-12-23 15:49:18,교육||아동교육||어린이집||어린이집-일반,False
7015,7016,3610267,인천예송유치원,예송유치원,Incheon Yesong Kindergarten,Education,Other Education,126.63122589999983,37.38090579999962,대한민국,KOR,KOR,인천광역시,연수구,,송도동,,컨벤시아대로302번길,23,115-5,2021-12-23 15:49:18,교육||아동교육||유치원,False
7121,7122,20770611,검단11국공립유치원(2023년3월예정), ,Geomdan 11th National Public Kindergarten (planned in March 2023),Education,Other Education,126.71470773761196,37.60230226453885,대한민국,KOR,KOR,인천광역시,서구,,원당동,,,,249,2022-07-19 20:20:05,교육||아동교육||유치원,False
7221,7222,3132861,이보영토킹클럽제임스영수학원,이보영토킹클럽,Boyoung Lee Talking Club James Youngsu Academy,Education,Other Education,126.68434050863888,37.494105692630576,대한민국,KOR,KOR,인천광역시,서구,,가좌동,,원적로100번길,18,30-78,2022-08-16 16:52:33,교육||학원||어학원||영어학원||영어학원-일반,False
7251,7252,27096285,미르국어학원,,Mir Language School,Education,Other Education,126.64857199999996,37.397766299999766,대한민국,KOR,KOR,인천광역시,연수구,,송도동,,신송로,161,21-14,2022-05-01 12:37:48,교육||학원||보습학원,False
7707,7708,5875412,에코꿈나무어린이집,,Eco Dream Tree Nursery,Education,Other Education,126.73008282494555,37.39344602069069,대한민국,KOR,KOR,인천광역시,남동구,,논현동,,논고개로,17,774-1,2019-12-27 15:43:22,교육||아동교육||어린이집||어린이집-일반,False
7854,7855,459977,미일유치원,,US-Japan Kindergarten,Education,Other Education,126.67857588441689,37.51233962019468,대한민국,KOR,KOR,인천광역시,서구,,석남동,,서달로,153-1,470-7,2021-12-23 15:49:18,교육||아동교육||유치원,False
7883,7884,27124789,송수학학원,,Songsoo Academy,Education,Other Education,126.66520294955788,37.5297214290382,대한민국,KOR,KOR,인천광역시,서구,,가정동,,청중로,486,607-3,2022-08-16 16:52:33,교육||학원||수학학원||수학학원-일반,False
7896,7897,5877617,푸른산어린이집,,Blue Mountain Nursery,Education,Other Education,126.70452583590956,37.50117444767368,대한민국,KOR,KOR,인천광역시,부평구,,산곡동,,마장로264번길,36,255-4,2020-03-24 17:03:50,교육||아동교육||어린이집||어린이집-일반,False
8129,8130,3133768,삼성영어서흥초교실,,Samsung English Seoheung Elementary School,Education,Other Education,126.64637438605286,37.47945394186717,대한민국,KOR,KOR,인천광역시,동구,,송림동,,샛골로194번길,13,32-158,2020-01-14 23:42:11,교육||학원||어학원||영어학원||영어학원-일반,False
8275,8276,5895162,사랑나무 어린이집,,Love Tree Nursery,Education,Other Education,126.55543187208912,37.48681061144848,대한민국,KOR,KOR,인천광역시,중구,,중산동,,하늘달빛로,113,1871-3,2022-09-06 15:18:26,교육||아동교육||어린이집||어린이집-일반,False
8354,8355,3242376,인천화전유치원,화전유치원,Incheon Hwajeon Kindergarten,Education,Other Education,126.73115736900591,37.52764648501511,대한민국,KOR,KOR,인천광역시,계양구,,작전동,,효서로,314,169-2,2019-11-14 23:29:08,교육||아동교육||유치원,False
8437,8438,336510,연세숲어린이집,,Yonsei Forest Day care Center,Education,Other Education,126.73861062762394,37.45386833394197,대한민국,KOR,KOR,인천광역시,남동구,,만수동,,인수북로4번길,5-15,63-5,2021-12-23 15:49:18,교육||아동교육||어린이집||어린이집-일반,False
8500,8501,363950,큰사랑어린이집,,big love nursery,Education,Other Education,126.72436644427997,37.45388272827308,대한민국,KOR,KOR,인천광역시,남동구,,구월동,,복개서로,75,1259-18,2022-09-06 15:18:26,교육||아동교육||어린이집||어린이집-일반,False
8704,8705,5888530,토마토어린이집,,Tomato Nursery,Education,Other Education,126.67307332197312,37.56330844617264,대한민국,KOR,KOR,인천광역시,서구,,검암동,,승학로471번길,7,605-1,2021-12-23 15:49:18,교육||아동교육||어린이집||어린이집-일반,False
8813,8814,6142465,위브긍정어린이집,,We've Positive Nursery School,Education,Other Education,126.68698509999994,37.490418599999806,대한민국,KOR,KOR,인천광역시,서구,,가좌동,,여우재로,136,611,2022-06-13 10:44:13,교육||아동교육||어린이집||어린이집-일반,False
9448,9449,450399,리틀하버드유치원,하버드유치원,Little Harvard Kindergarten,Education,Other Education,126.6618460496029,37.44492374333105,대한민국,KOR,KOR,인천광역시,미추홀구,,학익동,,한나루로403번길,60-3,321-21,2021-12-23 15:49:18,교육||아동교육||유치원,False
9535,9536,1260822,시온예능어린이집,예능어린이집,Zion Entertainment Day care Center,Education,Other Education,126.72175095129192,37.46187443448457,대한민국,KOR,KOR,인천광역시,남동구,,간석동,,백범로248번길,23,920-27,2022-05-01 12:37:48,교육||아동교육||어린이집||어린이집-일반,False
9689,9690,5857910,푸르미어린이집,,Purmi Nursery School,Education,Other Education,126.64293709999994,37.39308769999976,대한민국,KOR,KOR,인천광역시,연수구,,송도동,,센트럴로,160,23-5,2022-08-16 16:52:33,교육||아동교육||어린이집||어린이집-일반,False
9792,9793,27184140,기분좋은학원,,good school,Education,Other Education,126.72386509999995,37.40168659999976,대한민국,KOR,KOR,인천광역시,남동구,,논현동,,논고개로,117,631-10,2022-08-16 16:52:33,교육||학원||보습학원,False
9932,9933,2151216,해찬솔어린이집,,Haechansol Nursery School,Education,Other Education,126.69182662290189,37.461237039420176,대한민국,KOR,KOR,인천광역시,미추홀구,,주안동,,경인로471번길,60,925-6,2021-12-23 15:49:18,교육||아동교육||어린이집||어린이집-일반,False
10007,10008,988665,보나유치원,,Bona Kindergarten,Education,Other Education,126.73985479999996,37.53003899999983,대한민국,KOR,KOR,인천광역시,계양구,,작전동,,효서로,393,915-1,2022-08-18 12:00:50,교육||아동교육||유치원,False
10022,10023,3452198,논현유니랭스어학원,,Nonhyeon University Language School,Education,Other Education,126.72633863516492,37.39855752638895,대한민국,KOR,KOR,인천광역시,남동구,,논현동,,논고개로,77,746-4,2022-05-01 12:37:48,교육||학원||어학원||영어학원||영어학원-일반,False
10125,10126,5888819,코끼리맘어린이집,,Elephant Mom Nursery,Education,Other Education,126.73759774811165,37.44281195873336,대한민국,KOR,KOR,인천광역시,남동구,,만수동,,담방로21번길,24,1042,2021-12-23 15:49:18,교육||아동교육||어린이집||어린이집-일반,False
10462,10463,918397,기암유치원,,Giam Kindergarten,Education,Other Education,126.72469899999987,37.46416129999975,대한민국,KOR,KOR,인천광역시,남동구,,만수동,,서판로,43,1114,2022-08-18 12:00:50,교육||아동교육||유치원,False
10525,10526,5872985,청일초등학교 병설유치원,청일초교 병설유치원,Kindergarten attached to Cheongil Elementary School,Education,Other Education,126.63749163724884,37.529060603822096,대한민국,KOR,KOR,인천광역시,서구,,청라동,,크리스탈로,46,173-2,2021-12-23 15:49:18,교육||아동교육||병설유치원,False
10850,10851,3242131,인천동춘초등학교병설유치원,인천동춘초등학교병설유치원,Kindergarten attached to Incheon Dongchun Elementary School,Education,Other Education,126.66858582306588,37.40959598379696,대한민국,KOR,KOR,인천광역시,연수구,,동춘동,,앵고개로,224,938-1,2022-05-01 12:37:48,교육||아동교육||병설유치원,False
10952,10953,2155522,인동초등학교병설유치원,인천인동초등학교병설유치원,Kindergarten attached to Indong Elementary School,Education,Other Education,126.72257482137088,37.46264401729698,대한민국,KOR,KOR,인천광역시,남동구,,만수동,,백범로248번길,38,846,2019-11-14 23:28:28,교육||아동교육||병설유치원,False
11033,11034,4050973,정철어학원주니어 구월캠퍼스,정철어학원구월캠퍼스,Jeongcheol Language School Junior Guwol Campus,Education,Other Education,126.71445137027187,37.457483360206176,대한민국,KOR,KOR,인천광역시,남동구,,구월동,,용천로,87,70-14,2022-05-13 10:36:55,교육||학원||어학원||영어학원||정철어학원주니어,False
11148,11149,27069521,페이스국어학원,,face language school,Education,Other Education,126.73614524119894,37.508250547640685,대한민국,KOR,KOR,인천광역시,부평구,,삼산동,,체육관로,40,459-5,2022-08-16 16:52:33,교육||학원||입시학원||입시학원-일반,False
11156,11157,5885177,사과나무어린이집,,Apple Tree Nursery,Education,Other Education,126.64674043694743,37.426376353935446,대한민국,KOR,KOR,인천광역시,연수구,,옥련동,,독배로,58,633,2021-12-23 15:49:18,교육||아동교육||어린이집||어린이집-일반,False
11162,11163,2596636,청천예어린이집,,Cheongcheon Art Nursery,Education,Other Education,126.7045176627429,37.5076525107274,대한민국,KOR,KOR,인천광역시,부평구,,산곡동,,마장로,330,100-9,2022-05-02 21:16:34,교육||아동교육||어린이집||어린이집-일반,False
11164,11165,5902744,한양수자인관리동어린이집, ,Hanyang Soojain Management Building Day care Center,Education,Other Education,126.62112930045484,37.525986499572795,대한민국,KOR,KOR,인천광역시,서구,,청라동,,비즈니스로,41,102-2,2022-05-01 12:37:48,교육||아동교육||어린이집||어린이집-일반,False
11244,11245,27218983,이혜경고등수학학원,,Hyekyung Lee High School of Mathematics,Education,Other Education,126.73811304442692,37.534094732406,대한민국,KOR,KOR,인천광역시,계양구,,계산동,,도두리로,33,1083-4,2022-08-16 16:52:33,교육||학원||수학학원||수학학원-일반,False
11318,11319,900114,연세유치원,,Yonsei Kindergarten,Education,Other Education,126.70945750594096,37.51484527677132,대한민국,KOR,KOR,인천광역시,부평구,,청천동,,세월천로,16,176,2022-05-01 12:37:48,교육||아동교육||유치원,False
11393,11394,5904063,산새소리유치원,,Sansaesori Kindergarten,Education,Other Education,126.64763520033412,37.477139842303856,대한민국,KOR,KOR,인천광역시,동구,,송림동,,송림로117번길,6,42-31,2022-05-01 12:37:48,교육||아동교육||유치원,False
11405,11406,20073850,이화어린이집,,Ewha Nursery School,Education,Other Education,126.73708199928396,37.504842966684095,대한민국,KOR,KOR,인천광역시,부평구,,부개동,,충선로,176-10,12-152,2021-12-23 15:49:18,교육||아동교육||어린이집||어린이집-일반,False
11483,11484,1252803,대우늘푸른어린이집,늘푸른어린이집,Daewooneul Blue Nursery,Education,Other Education,126.67699649999994,37.59170649999984,대한민국,KOR,KOR,인천광역시,서구,,당하동,,청마로,170,1099-2,2021-12-23 15:49:18,교육||아동교육||어린이집||어린이집-일반,False
11524,11525,5864333,앨리스어린이집,,Alice Nursery,Education,Other Education,126.56622919999992,37.49127569999981,대한민국,KOR,KOR,인천광역시,중구,,중산동,,하늘별빛로,66,1887-2,2022-05-01 12:37:48,교육||아동교육||어린이집||어린이집-일반,False
11626,11627,5894083,대화초등학교 병설유치원,대화초교 병설유치원,Kindergarten attached to Daehwa Elementary School,Education,Other Education,126.66851949500192,37.46903405517217,대한민국,KOR,KOR,인천광역시,미추홀구,,도화동,,석정로301번길,13,105-11,2022-05-01 12:37:48,교육||아동교육||병설유치원,False
11695,11696,5868149,송현초어린이집,,Songhyeon Elementary School,Education,Other Education,126.63388729937184,37.48168526296767,대한민국,KOR,KOR,인천광역시,동구,,송현동,,송화로,45,66-21,2022-05-18 11:21:23,교육||아동교육||어린이집||어린이집-일반,False
11719,11720,288655,소나무어린이집,,Dream Tree Montessori Nursery School,Education,Other Education,126.69541609999995,37.4750778999998,대한민국,KOR,KOR,인천광역시,부평구,,십정동,,배곶로,79-1,324,2022-08-18 12:00:50,교육||아동교육||어린이집||어린이집-일반,False
11881,11882,4356053,에듀피아유치원,,edupia kindergarten,Education,Other Education,126.75087744223492,37.43040770608496,대한민국,KOR,KOR,인천광역시,남동구,,서창동,,장아산로232번길,16-5,646,2022-08-16 16:52:33,교육||아동교육||유치원,False
12103,12104,3588216,꼬마정원유치원,,Little Garden Kindergarten,Education,Other Education,126.63558630411084,37.59420152358352,대한민국,KOR,KOR,인천광역시,서구,,오류동,,봉화로15번길,11-7,1729-6,2020-01-14 23:42:49,교육||아동교육||유치원,False
12158,12159,5893223,완정초등학교 병설유치원,완정초교 병설유치원,Wanjeong Elementary School  Auxiliary Kindergarten,Education,Other Education,126.66457524246388,37.59847868617362,대한민국,KOR,KOR,인천광역시,서구,,마전동,,완정로,99,1117,2020-01-14 23:40:31,교육||아동교육||병설유치원,False
12174,12175,5902371,인천예송초등학교병설유치원,인천예송초교병설유치원,Incheon Yesong Elementary School Auxiliary Kindergarten,Education,Other Education,126.63057431851084,37.38749918158805,대한민국,KOR,KOR,인천광역시,연수구,,송도동,,컨벤시아대로252번길,75,105,2021-12-23 15:49:18,교육||아동교육||병설유치원,False
12355,12356,27189932,GnB어학원 가좌1캠퍼스,,GnB Language School Gajwa 1 Campus,Education,Other Education,126.67486757027892,37.49582785949628,대한민국,KOR,KOR,인천광역시,서구,,가좌동,,가정로126번길,29,142-47,2022-08-12 13:15:03,교육||학원||어학원||영어학원||지앤비영어전문학원,False
12457,12458,336084,뜨락어린이집,,Trek Nursery,Education,Other Education,126.65014479999996,37.42599859999978,대한민국,KOR,KOR,인천광역시,연수구,,옥련동,,한나루로105번길,68,637-1,2018-09-18 15:00:00,교육||아동교육||어린이집||어린이집-일반,False
12461,12462,5870698,새싹어린이집,,Sprout Nursery,Education,Other Education,126.73612952642628,37.46013912516101,대한민국,KOR,KOR,인천광역시,남동구,,만수동,,만수로50번길,19,20,2021-12-23 15:49:18,교육||아동교육||어린이집||어린이집-일반,False
12706,12707,3672000,연세간호학원,,Yonsei Nursing School,Education,Other Education,126.70799124392988,37.46209030011268,대한민국,KOR,KOR,인천광역시,남동구,,간석동,,남동대로,893,283-18,2022-08-18 12:00:50,"교육||학원||직업,기술학원||간호",False
12765,12766,5902729,봄빛어린이집, ,spring day nursery,Education,Other Education,126.62510339963384,37.522258999858884,대한민국,KOR,KOR,인천광역시,서구,,청라동,,보석로,32,104-13,2021-12-23 15:49:18,교육||아동교육||어린이집||어린이집-일반,False
12804,12805,3429039,솔빛유치원,,Solbit Kindergarten,Education,Other Education,126.63666546883084,37.48033318645999,대한민국,KOR,KOR,인천광역시,동구,,송현동,,화수로,2,167,2022-08-18 12:00:50,교육||아동교육||유치원,False
12850,12851,5890804,뽀로롱아이어린이집, ,Pororon Child Nursery,Education,Other Education,126.6608320004039,37.53501439958671,대한민국,KOR,KOR,인천광역시,서구,,청라동,,,,137-4,2018-12-02 1:00:17,교육||아동교육||어린이집||어린이집-일반,False
12859,12860,5869142,사랑이넘치는어린이집, ,Nursery full of love,Education,Other Education,126.65162060014788,37.539167600170494,대한민국,KOR,KOR,인천광역시,서구,,청라동,,청라라임로,131,116-4,2018-12-02 1:00:21,교육||아동교육||어린이집||어린이집-일반,False
13031,13032,27091032,제이앤케이영수학원,,J&K Young Education Academy,Education,Other Education,126.48947599122069,37.49273047534684,대한민국,KOR,KOR,인천광역시,중구,,운서동,,흰바위로,41,2794-1,2022-05-01 12:37:48,교육||학원||입시학원||입시학원-일반,False
13064,13065,4355945,일영유치원,,Ilyoung Kindergarten,Education,Other Education,126.70015924358088,37.597163958503046,대한민국,KOR,KOR,인천광역시,서구,,원당동,,고산로45번길,4,841-6,2021-12-23 15:49:18,교육||아동교육||유치원,False
13070,13071,5889333,보듬손어린이집,,Bodeumson Nursery School,Education,Other Education,126.70799216236084,37.49220618543151,대한민국,KOR,KOR,인천광역시,부평구,,산곡동,,안남로,91,311-126,2022-08-16 16:52:33,교육||아동교육||어린이집||어린이집-일반,False
13100,13101,3242384,석남초등학교 병설유치원,인천석남초등학교병설유치원,Seoknam Elementary School  Auxiliary Kindergarten,Education,Other Education,126.68000244292992,37.510195241660085,대한민국,KOR,KOR,인천광역시,서구,,석남동,,서달로130번길,4,109-32,2020-01-14 23:42:11,교육||아동교육||병설유치원,False
13109,13110,573789,아림유치원,,Arim Kindergarten,Education,Other Education,126.69079991473788,37.49557873374928,대한민국,KOR,KOR,인천광역시,서구,,가좌동,,장고개로,375-11,2-12,2022-08-18 12:00:50,교육||아동교육||유치원,False
13116,13117,3438981,외대어학원 남동캠퍼스,한국외대학교외대어학원,Foreign Language Institute Namdong Campus,Education,Other Education,126.7209051475509,37.463808450929776,대한민국,KOR,KOR,인천광역시,남동구,,간석동,,호구포로,914,918,2022-05-01 12:37:48,교육||학원||어학원||어학원-일반,False
13169,13170,3261820,동심어린이집,,Concentric Nursery,Education,Other Education,126.6997519330869,37.598558473659615,대한민국,KOR,KOR,인천광역시,서구,,원당동,,고산로45번길,28,834-3,2022-08-16 16:52:33,교육||아동교육||어린이집||어린이집-일반,False
13208,13209,5895212,인천청라초등학교 병설유치원,,Incheon Cheongna Elementary School  Auxiliary Kindergarten,Education,Other Education,126.65576263525888,37.53801428057471,대한민국,KOR,KOR,인천광역시,서구,,청라동,,청라에메랄드로,139,125-6,2020-01-14 23:35:37,교육||아동교육||병설유치원,False
13296,13297,5902372,송일초등학교병설유치원,송일초교병설유치원,Kindergarten attached to Songil Elementary School,Education,Other Education,126.63513499993589,37.384188000250646,대한민국,KOR,KOR,인천광역시,연수구,,송도동,,컨벤시아대로252번길,15,107,2022-05-01 12:37:48,교육||아동교육||병설유치원,False
13405,13406,5902736,예쁜우리어린이집,,Pretty Woori Nursery,Education,Other Education,126.66735346087488,37.53174690889608,대한민국,KOR,KOR,인천광역시,서구,,가정동,,봉오재3로,11,603-1,2021-12-23 15:49:18,교육||아동교육||어린이집||어린이집-일반,False
13422,13423,636714,은하유치원,,Eunha Kindergarten,Education,Other Education,126.67398027190875,37.59586338851141,대한민국,KOR,KOR,인천광역시,서구,,마전동,,완정로10번길,20,1008-12,2022-08-18 12:00:50,교육||아동교육||유치원,False
13464,13465,15611,자연유치원,,natural kindergarten,Education,Other Education,126.70128234607591,37.5300191809207,대한민국,KOR,KOR,인천광역시,계양구,,효성동,,봉오대로477번길,18,123-57,2021-12-23 15:49:18,교육||아동교육||유치원,False
13536,13537,3123668,효성이스턴어학원,,Hyosung Stern Language School,Education,Other Education,126.71683886748188,37.5288545776804,대한민국,KOR,KOR,인천광역시,계양구,,효성동,,새벌로,131,277-21,2022-08-18 12:00:50,교육||학원||어학원||영어학원||영어학원-일반,False
13550,13551,1853650,논현유치원,,Nonhyeon Kindergarten,Education,Other Education,126.70960692851088,37.405593546227536,대한민국,KOR,KOR,인천광역시,남동구,,논현동,,은봉로,177,580-4,2021-12-23 15:49:18,교육||아동교육||유치원,False
13753,13754,5866046,아가숲어린이집,,Baby Forest Nursery,Education,Other Education,126.72946139999996,37.53883599999983,대한민국,KOR,KOR,인천광역시,계양구,,계산동,,계산새로5번길,14,57-2,2022-05-01 12:37:48,교육||아동교육||어린이집||어린이집-일반,False
13767,13768,197276,동아자동차운전전문학원,동아자동차운전학원,Dong-A Motor Driving School,Education,Other Education,126.7204586748589,37.398781310657355,대한민국,KOR,KOR,인천광역시,남동구,,고잔동,,청능대로534번길,39,71,2022-09-06 15:18:26,"교육||학원||직업,기술학원||운전학원",False
13772,13773,27154683,GMA개념원리학원 연수선학제1교육원,,GMA Concept Principles Institute Yeonsu Seonhak 1st Education Center,Education,Other Education,126.69330835861892,37.42339464778296,대한민국,KOR,KOR,인천광역시,연수구,,선학동,,비류대로529번길,3,376-5,2022-08-16 16:52:33,교육||학원||수학학원||수학학원-일반,False
13863,13864,5890616,예쁜뜰어린이집,,Pretty Garden Nursery,Education,Other Education,126.73766469999993,37.51591999999976,대한민국,KOR,KOR,인천광역시,부평구,,삼산동,,수변로,333,445-5,2022-08-16 16:52:33,교육||아동교육||어린이집||어린이집-일반,False
14002,14003,5889799,푸른숲어린이집,,Blue Forest Nursery School,Education,Other Education,126.67348269999997,37.408915699999774,대한민국,KOR,KOR,인천광역시,연수구,,동춘동,,먼우금로,126,924,,교육||아동교육||어린이집||어린이집-일반,False
14062,14063,588955,진수학영어학원,,Jinsu Science English Academy,Education,Other Education,126.7316179827529,37.53078939108871,대한민국,KOR,KOR,인천광역시,계양구,,작전동,,봉오대로,743,103-20,2019-11-14 23:11:36,교육||학원||보습학원,False
14181,14182,1261495,영보유치원,,Youngbo Kindergarten,Education,Other Education,126.71187698786387,37.46671782742738,대한민국,KOR,KOR,인천광역시,남동구,,간석동,,백범로360번길,26,100-2,2022-05-01 12:37:48,교육||아동교육||유치원,False
14209,14210,27137642,산수학,,arithmetic,Education,Other Education,126.6553222411709,37.53688749751507,대한민국,KOR,KOR,인천광역시,서구,,청라동,,청라에메랄드로133번길,11,128-1,2022-08-16 16:52:33,교육||학원||보습학원,False
14260,14261,27162779,고강학원,,high school,Education,Other Education,126.67182819999992,37.406819399999776,대한민국,KOR,KOR,인천광역시,연수구,,동춘동,,앵고개로264번길,30-4,933-4,2022-08-18 12:00:50,교육||학원||수학학원||수학학원-일반,False
14492,14493,940782,꿈꾸는어린이집,,dream nursery,Education,Other Education,126.74204529999994,37.535951699999785,대한민국,KOR,KOR,인천광역시,계양구,,계산동,,용종로,26,1085-2,2020-03-17 9:48:16,교육||아동교육||어린이집||어린이집-일반,False
14518,14519,5902733,아이랑어린이집,,child and nursery,Education,Other Education,126.66593591929087,37.5264794379778,대한민국,KOR,KOR,인천광역시,서구,,가정동,,봉오재3로,66,610-1,2021-12-23 15:49:18,교육||아동교육||어린이집||어린이집-일반,False
14597,14598,5878333,이바IBA유치원,이바유치원,Iba IBA Kindergarten,Education,Other Education,126.70519072093288,37.4936758852761,대한민국,KOR,KOR,인천광역시,부평구,,산곡동,,마장로168번길,17,311-6,2022-05-01 12:37:48,교육||아동교육||유치원,False
14615,14616,4345362,예인어린이집,,Yein Nursery,Education,Other Education,126.72786339149992,37.54556559273362,대한민국,KOR,KOR,인천광역시,계양구,,계산동,,계수로26번길,6-1,923-23,2021-12-23 15:49:18,교육||아동교육||어린이집||어린이집-일반,False
14654,14655,5863351,해처럼별처럼어린이집,,"Like the sun, like the stars, nursery school",Education,Other Education,126.6942384425787,37.420580754929446,대한민국,KOR,KOR,인천광역시,연수구,,연수동,,원인재로,300,532,2021-12-23 15:49:18,교육||아동교육||어린이집||어린이집-일반,False
14662,14663,27102822,부평엘리트영수전문학원,,Bupyeong elite training school,Education,Other Education,126.7072681310119,37.49628441687919,대한민국,KOR,KOR,인천광역시,부평구,,산곡동,,부흥로144번길,48,392-1,2022-08-18 12:00:50,교육||학원||보습학원,False
14716,14717,473160,문학어린이집,,Literature Nursery,Education,Other Education,126.6847531176589,37.43453226379146,대한민국,KOR,KOR,인천광역시,미추홀구,,문학동,,문학길,136,400-1,2022-08-16 16:52:33,교육||아동교육||어린이집||어린이집-일반,False
14729,14730,5863512,하늘채어린이집,,Sky Chae Nursery,Education,Other Education,126.70192529654435,37.47993809611002,대한민국,KOR,KOR,인천광역시,부평구,,십정동,,이규보로,79,608-4,2021-12-23 15:49:18,교육||아동교육||어린이집||어린이집-일반,False
14761,14762,607498,다슬기유치원,,Daseulgi Kindergarten,Education,Other Education,126.68329554846488,37.41742786752805,대한민국,KOR,KOR,인천광역시,연수구,,연수동,,새말로,134,578-1,2022-08-18 12:00:50,교육||아동교육||유치원,False
15036,15037,27103897,청어람국어학원,,Cheongeoram Korean Language School,Education,Other Education,126.65094179999994,37.39568629999977,대한민국,KOR,KOR,인천광역시,연수구,,송도동,,컨벤시아대로,69,3-1,2022-08-18 12:00:50,교육||학원||입시학원||입시학원-일반,False
15217,15218,3803675,제니스유치원,,Zenith Kindergarten,Education,Other Education,126.75501616377996,37.424352281435965,대한민국,KOR,KOR,인천광역시,남동구,,서창동,,서창방산로,99,674,2022-08-16 16:52:33,교육||아동교육||유치원,False
15330,15331,5891417,꼬마별어린이집,,Little Star Nursery,Education,Other Education,126.68320779890004,37.49228742612478,대한민국,KOR,KOR,인천광역시,서구,,가좌동,,장고개로309번길,29,30-86,2021-12-23 15:49:18,교육||아동교육||어린이집||어린이집-일반,False
15453,15454,5904117,인천동방초등학교병설유치원,,Incheon Dongbang Elementary School Auxiliary Kindergarten,Education,Other Education,126.7195032801559,37.40328873757864,대한민국,KOR,KOR,인천광역시,남동구,,논현동,,논현역로,31,633-8,2022-05-01 12:37:48,교육||아동교육||유치원,False
15485,15486,1259483,중앙유치원,,Central Kindergarten,Education,Other Education,126.6645108337759,37.45807571275908,대한민국,KOR,KOR,인천광역시,미추홀구,,주안동,,수봉로129번길,13-11,660-4,2021-12-23 15:49:18,교육||아동교육||유치원,False
15704,15705,5879066,아이큰숲어린이집,,Ikeun Forest Nursery School,Education,Other Education,126.7123923097539,37.507638414962685,대한민국,KOR,KOR,인천광역시,부평구,,청천동,,안남로,272,200,2021-12-23 15:49:18,교육||아동교육||어린이집||어린이집-일반,False
15860,15861,1017496,큰샛별어린이집,,Big Saetbyul Nursery School,Education,Other Education,126.68794404872588,37.48627170465329,대한민국,KOR,KOR,인천광역시,서구,,가좌동,,여우재로,90,379-11,2021-12-23 15:49:18,교육||아동교육||어린이집||어린이집-일반,False
16171,16172,5654868,한빛유치원,,Hanbit Kindergarten,Education,Other Education,126.70634599999994,37.4992984999998,대한민국,KOR,KOR,인천광역시,부평구,,산곡동,,부흥로123번길,36,264-1,2022-08-16 16:52:33,교육||아동교육||유치원,False
16189,16190,2147199,정원어린이집,,garden nursery,Education,Other Education,126.65020306574787,37.47151091064799,대한민국,KOR,KOR,인천광역시,동구,,송림동,,새천년로38번길,10-6,101-34,2022-05-01 12:37:48,교육||아동교육||어린이집||어린이집-일반,False
16371,16372,5888991,꿈이쑥쑥어린이집,,Dream Growing Nursery,Education,Other Education,126.67491149999992,37.423880899999766,대한민국,KOR,KOR,인천광역시,연수구,,연수동,,새말로,21,536,2022-08-16 16:52:33,교육||아동교육||어린이집||어린이집-일반,False
16401,16402,5887801,사랑나무어린이집,,Love Tree Nursery,Education,Other Education,126.64149086650364,37.455758999487614,대한민국,KOR,KOR,인천광역시,미추홀구,,용현동,,낙섬중로,102,557-1,2021-12-23 15:49:18,교육||아동교육||어린이집||어린이집-일반,False
16450,16451,5879170,은현유치원,,Eunhyeon Kindergarten,Education,Other Education,126.73591311519596,37.504554319644896,대한민국,KOR,KOR,인천광역시,부평구,,부개동,,길주남로125번길,12,12-201,2022-08-12 13:15:03,교육||아동교육||유치원,False
16539,16540,27187003,모차르트음악학원,,Mozart School of Music,Education,Other Education,126.63880795438963,37.52584618217122,대한민국,KOR,KOR,인천광역시,서구,,청라동,,청라커낼로,163,173-1,2022-08-12 13:15:03,교육||학원||음악학원||피아노||피아노-일반,False
16548,16549,27185073,위너클래스 국어학원,,Winner Class Korean Language School,Education,Other Education,126.73614459999997,37.508249399999805,대한민국,KOR,KOR,인천광역시,부평구,,삼산동,,체육관로,40,459-5,2022-08-08 10:29:42,교육||학원||보습학원,False
16700,16701,20085953,현수학교습소,,suspension school,Education,Other Education,126.63745352371885,37.4653788516308,대한민국,KOR,KOR,인천광역시,중구,,선화동,,도원로14번길,15-2,7-17,2021-12-23 15:49:18,교육||학원||수학학원||수학학원-일반,False
16747,16748,5885783,동화그림어린이집,,fairy tale picture nursery,Education,Other Education,126.73037179001192,37.419017265659456,대한민국,KOR,KOR,인천광역시,남동구,,도림동,,오봉로,33,630-1,2022-05-01 12:37:48,교육||아동교육||어린이집||어린이집-일반,False
16801,16802,3242891,용마초등학교병설유치원,인천용마초등학교병설유치원,Kindergarten attached to Yongma Elementary School,Education,Other Education,126.7071172380819,37.515871710886906,대한민국,KOR,KOR,인천광역시,부평구,,청천동,,세월천로30번길,58,176-4,2022-05-01 12:37:48,교육||아동교육||병설유치원,False
16857,16858,269266,포도나무어린이집,,Vine Nursery,Education,Other Education,126.67312145276492,37.41515948848375,대한민국,KOR,KOR,인천광역시,연수구,,동춘동,,동곡재로,23,1115-2,2022-08-18 12:00:50,교육||아동교육||어린이집||어린이집-일반,False
16877,16878,5890713,엄마사랑어린이집,,mother love nursery,Education,Other Education,126.73390723245728,37.509912596704005,대한민국,KOR,KOR,인천광역시,부평구,,삼산동,,체육관로,27,453-1,2022-05-01 12:37:48,교육||아동교육||어린이집||어린이집-일반,False
16903,16904,5864402,에벤에셀어린이집,,Ebenezer Nursery School,Education,Other Education,126.70680055757578,37.5134389203478,대한민국,KOR,KOR,인천광역시,부평구,,청천동,,세월천로,16,176,2021-12-23 15:49:18,교육||아동교육||어린이집||어린이집-일반,False
17280,17281,1255848,비둘기어린이집,,Pigeon Nursery,Education,Other Education,126.61978460839784,37.47673570820746,대한민국,KOR,KOR,인천광역시,중구,,북성동3가,,자유공원서로29번길,3-19,3-22,2022-05-18 1:17:09,교육||아동교육||어린이집||국공립어린이집,False
17282,17283,5899754,인천용학초등학교 병설유치원,,Incheon Yonghak Elementary School  Auxiliary Kindergarten,Education,Other Education,126.64353559966789,37.44678890072005,대한민국,KOR,KOR,인천광역시,미추홀구,,용현동,,용정공원로83번길,9,664-4,2022-05-01 12:37:48,교육||아동교육||병설유치원,False
17369,17370,6203170,다빈치어린이집,,Da Vinci Nursery School,Education,Other Education,126.71737169999996,37.45262959999978,대한민국,KOR,KOR,인천광역시,남동구,,구월동,,호구포로,803,24,2022-05-01 12:37:48,교육||아동교육||어린이집||어린이집-일반,False
17544,17545,5897313,꼬마캐슬어린이집,,Little Castle Nursery,Education,Other Education,126.66594332347894,37.387848834466155,대한민국,KOR,KOR,인천광역시,연수구,,송도동,,송도과학로27번길,55,149,2022-08-12 13:15:03,교육||아동교육||어린이집||어린이집-일반,False
17574,17575,3129443,줄리어드 뮤직허브 음악학원,,Juilliard Music Hub Conservatory of Music,Education,Other Education,126.65222599999996,37.426272999999775,대한민국,KOR,KOR,인천광역시,연수구,,옥련동,,옥련로99번길,42,640-2,2018-09-18 15:00:00,교육||학원||음악학원||음악학원-일반,False
17604,17605,2152854,큰사랑어린이집,가야어린이집,big love nursery,Education,Other Education,126.73691005955996,37.5275333395354,대한민국,KOR,KOR,인천광역시,계양구,,작전동,,효서로364번길,3,635-14,2021-12-23 15:49:18,교육||아동교육||어린이집||어린이집-일반,False
17661,17662,5904118,인천경명초등학교병설유치원, ,Incheon Gyeongmyeong Elementary School Auxiliary Kindergarten,Education,Other Education,126.63735540010184,37.5368201998292,대한민국,KOR,KOR,인천광역시,서구,,청라동,,크리스탈로,130,139-2,2018-12-03 20:39:12,교육||아동교육||유치원,False
17975,17976,5887523,칼비테어린이집,,Calvite Nursery School,Education,Other Education,126.66756699999996,37.424437299999774,대한민국,KOR,KOR,인천광역시,연수구,,청학동,,솔샘로,20,448-1,,교육||아동교육||어린이집||어린이집-일반,False
18116,18117,5902716,그린숲어린이집,,Green Forest Nursery School,Education,Other Education,126.6660448894729,37.5265543110284,대한민국,KOR,KOR,인천광역시,서구,,가정동,,봉오재3로,66,610-1,2021-12-23 15:49:18,교육||아동교육||어린이집||어린이집-일반,False
18218,18219,551,도담쁘띠어린이집,,Dodam Petit Nursery School,Education,Other Education,126.69860645626488,37.47134341684189,대한민국,KOR,KOR,인천광역시,부평구,,십정동,,배곶로20번길,21-9,315-49,2022-08-18 12:00:50,교육||아동교육||어린이집||어린이집-일반,False
18339,18340,5894242,호반사랑어린이집, ,Hoban Love Nursery School,Education,Other Education,126.63721910011186,37.527488100374896,대한민국,KOR,KOR,인천광역시,서구,,청라동,,청라커낼로,163,173-1,2021-12-23 15:49:18,교육||아동교육||어린이집||어린이집-일반,False
18565,18566,27069984,명문학원,,prestigious school,Education,Other Education,126.64497163280988,37.532078233833296,대한민국,KOR,KOR,인천광역시,서구,,청라동,,청라커낼로,264,157-14,2022-08-16 16:52:33,교육||학원||보습학원,False
18580,18581,5672745,삼성영어 인동초교실,,Samsung English Indong Elementary School,Education,Other Education,126.72548262210388,37.46311690167149,대한민국,KOR,KOR,인천광역시,남동구,,만수동,,백범로226번길,63,844-61,2019-11-14 23:28:26,교육||학원||어학원||영어학원||삼성영어,False
18734,18735,3242386,가림초등학교병설유치원,인천가림초등학교병설유치원,Kindergarten attached to Garim Elementary School,Education,Other Education,126.68089849379288,37.490682455838,대한민국,KOR,KOR,인천광역시,서구,,가좌동,,장고개로293번길,29,231,2021-12-23 15:49:18,교육||아동교육||병설유치원,False
18894,18895,4360271,봄온어린이집,,Spring On Nursery,Education,Other Education,126.72528617188492,37.5348779191956,대한민국,KOR,KOR,인천광역시,계양구,,작전동,,계양대로120번길,25-3,856-48,2022-05-01 12:37:48,교육||아동교육||어린이집||어린이집-일반,False
18920,18921,741982,동진유치원,,Dongjin Kindergarten,Education,Other Education,126.67927903966388,37.49296995982839,대한민국,KOR,KOR,인천광역시,서구,,가좌동,,신진말로,32-1,212-4,2021-12-23 15:49:18,교육||아동교육||유치원,False
19147,19148,20199538,부평4동어린이집,국공립부평4동어린이집,Bupyeong 4-dong Day care Center,Education,Other Education,126.72874530367848,37.50216809600749,대한민국,KOR,KOR,인천광역시,부평구,,부평동,,부흥북로57번길,20,10-1209,2022-05-01 12:37:48,교육||아동교육||어린이집||국공립어린이집,False
19204,19205,27098722,J&J 스터디 J&J어학원,,J&J Study J&J Language School,Education,Other Education,126.69697597651088,37.593923837871806,대한민국,KOR,KOR,인천광역시,서구,,원당동,,원당대로,859,824-8,2022-08-16 16:52:33,교육||학원||입시학원||입시학원-일반,False
19257,19258,5890172,재롱이어린이집,,Jaerongi Nursery School,Education,Other Education,126.67098369344296,37.40178010616155,대한민국,KOR,KOR,인천광역시,연수구,,동춘동,,원인재로,14,931,2021-12-23 15:49:18,교육||아동교육||어린이집||어린이집-일반,False
19270,19271,1872012,좋은나무학원,,good tree school,Education,Other Education,126.69919351312087,37.5262575077192,대한민국,KOR,KOR,인천광역시,계양구,,효성동,,새풀로,30,553-10,2022-08-18 12:00:50,교육||학원||보습학원,False
19332,19333,3122969,더퍼스트어학원,글로벌어학원,The First Language School,Education,Other Education,126.68205309999996,37.4637759999998,대한민국,KOR,KOR,인천광역시,미추홀구,,주안동,,주안로,112,133-3,2022-08-24 14:41:06,교육||학원||어학원||영어학원||영어학원-일반,False
19360,19361,5895272,사랑어린이집,,love nursery,Education,Other Education,126.73179999999996,37.57938329999984,대한민국,KOR,KOR,인천광역시,계양구,,장기동,,황어로115번길,13,131-10,2022-05-01 12:37:48,교육||아동교육||어린이집||어린이집-일반,False
19414,19415,5890693,솜사탕어린이집,,Cotton Candy Nursery,Education,Other Education,126.6573294287574,37.440734856703536,대한민국,KOR,KOR,인천광역시,미추홀구,,학익동,,매소홀로,340,721,2021-12-23 15:49:18,교육||아동교육||어린이집||어린이집-일반,False
19475,19476,5894858,아트윈도담어린이집,,Art Window Dam Nursery School,Education,Other Education,126.63165279999994,37.39285109999977,대한민국,KOR,KOR,인천광역시,연수구,,송도동,,인천타워대로,253-25,33-1,,교육||아동교육||어린이집||어린이집-일반,False
19482,19483,4346937,푸른아이어린이집,,Blue Child Nursery,Education,Other Education,126.7085215534497,37.50721912128954,대한민국,KOR,KOR,인천광역시,부평구,,산곡동,,안남로,269,510,2021-12-23 15:49:18,교육||아동교육||어린이집||어린이집-일반,False
19522,19523,5878925,신나는삐아제어린이집,,Exciting Piaget Nursery School,Education,Other Education,126.7373758875182,37.51540059612447,대한민국,KOR,KOR,인천광역시,부평구,,삼산동,,수변로,333,445-5,2019-12-27 15:48:06,교육||아동교육||어린이집||어린이집-일반,False
19693,19694,5878878,호반놀이스쿨어린이집, ,Hoban Play School Nursery School,Education,Other Education,126.65302879955387,37.53710460040179,대한민국,KOR,KOR,인천광역시,서구,,청라동,,청라라임로,109,116-6,2022-05-01 12:37:48,교육||아동교육||어린이집||어린이집-일반,False
19740,19741,213013,은빛나무어린이집,,Silver Tree Nursery,Education,Other Education,126.6641557696939,37.428697683869856,대한민국,KOR,KOR,인천광역시,연수구,,청학동,,청학로16번길,9,529-9,2022-08-18 12:00:50,교육||아동교육||어린이집||국공립어린이집,False
19838,19839,20270988,인천도배기술교육학원,,Incheon Dobae Technical Education Institute,Education,Other Education,126.72458429999998,37.460015699999786,대한민국,KOR,KOR,인천광역시,남동구,,만수동,,백범로,221,898-2,2022-06-07 17:23:36,"교육||학원||직업,기술학원||직업,기술학원-일반",False
19873,19874,20088754,푸른꿈어린이집,,Blue Dream Nursery School,Education,Other Education,126.69083622367164,37.59189536354613,대한민국,KOR,KOR,인천광역시,서구,,당하동,,원당대로820번2길,10,1023,2021-12-23 15:49:18,교육||아동교육||어린이집||어린이집-일반,False
19902,19903,27132780,솔로몬 영재학원,솔로몬영재학원,Solomon gifted school,Education,Other Education,126.66212589424588,37.59969402976912,대한민국,KOR,KOR,인천광역시,서구,,왕길동,,완정로117번길,8,674-2,2022-08-16 16:52:33,교육||학원||보습학원,False
20203,20204,5724358,바흐음악학원,,Bach School of Music,Education,Other Education,126.69288573244788,37.446729334934176,대한민국,KOR,KOR,인천광역시,미추홀구,,관교동,,인하로406번길,3,320-4,2019-11-14 0:00:00,교육||학원||음악학원||음악학원-일반,False
20503,20504,3241773,계양초등학교 상야분교장병설유치원,인천계양초등학교상야분교장병설유치원,Gyeyang Elementary School Sangya Branch Principal Affiliated Kindergarten,Education,Other Education,126.78033494495196,37.579147559043925,대한민국,KOR,KOR,인천광역시,계양구,,상야동,,벌말로,572-1,130-1,2022-05-01 12:37:48,교육||아동교육||병설유치원,False
20570,20571,27138306,Premium YBM 잉글루 루원시티 어학원 1관,,Premium YBM Ingloo Luwon City Language School Building 1,Education,Other Education,126.6699410999999,37.52283079999981,대한민국,KOR,KOR,인천광역시,서구,,가정동,,가정로,437,573,2022-08-30 9:43:30,교육||학원||어학원||영어학원||YBM잉글루,False
20635,20636,5871190,사과나무어린이집,,Apple Tree Nursery,Education,Other Education,126.74209599999992,37.531412399999766,대한민국,KOR,KOR,인천광역시,계양구,,작전동,,도두리로,74,912-5,2020-05-26 0:00:00,교육||아동교육||어린이집||어린이집-일반,False
20693,20694,2598675,삼산군립어린이집,삼산어린이집,Samsan County Day care Center,Education,Other Education,126.34588229999969,37.66845489999988,대한민국,KOR,KOR,인천광역시,강화군,,삼산면,매음리,삼산남로,498-6,331-2,2022-05-01 12:37:48,교육||아동교육||어린이집||국공립어린이집,False
20707,20708,5861710,행복담은어린이집,,Happy Kindergarten,Education,Other Education,126.6722922920559,37.42445178522125,대한민국,KOR,KOR,인천광역시,연수구,,연수동,,새말로,6,537,2021-12-23 15:49:18,교육||아동교육||어린이집||어린이집-일반,False
20762,20763,5904828,이소어린이집,,Leeso Nursery,Education,Other Education,126.67371240047088,37.59657560028512,대한민국,KOR,KOR,인천광역시,서구,,마전동,,완정로64번길,68,1006-14,2021-12-23 15:49:18,교육||아동교육||어린이집||어린이집-일반,False
21239,21240,5863086,통통따따어린이집,,Tong Tong Tata Nursery School,Education,Other Education,126.73861300043195,37.4893113013597,대한민국,KOR,KOR,인천광역시,부평구,,부개동,,부일로,69,512,2019-06-19 23:00:41,교육||아동교육||어린이집||어린이집-일반,False
21259,21260,27182993,음악속 아이들 음악학원,,Children in music music school,Education,Other Education,126.7138595954179,37.5024150246555,대한민국,KOR,KOR,인천광역시,부평구,,산곡동,,부영로189번길,36,281-53,2022-08-26 9:52:19,교육||학원||음악학원||음악학원-일반,False
21333,21334,637042,미주유치원,,America Kindergarten,Education,Other Education,126.6866057176189,37.4671036838112,대한민국,KOR,KOR,인천광역시,미추홀구,,주안동,,석정로461번길,19,19-42,2022-08-18 12:00:50,교육||아동교육||유치원,False
21339,21340,6143747,인천아라꿈유치원,검단1유치원(2021년9월예정),Incheon Arakum Kindergarten,Education,Other Education,126.70283258295456,37.58422801065546,대한민국,KOR,KOR,인천광역시,서구,,당하동,,서로2로,28,산42-2,2022-07-05 16:31:26,교육||아동교육||유치원,False
21352,21353,5868454,뜰안에어린이집,,nursery in the yard,Education,Other Education,126.73043249999988,37.51120439999979,대한민국,KOR,KOR,인천광역시,부평구,,갈산동,,갈월동로,40,369,2022-08-16 16:52:33,교육||아동교육||어린이집||어린이집-일반,False
21696,21697,5891336,엘림어린이집,,Elim Nursery,Education,Other Education,126.67529021320549,37.401182172724646,대한민국,KOR,KOR,인천광역시,연수구,,동춘동,,경원대로119번길,21,929,2022-08-16 16:52:33,교육||아동교육||어린이집||어린이집-일반,False
21819,21820,27118970,인천기술사학원,,Incheon Institute of Technology History,Education,Other Education,126.71696404955588,37.50510888636919,대한민국,KOR,KOR,인천광역시,부평구,,부평동,,길주로494번길,57,799-35,2022-08-16 16:52:33,교육||학원||학원-일반,False
21891,21892,485201,꼬마별어린이집,,Little Star Nursery,Education,Other Education,126.63213337266684,37.48296220188817,대한민국,KOR,KOR,인천광역시,동구,,화수동,,화수로47번길,13,274-5,2021-12-23 15:49:18,교육||아동교육||어린이집||어린이집-일반,False
21900,21901,5895567,보물단지어린이집, ,Treasure Complex Nursery School,Education,Other Education,126.65669723918904,37.5372223308782,대한민국,KOR,KOR,인천광역시,서구,,청라동,,청라에메랄드로,134,130-4,2022-05-01 12:37:48,교육||아동교육||어린이집||어린이집-일반,False
22054,22055,324159,시엘자동차운전전문학원,시엘자동차운전학원,Ciel Motor Driving School,Education,Other Education,126.65270519999994,37.446220199999765,대한민국,KOR,KOR,인천광역시,미추홀구,,용현동,,소성로,34,286-7,2022-08-19 9:48:28,"교육||학원||직업,기술학원||운전학원",False
22087,22088,5902376,주원초등학교병설유치원,주원초교병설유치원,Kindergarten attached to Juwon Elementary School,Education,Other Education,126.7004522441469,37.46471673786856,대한민국,KOR,KOR,인천광역시,남동구,,간석동,,주안로259번길,28,379-1,2022-05-01 12:37:48,교육||아동교육||병설유치원,False
22146,22147,5868585,푸른솔어린이집,,Bluesol Nursery School,Education,Other Education,126.65201500321731,37.6041505103265,대한민국,KOR,KOR,인천광역시,서구,,금곡동,,완정로216번길,5,726-8,2021-12-23 15:49:18,교육||아동교육||어린이집||어린이집-일반,False
22194,22195,106609,백합어린이집,,Lily Nursery,Education,Other Education,126.65248693084992,37.47928461046988,대한민국,KOR,KOR,인천광역시,동구,,송림동,,봉수대로7번길,6,3,2022-05-01 12:37:48,교육||아동교육||어린이집||국공립어린이집,False
22234,22235,71228,엠마누엘어린이집,엠마뉴엘어린이집,Emmanuel Nursery School,Education,Other Education,126.72412919614992,37.486180073531486,대한민국,KOR,KOR,인천광역시,부평구,,부평동,,육동로7번길,8,657-30,2022-05-01 12:37:48,교육||아동교육||어린이집||어린이집-일반,False
22410,22411,830726,해나라어린이집,관인해나라어린이집,Haenara Nursery School,Education,Other Education,126.6578697530649,37.438919547760655,대한민국,KOR,KOR,인천광역시,미추홀구,,학익동,,한나루로357번길,63-54,706-11,2021-12-23 15:49:18,교육||아동교육||어린이집||어린이집-일반,False
22574,22575,1246537,새예지유치원,,Saeyeji Kindergarten,Education,Other Education,126.71499584395036,37.45389066274415,대한민국,KOR,KOR,인천광역시,남동구,,구월동,,용천로,50,24,2022-09-06 15:18:26,교육||아동교육||유치원,False
22617,22618,5887050,해나라어린이집,,Haenara Nursery School,Education,Other Education,126.73868536983782,37.52915290348033,대한민국,KOR,KOR,인천광역시,계양구,,작전동,,효서로,381,580,2020-02-11 17:15:25,교육||아동교육||어린이집||어린이집-일반,False
22642,22643,3134564,레인보우어학원,,Rainbow Language School,Education,Other Education,126.73545110078494,37.50763154338743,대한민국,KOR,KOR,인천광역시,부평구,,삼산동,,충선로203번길,16,460-7,2019-11-14 23:29:26,교육||학원||어학원||어학원-일반,False
22810,22811,5874820,인천신현북초등학교 병설유치원,,Incheon Shinhyeonbuk Elementary School  Auxiliary Kindergarten,Education,Other Education,126.66625550768693,37.518740109623394,대한민국,KOR,KOR,인천광역시,서구,,신현동,,원창로,147,85-1,2022-05-01 12:37:48,교육||아동교육||병설유치원,False
22852,22853,5890948,귀여운어린이집,,cute nursery,Education,Other Education,126.71000870352772,37.50236270884557,대한민국,KOR,KOR,인천광역시,부평구,,산곡동,,안남로222번길,30,274,2022-05-01 12:37:48,교육||아동교육||어린이집||어린이집-일반,False
22898,22899,27082875,백강누수탐지기술학원,,Baekgang Leak Detection Technology Institute,Education,Other Education,126.6728645851109,37.46434950043808,대한민국,KOR,KOR,인천광역시,미추홀구,,도화동,,주안로,29,557-1,2022-08-24 14:41:06,"교육||학원||직업,기술학원||기술학원",False
22940,22941,3611644,튼튼어린이집,,strong nursery,Education,Other Education,126.73967681608394,37.55043959805021,대한민국,KOR,KOR,인천광역시,계양구,,방축동,,화산로66번길,2,177,2021-12-23 15:49:18,교육||아동교육||어린이집||어린이집-일반,False
23117,23118,2154361,예인아트어린이집,,Yein Art Nursery,Education,Other Education,126.67476365238387,37.4628408529374,대한민국,KOR,KOR,인천광역시,미추홀구,,도화동,,주안로50번길,30,409-3,2022-08-18 12:00:50,교육||아동교육||어린이집||어린이집-일반,False
23268,23269,5881533,라온어린이집,,Raon Nursery School,Education,Other Education,126.65020189999994,37.42382849999978,대한민국,KOR,KOR,인천광역시,연수구,,옥련동,,청량로199번길,29,642-1,,교육||아동교육||어린이집||어린이집-일반,False
23319,23320,5870554,다사랑어린이집,,Dasarang Nursery School,Education,Other Education,126.6879309835063,37.61602518909076,대한민국,KOR,KOR,인천광역시,서구,,불로동,,검단로,788,316-1,2020-03-12 17:36:50,교육||아동교육||어린이집||어린이집-일반,False
23333,23334,3131291,별마로어린이집,,Byeolmaro Nursery School,Education,Other Education,126.6611000003399,37.47559170006657,대한민국,KOR,KOR,인천광역시,미추홀구,,도화동,,염전로202번길,49,992-3,2022-05-01 12:37:48,교육||아동교육||어린이집||국공립어린이집,False
23511,23512,3134916,하늘숲어린이집,,Sky Forest Nursery School,Education,Other Education,126.53563596028972,37.49789394325176,대한민국,KOR,KOR,인천광역시,중구,,운남동,,운남로223번길,10-10,476-11,2022-08-16 16:52:33,교육||아동교육||어린이집||어린이집-일반,False
23573,23574,1263376,부평3동어린이집,,Bupyeong 3-dong Day care Center,Education,Other Education,126.7102671172199,37.4876532837764,대한민국,KOR,KOR,인천광역시,부평구,,부평동,,신촌로,47-7,283-66,2021-12-23 15:49:18,교육||아동교육||어린이집||국공립어린이집,False
23716,23717,27183098,송도클로버수학과학교육학원,,Songdo Clover Mathematics and Education Institute,Education,Other Education,126.64730869999994,37.39741469999976,대한민국,KOR,KOR,인천광역시,연수구,,송도동,,신송로,165-14,21-4,2022-09-06 15:18:26,교육||학원||수학학원||수학학원-일반,False
23732,23733,4356795,한우리어린이집,,Hanwoori Nursery,Education,Other Education,126.68759669999996,37.446211699999786,대한민국,KOR,KOR,인천광역시,미추홀구,,관교동,,,,566-3,2018-08-11 9:09:09,교육||아동교육||어린이집||어린이집-일반,False
23768,23769,3899173,주사랑어린이집,,Jusarang Nursery School,Education,Other Education,126.71629320053088,37.506855200131085,대한민국,KOR,KOR,인천광역시,부평구,,청천동,,길주로494번길,12,259,2022-05-01 12:37:48,교육||아동교육||어린이집||어린이집-일반,False
24115,24116,1871227,명문유치원,,prestigious kindergarten,Education,Other Education,126.70186628719588,37.59434454928925,대한민국,KOR,KOR,인천광역시,서구,,원당동,,고산로,16,853-3,2021-12-23 15:49:18,교육||아동교육||유치원,False
24142,24143,5888928,꿈꾸는나무어린이집,,Dream Tree Nursery,Education,Other Education,126.74451701432343,37.483125038738166,대한민국,KOR,KOR,인천광역시,부평구,,일신동,,일신로14번길,23,409,2021-12-23 15:49:18,교육||아동교육||어린이집||어린이집-일반,False
24153,24154,3242569,부일초등학교병설유치원,인천부일초등학교병설유치원,Kindergarten attached to Buil Elementary School,Education,Other Education,126.74141170364496,37.5010846075859,대한민국,KOR,KOR,인천광역시,부평구,,부개동,,부흥북로,175,499-8,2019-12-09 10:50:24,교육||아동교육||병설유치원,False
24156,24157,27424466,Premium YBM 잉글루 루원시티 어학원 2관,,Premium YBM Ingloo Luwon City Language School Building 2,Education,Other Education,126.66987929999992,37.5229669999998,대한민국,KOR,KOR,인천광역시,서구,,가정동,,가정로,437,476-30,2022-08-30 9:43:30,교육||학원||어학원||영어학원||YBM잉글루,False
24223,24224,3441360,인천금마초등학교병설유치원,인천금마초등학교병설유치원,Incheon Geumma Elementary School Attached Kindergarten,Education,Other Education,126.74934166084596,37.4786323479581,대한민국,KOR,KOR,인천광역시,부평구,,구산동,,일신로,88,357,2022-05-01 12:37:48,교육||아동교육||병설유치원,False
24224,24225,5876272,예나어린이집,,Jena Nursery,Education,Other Education,126.74989329999995,37.57003839999983,대한민국,KOR,KOR,인천광역시,계양구,,귤현동,,장군봉길,12,489,,교육||아동교육||어린이집||어린이집-일반,False
24234,24235,451542,세계로학원,,world road school,Education,Other Education,126.71076729824088,37.53241243845841,대한민국,KOR,KOR,인천광역시,계양구,,효성동,,안남로554번길,1,60-7,2022-08-12 13:15:03,교육||학원||보습학원,False
24332,24333,4341294,예림유치원,,Yerim Kindergarten,Education,Other Education,126.71479909999992,37.525742899999806,대한민국,KOR,KOR,인천광역시,계양구,,효성동,,아나지로,199,238-1,2018-09-18 15:00:00,교육||아동교육||유치원,False
24454,24455,27119691,와이엔 & 정글어학원,,Yen & Jungle Language School,Education,Other Education,126.73861282400496,37.53838972789283,대한민국,KOR,KOR,인천광역시,계양구,,용종동,,오조산로,83,211-3,2022-08-16 16:52:33,교육||학원||어학원||영어학원||영어학원-일반,False
24474,24475,5904120,인천첨단초등학교병설유치원,인천첨단초교병설유치원,Incheon Advanced Elementary School Auxiliary Kindergarten,Education,Other Education,126.65492979958488,37.37319766323844,대한민국,KOR,KOR,인천광역시,연수구,,송도동,,송도교육로,20,192-3,2020-01-14 23:29:18,교육||아동교육||병설유치원,False
24651,24652,1256348,꿈사랑어린이집,,Dream Love Nursery,Education,Other Education,126.71772499999292,37.403454999871045,대한민국,KOR,KOR,인천광역시,남동구,,논현동,,논현로,105,633-1,2022-05-01 12:37:48,교육||아동교육||어린이집||국공립어린이집,False
24691,24692,5885171,꿈동산어린이집,,Dream Garden Nursery School,Education,Other Education,126.74305595467033,37.53630885476147,대한민국,KOR,KOR,인천광역시,계양구,,계산동,,용종로,26,1085-2,2021-12-23 15:49:18,교육||아동교육||어린이집||어린이집-일반,False
24805,24806,661411,이하오중국어학원,,Lee Hao Chinese Language School,Education,Other Education,126.48873919832468,37.74785598139704,대한민국,KOR,KOR,인천광역시,강화군,,강화읍,관청리,동문안길20번길,19-10,215,2020-06-15 0:00:00,교육||학원||어학원||중국어학원||중국어학원-일반,False
24948,24949,27160179,EiE어학원 인천계양캠퍼스,,EiE Language School Incheon Gyeyang Campus,Education,Other Education,126.73807728499492,37.53479593670502,대한민국,KOR,KOR,인천광역시,계양구,,계산동,,오조산로45번길,3,1083-9,2022-08-08 10:29:42,교육||학원||어학원||영어학원||EiE어학원,False
25007,25008,415457,송림초등학교병설유치원,인천송림초등학교병설유치원,Kindergarten attached to Songlim Elementary School,Education,Other Education,126.63791743621684,37.47398896514868,대한민국,KOR,KOR,인천광역시,동구,,송림동,,화도진로,10,235-1,2020-01-14 23:41:02,교육||아동교육||병설유치원,False
25109,25110,5862935,토마토어린이집,,Tomato Nursery,Education,Other Education,126.650301466639,37.48042703496871,대한민국,KOR,KOR,인천광역시,동구,,송림동,,송향로,31,341,2022-08-16 16:52:33,교육||아동교육||어린이집||어린이집-일반,False
25162,25163,4329943,인천구월유치원,구월유치원,Incheon Guwol Kindergarten,Education,Other Education,126.71584656390291,37.44266678089758,대한민국,KOR,KOR,인천광역시,남동구,,구월동,,인하로,622,1520,2022-05-01 12:37:48,교육||아동교육||유치원,False
25251,25252,5888529,하은어린이집,,Haeun Nursery School,Education,Other Education,126.68468253914274,37.491476981573385,대한민국,KOR,KOR,인천광역시,서구,,가좌동,,장고개로309번길,24,30-4,2022-05-01 12:37:48,교육||아동교육||어린이집||어린이집-일반,False
25267,25268,5878896,갑룡초등학교 병설유치원,,Gapryong Elementary School  Auxiliary Kindergarten,Education,Other Education,126.50360789999988,37.7432407999999,대한민국,KOR,KOR,인천광역시,강화군,,강화읍,갑곳리,갑룡길,88,435,2022-05-01 12:37:48,교육||아동교육||병설유치원,False
25296,25297,5904238,꾸미어린이집,,Decorating Nursery,Education,Other Education,126.66224719999995,37.4740635999998,대한민국,KOR,KOR,인천광역시,미추홀구,,도화동,,숙골로112번길,11,1004,2022-05-01 12:37:48,교육||아동교육||어린이집||어린이집-일반,False
25313,25314,3273249,신석에듀스쿨어린이집,,Shinseok Edu School Day care Center,Education,Other Education,126.66827126049589,37.511410961034194,대한민국,KOR,KOR,인천광역시,서구,,석남동,,염곡로,297-1,171-8,2021-12-23 15:49:18,교육||아동교육||어린이집||어린이집-일반,False
25424,25425,5862416,별아어린이집,,Byeol Child Nursery,Education,Other Education,126.72711223005072,37.526636715892735,대한민국,KOR,KOR,인천광역시,계양구,,작전동,,주부토로363번길,27,388-2,2020-01-16 17:01:51,교육||아동교육||어린이집||어린이집-일반,False
25452,25453,847242,숙명차일드스쿨어린이집,별님어린이집,Sookmyung Child School Day care Center,Education,Other Education,126.72649136295792,37.539613358542816,대한민국,KOR,KOR,인천광역시,계양구,,계산동,,주부토로501번길,18,963-19,2022-08-18 12:00:50,교육||아동교육||어린이집||어린이집-일반,False
25480,25481,5863970,아기별어린이집,,Baby Star Nursery,Education,Other Education,126.7174979097323,37.5263728072524,대한민국,KOR,KOR,인천광역시,계양구,,효성동,,새벌로112번길,12,200-1,2021-12-23 15:49:18,교육||아동교육||어린이집||어린이집-일반,False
25707,25708,54221,한빛유치원,,Hanbit Kindergarten,Education,Other Education,126.73438619999997,37.44142289999979,대한민국,KOR,KOR,인천광역시,남동구,,만수동,,담방로21번길,61,1044,2021-12-23 15:49:18,교육||아동교육||유치원,False
25768,25769,1115723,큰원어린이집,,Keunwon Nursery School,Education,Other Education,126.65686906413087,37.45894430193347,대한민국,KOR,KOR,인천광역시,미추홀구,,용현동,,독정안길,21,456-110,2021-12-23 15:49:18,교육||아동교육||어린이집||어린이집-일반,False
25838,25839,5904673,아이꿈터어린이집,,Child Dream Nursery,Education,Other Education,126.63707210108473,37.449938469404415,대한민국,KOR,KOR,인천광역시,미추홀구,,용현동,,낙섬중로,20,627-78,2020-06-05 0:00:00,교육||아동교육||어린이집||어린이집-일반,False
25917,25918,932714,숭의어린이집,,Sungui Nursery School,Education,Other Education,126.65850917561988,37.46061091223906,대한민국,KOR,KOR,인천광역시,미추홀구,,숭의동,,수봉로,68,15-17,2022-08-18 12:00:50,교육||아동교육||어린이집||어린이집-일반,False
25962,25963,5882774,이솝어린이집,,Aesop Nursery School,Education,Other Education,126.67828059999992,37.58774379999984,대한민국,KOR,KOR,인천광역시,서구,,당하동,,청마로,124,1113-1,2022-05-01 12:37:48,교육||아동교육||어린이집||어린이집-일반,False
25993,25994,1261292,SNU 수학과학 학원,,SNU Mathematics Graduate,Education,Other Education,126.74829925713514,37.425932053040206,대한민국,KOR,KOR,인천광역시,남동구,,서창동,,서창남로,77,686-3,2022-08-12 13:15:03,교육||학원||수학학원||수학학원-일반,False
26124,26125,5888875,꿈동이어린이집,,Dream Dream Nursery,Education,Other Education,126.71341538441692,37.45407016829946,대한민국,KOR,KOR,인천광역시,남동구,,구월동,,구월로,192,23,2022-06-29 11:25:35,교육||아동교육||어린이집||어린이집-일반,False
26267,26268,20202274,유엔유치원,,UN Kindergarten,Education,Other Education,126.61773606525284,37.40918673978653,대한민국,KOR,KOR,인천광역시,연수구,,송도동,,랜드마크로,113,319-1,2021-12-23 15:49:18,교육||아동교육||유치원,False
26342,26343,5864248,사랑나무어린이집,,Love Tree Nursery,Education,Other Education,126.71216096707644,37.41104150749473,대한민국,KOR,KOR,인천광역시,남동구,,논현동,,함박뫼로,439,563-3,2021-12-23 15:49:18,교육||아동교육||어린이집||어린이집-일반,False
26388,26389,343996,근산유치원,,Geunsan Kindergarten,Education,Other Education,126.74492449999995,37.52125979999981,대한민국,KOR,KOR,인천광역시,부평구,,삼산동,,영성중로,53,389-10,2022-08-18 12:00:50,교육||아동교육||유치원,False
26467,26468,3241915,도림초등학교병설유치원,인천도림초등학교병설유치원,Kindergarten attached to Dorim Elementary School,Education,Other Education,126.73189035586147,37.419210149578234,대한민국,KOR,KOR,인천광역시,남동구,,도림동,,논고개로334번길,21,629-2,2022-05-01 12:37:48,교육||아동교육||병설유치원,False
26734,26735,5865397,솔바람어린이집,,Solbaram Nursery School,Education,Other Education,126.707942678432,37.50281784469497,대한민국,KOR,KOR,인천광역시,부평구,,산곡동,,마장로272번길,89,145,2022-08-18 12:00:50,교육||아동교육||어린이집||어린이집-일반,False
26795,26796,1048529,푸른솔어린이집,,Bluesol Nursery School,Education,Other Education,126.6527423006199,37.39164275010146,대한민국,KOR,KOR,인천광역시,연수구,,송도동,,해돋이로84번길,29,3-13,2022-08-18 12:00:50,교육||아동교육||어린이집||어린이집-일반,False
26808,26809,3242682,연평초등학교 병설유치원,인천연평초등학교병설유치원,Yeonpyeong Elementary School  Auxiliary Kindergarten,Education,Other Education,125.70126389999707,37.66422499999982,대한민국,KOR,KOR,인천광역시,옹진군,,연평면,연평리,연평로137번길,101,437-1,2021-12-23 15:49:18,교육||아동교육||병설유치원,False
26902,26903,5855742,푸른정원어린이집,,Blue Garden Nursery School,Education,Other Education,126.71242119322766,37.53492493572698,대한민국,KOR,KOR,인천광역시,계양구,,효성동,,안남로572번길,17,24-3,2022-08-08 10:29:42,교육||아동교육||어린이집||어린이집-일반,False
26966,26967,27071723,SELS어학원 센트럴본점,,SELS Language School Central Main Branch,Education,Other Education,126.63914589999985,37.39630809999974,대한민국,KOR,KOR,인천광역시,연수구,,송도동,,센트럴로,232,23-3,2022-05-01 12:37:48,교육||학원||어학원||영어학원||영어학원-일반,False
27048,27049,5885579,예그린어린이집,,Yegreen Nursery School,Education,Other Education,126.69305919999992,37.59333809999984,대한민국,KOR,KOR,인천광역시,서구,,당하동,,원당대로820번길,3,1027-3,,교육||아동교육||어린이집||어린이집-일반,False
27191,27192,27155864,영어집중력기억법학원,,English Concentration Memory Law School,Education,Other Education,126.73189179999991,37.51718759999981,대한민국,KOR,KOR,인천광역시,부평구,,갈산동,,,,348-33,2022-05-01 12:37:48,교육||학원||어학원||영어학원||영어학원-일반,False
27264,27265,5694330,그루터기 어린이집,,stump nursery,Education,Other Education,126.67672708230188,37.46604975861348,대한민국,KOR,KOR,인천광역시,미추홀구,,주안동,,염창로,25,26-42,2022-05-01 12:37:48,교육||아동교육||어린이집||어린이집-일반,False
27304,27305,27329924,일등학원,,first class,Education,Other Education,126.71259949999988,37.59390279999983,대한민국,KOR,KOR,인천광역시,서구,,원당동,,이음대로,378,468,2022-08-30 9:43:30,교육||학원||보습학원,False
27377,27378,1266122,꿈의보람유치원,,Dream Fun Kindergarten,Education,Other Education,126.71751298314688,37.45181301337417,대한민국,KOR,KOR,인천광역시,남동구,,구월동,,인주대로721번길,56,1238,2021-12-23 15:49:18,교육||아동교육||유치원,False
27443,27444,671762,구립갈매기어린이집,,Gugu Seagull Nursery School,Education,Other Education,126.63842720008488,37.46745144955008,대한민국,KOR,KOR,인천광역시,중구,,도원동,,도산로,21,71-20,2022-05-01 12:37:48,교육||아동교육||어린이집||국공립어린이집,False
27508,27509,4346473,예빛유치원,,Yebit Kindergarten,Education,Other Education,126.65628755247188,37.55558034011639,대한민국,KOR,KOR,인천광역시,서구,,경서동,,경서로32번길,18,765-2,2021-12-23 15:49:18,교육||아동교육||유치원,False
27531,27532,27135234,용수학,,arithmetic,Education,Other Education,126.68656718136688,37.612893151074935,대한민국,KOR,KOR,인천광역시,서구,,불로동,,검단로768번길,14,791-3,2022-08-12 13:15:03,교육||학원||수학학원||수학학원-일반,False
27625,27626,71507,한울유치원,,Hanul Kindergarten,Education,Other Education,126.67624052617988,37.58877015804852,대한민국,KOR,KOR,인천광역시,서구,,당하동,,서곶로,818,895-1,2022-08-24 14:41:06,교육||아동교육||유치원,False
27702,27703,26995747,인천영종A67블록아파트 어린이집,,Incheon Yeongjong A67 Block Apartment Day care Center,Education,Other Education,126.56775785920583,37.50203511615118,대한민국,KOR,KOR,인천광역시,중구,,중산동,,두미포로,244,1913-1,2022-06-13 10:44:13,교육||아동교육||어린이집||어린이집-일반,False
27713,27714,5890334,친구사랑어린이집,,friend love nursery,Education,Other Education,126.71823041032496,37.49525676736266,대한민국,KOR,KOR,인천광역시,부평구,,부평동,,부평문화로,37,70-5,2019-12-11 10:28:08,교육||아동교육||어린이집||어린이집-일반,False
27774,27775,27127476,KCC 어학원,,KCC Language School,Education,Other Education,126.64425919999996,37.38628089999977,대한민국,KOR,KOR,인천광역시,연수구,,송도동,,테크노파크로,113,8-10,2022-05-01 12:37:48,교육||학원||어학원||영어학원||영어학원-일반,False
27778,27779,3129779,줄리어드음악학원, ,Juilliard School of Music,Education,Other Education,126.67834859999996,37.590790899999845,대한민국,KOR,KOR,인천광역시,서구,,당하동,,청마로148번길,9,1099-3,2022-05-01 12:37:48,교육||학원||음악학원||음악학원-일반,False
27886,27887,5893999,생명나무어린이집,,Tree of Life Nursery,Education,Other Education,126.66404437647168,37.38366071916162,대한민국,KOR,KOR,인천광역시,연수구,,송도동,,송도과학로27번길,30,157,2020-03-12 17:21:06,교육||아동교육||어린이집||어린이집-일반,False
27906,27907,5880182,길상군립어린이집,,Gilsang County Nursery School,Education,Other Education,126.51644449999986,37.633927199999846,대한민국,KOR,KOR,인천광역시,강화군,,길상면,초지리,길상로95번길,37-11,368-3,,교육||아동교육||어린이집||국공립어린이집,False
28003,28004,5887268,조은어린이집,,Jo Eun Nursery,Education,Other Education,126.70294437234249,37.49876730867177,대한민국,KOR,KOR,인천광역시,부평구,,산곡동,,마장로220번길,13,222,2020-03-04 13:41:20,교육||아동교육||어린이집||어린이집-일반,False
28013,28014,5877464,해나라유치원,,Haenara Kindergarten,Education,Other Education,126.67490749999992,37.42409649999978,대한민국,KOR,KOR,인천광역시,연수구,,연수동,,새말로,21,536,2022-08-18 12:00:50,교육||아동교육||유치원,False
28038,28039,27184077,주승현국어전문학원,,Joo Seung-hyeon Korean Language Institute,Education,Other Education,126.72382660592191,37.40171621163455,대한민국,KOR,KOR,인천광역시,남동구,,논현동,,논고개로,117,631-10,2022-08-18 12:00:50,교육||학원||보습학원,False
28099,28100,27181292,국어의모든것학원,,All Korean Language School,Education,Other Education,126.7157166082999,37.456490965199166,대한민국,KOR,KOR,인천광역시,남동구,,구월동,,구월로,223,1241-16,2022-08-12 13:15:03,교육||학원||보습학원,False
28174,28175,5875419,호반2차어린이집, ,Hoban Secondary Nursery,Education,Other Education,126.65669359468905,37.537371098329366,대한민국,KOR,KOR,인천광역시,서구,,청라동,,청라에메랄드로,134,130-4,2022-05-01 12:37:48,교육||아동교육||어린이집||어린이집-일반,False
28256,28257,5870412,색동원어린이집,,Saekdongwon Nursery School,Education,Other Education,126.71847267596387,37.4864411607896,대한민국,KOR,KOR,인천광역시,부평구,,부평동,,부영로14번길,16,760-137,2022-05-01 12:37:48,교육||아동교육||어린이집||어린이집-일반,False
28672,28673,5871166,논현사과나무어린이집,,Nonhyeon Apple Tree Nursery,Education,Other Education,126.732266063167,37.4067838240492,대한민국,KOR,KOR,인천광역시,남동구,,논현동,,논현로,235,601-1,2020-02-13 12:09:48,교육||아동교육||어린이집||어린이집-일반,False
28702,28703,5864468,이든아이어린이집,,Eden Child Nursery,Education,Other Education,126.64448739999992,37.38177609999976,대한민국,KOR,KOR,인천광역시,연수구,,송도동,,해송로30번길,20,9-5,,교육||아동교육||어린이집||어린이집-일반,False
28711,28712,1261998,숲속의어린이집,,nursery in the forest,Education,Other Education,126.73096519010194,37.42464504104556,대한민국,KOR,KOR,인천광역시,남동구,,도림동,,도림북로19번길,2-1,222,2022-08-18 12:00:50,교육||아동교육||어린이집||어린이집-일반,False
28837,28838,4337137,수피아어린이집,,Sufia Nursery School,Education,Other Education,126.6558506288229,37.55469972796271,대한민국,KOR,KOR,인천광역시,서구,,경서동,,경서로18번길,7-4,763-7,2021-12-23 15:49:18,교육||아동교육||어린이집||어린이집-일반,False
28872,28873,5890451,푸른어린이집,,Blue Nursery,Education,Other Education,126.74106209999997,37.502214799999805,대한민국,KOR,KOR,인천광역시,부평구,,부개동,,부개로,58,499-2,,교육||아동교육||어린이집||어린이집-일반,False
28995,28996,3242552,용일초등학교병설유치원,인천용일초등학교병설유치원,Kindergarten attached to Yongil Elementary School,Education,Other Education,126.6633139002339,37.45247500111416,대한민국,KOR,KOR,인천광역시,미추홀구,,용현동,,인주대로,244,74-1,2022-05-01 12:37:48,교육||아동교육||병설유치원,False
29053,29054,27050194,혜윰국어전문학원,,Hyeyum Korean Language Institute,Education,Other Education,126.6706308629509,37.40840793145496,대한민국,KOR,KOR,인천광역시,연수구,,동춘동,,앵고개로246번길,10,937-1,2022-08-16 16:52:33,교육||학원||보습학원,False
29090,29091,20192650,컬컴 인천부평점,,Culcom Bupyeong,Education,Other Education,126.72345431563292,37.49304212748068,대한민국,KOR,KOR,인천광역시,부평구,,부평동,,부평대로20번길,4,199-41,2022-08-08 10:29:42,교육||학원||어학원||영어학원||영어회화,False
29112,29113,3241782,금곡초등학교병설유치원,인천금곡초등학교병설유치원,Kindergarten attached to Geumgok Elementary School,Education,Other Education,126.65090616706284,37.60571800186513,대한민국,KOR,KOR,인천광역시,서구,,금곡동,,완정로228번길,19,721-1,2021-12-23 15:49:18,교육||아동교육||병설유치원,False
29169,29170,27050326,EiE어학원 인천옥련캠퍼스,,EiE Language School Incheon Okryun Campus,Education,Other Education,126.64559869032388,37.42452097239657,대한민국,KOR,KOR,인천광역시,연수구,,옥련동,,독배로40번길,11,462-9,2022-08-16 16:52:33,교육||학원||어학원||영어학원||EiE어학원,False
29196,29197,897310,산곡유치원,,Sangok Kindergarten,Education,Other Education,126.70530019999988,37.490332399999694,대한민국,KOR,KOR,인천광역시,부평구,,산곡동,,마장로,121,370-399,2022-05-01 12:37:48,교육||아동교육||유치원,False
29236,29237,27140370,지앤비어학원 논현캠퍼스,,G&B Language School Nonhyeon Campus,Education,Other Education,126.72449677130793,37.401744649368354,대한민국,KOR,KOR,인천광역시,남동구,,논현동,,논고개로,118,616-2,2022-08-16 16:52:33,교육||학원||어학원||영어학원||지앤비영어전문학원,False
29265,29266,5891359,예쁜아이어린이집,,pretty child nursery,Education,Other Education,126.6836642110378,37.42353651848119,대한민국,KOR,KOR,인천광역시,연수구,,연수동,,먼우금로,302,534,2020-02-24 13:52:38,교육||아동교육||어린이집||어린이집-일반,False
29284,29285,5895049,뉴서울스포키즈어린이집,,New Seoul Spokies Day care Center,Education,Other Education,126.71658171266346,37.52443626639735,대한민국,KOR,KOR,인천광역시,계양구,,효성동,,새벌로,88,207-1,2021-12-23 15:49:18,교육||아동교육||어린이집||어린이집-일반,False
29425,29426,135455,잠두유치원,,Jamdu Kindergarten,Education,Other Education,126.48194849999985,37.74489419999989,대한민국,KOR,KOR,인천광역시,강화군,,강화읍,신문리,청하동길,36,549,2022-05-01 12:37:48,교육||아동교육||유치원,False
29464,29465,3243578,교동초등학교병설유치원,인천교동초등학교병설유치원,Kindergarten attached to Gyodong Elementary School,Education,Other Education,126.2840558999996,37.78334479999992,대한민국,KOR,KOR,인천광역시,강화군,,교동면,대룡리,대룡안길29번길,29,548-1,2017-09-29 7:07:07,교육||아동교육||병설유치원,False
29650,29651,5862930,킨더리베어린이집,,Kinderribe Nursery,Education,Other Education,126.71027281261956,37.4531670714462,대한민국,KOR,KOR,인천광역시,남동구,,구월동,,구월로,192,23,2021-12-23 15:49:18,교육||아동교육||어린이집||어린이집-일반,False
29716,29717,89907,꿈나무어린이집,,Dream Tree Nursery,Education,Other Education,126.6770191819149,37.46186917295045,대한민국,KOR,KOR,인천광역시,미추홀구,,도화동,,주안서로33번길,14,411-51,2022-08-18 12:00:50,교육||아동교육||어린이집||어린이집-일반,False
29719,29720,81857,석화유치원,,petrochemical kindergarten,Education,Other Education,126.74150789999995,37.5334186999998,대한민국,KOR,KOR,인천광역시,계양구,,작전동,,도두리로,68,912-5,2021-12-23 15:49:18,교육||아동교육||유치원,False
29761,29762,5888568,하늘꿈터어린이집,,Sky Dream Nursery,Education,Other Education,126.6569047526872,37.600807021194086,대한민국,KOR,KOR,인천광역시,서구,,왕길동,,검단로,446,661-1,2021-12-23 15:49:18,교육||아동교육||어린이집||어린이집-일반,False
29982,29983,1872228,목련어린이집,,Magnolia Nursery,Education,Other Education,126.70282664307491,37.50894565392508,대한민국,KOR,KOR,인천광역시,부평구,,산곡동,,길주로,367,93-4,2021-12-23 15:49:18,교육||아동교육||어린이집||국공립어린이집,False
29988,29989,1264195,행복이가득한어린이집,,Children's home full of happiness,Education,Other Education,126.71643747182888,37.48477868213208,대한민국,KOR,KOR,인천광역시,부평구,,부평동,,경인로,863-1,756-80,2022-08-18 12:00:50,교육||아동교육||어린이집||어린이집-일반,False
30064,30065,5862590,꼬마스타어린이집,,Little Star Nursery School,Education,Other Education,126.72108794792248,37.542706473376526,대한민국,KOR,KOR,인천광역시,계양구,,계산동,,계양대로,215,941,2021-12-23 15:49:18,교육||아동교육||어린이집||어린이집-일반,False
30075,30076,5894895,인천초은초등학교 병설유치원,,Incheon Choeun Elementary School  Auxiliary Kindergarten,Education,Other Education,126.65584759999992,37.52842319999981,대한민국,KOR,KOR,인천광역시,서구,,청라동,,청라에메랄드로,33,192-3,2021-12-23 15:49:18,교육||아동교육||병설유치원,False
30083,30084,2606572,파고다어학원 인천,,Pagoda Language School Incheon,Education,Other Education,126.72253866865292,37.492144183329685,대한민국,KOR,KOR,인천광역시,부평구,,부평동,,부평대로,9,549-36,2022-08-18 12:00:50,교육||학원||어학원||영어학원||파고다,False
30218,30219,5870403,소은어린이집,,Soeun Nursery School,Education,Other Education,126.71694779630911,37.496881808867336,대한민국,KOR,KOR,인천광역시,부평구,,부평동,,부흥로,246,70-125,2020-04-22 13:38:36,교육||아동교육||어린이집||어린이집-일반,False
30317,30318,5867572,숲속어린이집,,Forest Nursery,Education,Other Education,126.70633988723716,37.45891256111094,대한민국,KOR,KOR,인천광역시,남동구,,간석동,,석산로,138,938-1,2022-08-18 12:00:50,교육||아동교육||어린이집||어린이집-일반,False
30445,30446,27070446,국제 아세아일본어중국어학원,,International Asian Japanese Language School,Education,Other Education,126.65189789999992,37.39538359999976,대한민국,KOR,KOR,인천광역시,연수구,,송도동,,신송로,121,3-4,2022-08-16 16:52:33,교육||학원||어학원||어학원-일반,False
30480,30481,5902373,인천원동초등학교병설유치원,,Kindergarten attached to Incheon Wondong Elementary School,Education,Other Education,126.7306225647009,37.39677302715607,대한민국,KOR,KOR,인천광역시,남동구,,논현동,,논고개로,38,755-2,2019-11-14 23:27:29,교육||아동교육||유치원,False
30485,30486,71302,남인천어린이집,,Namincheon Day care Center,Education,Other Education,126.66613973796689,37.42706669654636,대한민국,KOR,KOR,인천광역시,연수구,,청학동,,청학로6번길,52,527-15,2022-08-18 12:00:50,교육||아동교육||어린이집||어린이집-일반,False
30502,30503,5893447,인천건지초등학교 병설유치원,,Incheon Geonji Elementary School  Auxiliary Kindergarten,Education,Other Education,126.67797559999995,37.49496689999981,대한민국,KOR,KOR,인천광역시,서구,,가좌동,,건지로318번길,39,200,,교육||아동교육||병설유치원,False
30506,30507,792889,꿈에그린어린이집,한화꿈에그린어린이집,Dream Nursery School,Education,Other Education,126.74723589999996,37.55607049999982,대한민국,KOR,KOR,인천광역시,계양구,,박촌동,,동양로,10,310,2018-09-18 15:00:00,교육||아동교육||어린이집||어린이집-일반,False
30678,30679,5904489,사랑별어린이집,,Love Star Nursery,Education,Other Education,126.67671871581514,37.41082160573498,대한민국,KOR,KOR,인천광역시,연수구,,동춘동,,청능대로,124,923,2022-05-01 12:37:48,교육||아동교육||어린이집||어린이집-일반,False
30874,30875,2599395,프라임건영유치원,건영유치원,Prime Gun Young Kindergarten,Education,Other Education,126.67212389875492,37.45762775353576,대한민국,KOR,KOR,인천광역시,미추홀구,,도화동,,남주길11번길,79,463-6,2019-11-14 23:28:00,교육||아동교육||유치원,False
30933,30934,4339786,제일요리학원,,Jeil Cooking School,Education,Other Education,126.70798973098492,37.461756485864086,대한민국,KOR,KOR,인천광역시,남동구,,간석동,,남동대로,889,283-7,2022-05-01 12:37:48,교육||학원||요리학원||요리학원-일반,False
30958,30959,5889756,하얀빛어린이집,,white light nursery,Education,Other Education,126.73254914585112,37.51396713387927,대한민국,KOR,KOR,인천광역시,부평구,,삼산동,,굴포로,105,440-1,2019-12-20 10:42:51,교육||아동교육||어린이집||어린이집-일반,False
30989,30990,20069,청담숲유치원,,Cheongdam Forest Kindergarten,Education,Other Education,126.72915444220092,37.45607651036156,대한민국,KOR,KOR,인천광역시,남동구,,만수동,,만경로8번길,33,881-6,2019-11-14 23:06:52,교육||아동교육||유치원,False
31042,31043,5902741,청라다온어린이집,,Cheongna Daon Nursery School,Education,Other Education,126.64613292430381,37.537234679867794,대한민국,KOR,KOR,인천광역시,서구,,청라동,,청라한울로,96,149-2,2021-12-23 15:49:18,교육||아동교육||어린이집||어린이집-일반,False
31071,31072,4344489,주은어린이집,,Joo-eun Nursery School,Education,Other Education,126.67416913383988,37.557372036495394,대한민국,KOR,KOR,인천광역시,서구,,검암동,,승학로402번길,10,662-1,2022-08-18 12:00:50,교육||아동교육||어린이집||어린이집-일반,False
31131,31132,5859911,참조은유치원,,reference metaphor kindergarten,Education,Other Education,126.70526352920588,37.459765964598475,대한민국,KOR,KOR,인천광역시,남동구,,간석동,,구월로137번길,65,342-10,2022-08-16 16:52:33,교육||아동교육||유치원,False
31365,31366,20069211,PL 어학원,피엘어학원,PL language school,Education,Other Education,126.73332399999995,37.54329359999982,대한민국,KOR,KOR,인천광역시,계양구,,계산동,,경명대로,1135,917-11,2022-08-18 12:00:50,교육||학원||어학원||영어학원||영어회화,False
31497,31498,1871050,솔샘유치원,,Solsaem Kindergarten,Education,Other Education,126.69640778968387,37.46184472665267,대한민국,KOR,KOR,인천광역시,미추홀구,,주안동,,석산로,38,1618,2022-05-01 12:37:48,교육||아동교육||유치원,False
31544,31545,1267582,사랑어린이집,,love nursery,Education,Other Education,126.72625074375794,37.505320506983,대한민국,KOR,KOR,인천광역시,부평구,,부평동,,신트리로46번길,5,900-11,2021-12-23 15:49:18,교육||아동교육||어린이집||어린이집-일반,False
31568,31569,3461431,귤현꿈나무어린이집,꿈나무어린이집,Tangerine Hyeon Dream Tree Nursery,Education,Other Education,126.74796401666296,37.56828552746043,대한민국,KOR,KOR,인천광역시,계양구,,귤현동,,귤현길,12,497,2022-05-01 12:37:48,교육||아동교육||어린이집||어린이집-일반,False
31609,31610,5864353,바론어린이집,,Baron Nursery School,Education,Other Education,126.7400349960664,37.482805231696666,대한민국,KOR,KOR,인천광역시,부평구,,일신동,,항동로75번길,11,410,2021-12-23 15:49:18,교육||아동교육||어린이집||어린이집-일반,False
31688,31689,5862953,둥지어린이집,,nest nursery,Education,Other Education,126.68556383846236,37.4951471735421,대한민국,KOR,KOR,인천광역시,서구,,가좌동,,건지로,402,7,2021-12-23 15:49:18,교육||아동교육||어린이집||어린이집-일반,False
31718,31719,5891556,예다미어린이집,,Yedami Nursery School,Education,Other Education,126.56622919999992,37.49127569999981,대한민국,KOR,KOR,인천광역시,중구,,중산동,,하늘별빛로,66,1887-2,,교육||아동교육||어린이집||어린이집-일반,False
31723,31724,1093928,행복한발도로프어린이집,,Happy Waldorf  Kindergarten,Education,Other Education,126.6954628408469,37.47571801135268,대한민국,KOR,KOR,인천광역시,부평구,,십정동,,배곶로,88,279-24,2022-09-06 15:18:26,교육||아동교육||어린이집||어린이집-일반,False
31754,31755,424923,엄지유치원,,Umji Kindergarten,Education,Other Education,126.74222159999997,37.4888415999998,대한민국,KOR,KOR,인천광역시,부평구,,부개동,,부일로,111,494-3,2021-12-23 15:49:18,교육||아동교육||유치원,False
31837,31838,1260483,공립아람어린이집,공립아람어린이집,public Aram Day care Center,Education,Other Education,126.66853555676188,37.462825984176874,대한민국,KOR,KOR,인천광역시,미추홀구,,도화동,,경인로246번길,24,540-1,2022-05-01 12:37:48,교육||아동교육||어린이집||국공립어린이집,False
31922,31923,20477890,부개2동하나어린이집,,Bugae 2 Donghana Day care Center,Education,Other Education,126.7364394014969,37.49394844674909,대한민국,KOR,KOR,인천광역시,부평구,,부개동,,동수천로,95,134-9,2022-08-19 9:48:28,교육||아동교육||어린이집||어린이집-일반,False
31923,31924,2451837,국립두루누리어린이집,두루누리어린이집,National Durunuri Day care Center,Education,Other Education,126.66627069471488,37.52898330659,대한민국,KOR,KOR,인천광역시,서구,,가정동,,봉오재3로,45,608-1,2022-05-01 12:37:48,교육||아동교육||어린이집||국공립어린이집,False
32000,32001,3142515,아이젠어린이집,,Aizen Nursery School,Education,Other Education,126.6962545586409,37.45615459817308,대한민국,KOR,KOR,인천광역시,남동구,,간석동,,구월로56번길,24,508-47,2021-12-23 15:49:18,교육||아동교육||어린이집||어린이집-일반,False
32044,32045,5890129,아기사랑어린이집,,baby love nursery,Education,Other Education,126.72499429140191,37.50314222261299,대한민국,KOR,KOR,인천광역시,부평구,,부평동,,길주남로10번길,21,947,2022-05-01 12:37:48,교육||아동교육||어린이집||어린이집-일반,False
32234,32235,5884625,사랑과믿음어린이집,,Love and Faith Nursery,Education,Other Education,126.70816213719708,37.459718766038975,대한민국,KOR,KOR,인천광역시,남동구,,간석동,,석산로,138,938-1,2021-12-23 15:49:18,교육||아동교육||어린이집||어린이집-일반,False
32289,32290,177657,양지유치원,,Yangji Kindergarten,Education,Other Education,126.73481848641092,37.49700230548949,대한민국,KOR,KOR,인천광역시,부평구,,부개동,,,,91-8,2019-11-14 23:25:06,교육||아동교육||유치원,False
32388,32389,20031525,서창중대음악학원,중대음악학원,Seochang Middle School of Music,Education,Other Education,126.75205659145792,37.421614421051366,대한민국,KOR,KOR,인천광역시,남동구,,서창동,,서창남로,16-1,720-3,2022-08-24 14:41:06,교육||학원||음악학원||음악학원-일반,False
32490,32491,3120713,코니에반스어학원,ConyEvans어학원,Connie Evans Language School,Education,Other Education,126.65060589226788,37.39562973969005,대한민국,KOR,KOR,인천광역시,연수구,,송도동,,컨벤시아대로,69,3-1,2020-01-14 23:37:56,교육||학원||어학원||영어학원||영어학원-일반,False
32513,32514,3242601,문학초등학교병설유치원,인천문학초등학교병설유치원,Munhak Elementary School Attached Kindergarten,Education,Other Education,126.6827982009609,37.43990751181367,대한민국,KOR,KOR,인천광역시,미추홀구,,문학동,,매소홀로,553,343-2,2022-05-01 12:37:48,교육||아동교육||병설유치원,False
32530,32531,882982,주은색동원어린이집,,Jueunsaek Dongwon Nursery School,Education,Other Education,126.67519280931792,37.54819999456541,대한민국,KOR,KOR,인천광역시,서구,,연희동,,승학로288번길,5-10,689-21,2022-08-18 12:00:50,교육||아동교육||어린이집||어린이집-일반,False
32602,32603,5905064,해피베베어린이집, ,Happy Bebe Nursery School,Education,Other Education,126.65127781969896,37.52930792052283,대한민국,KOR,KOR,인천광역시,서구,,청라동,,청라라임로,17,185-1,2022-05-01 12:37:48,교육||아동교육||어린이집||어린이집-일반,False
32745,32746,5681923,어깨동무학원,,shoulder school,Education,Other Education,126.6839979918809,37.44811740563878,대한민국,KOR,KOR,인천광역시,미추홀구,,주안동,,인하로,321,1492-6,2022-08-24 14:41:06,교육||학원||보습학원,False
32779,32780,5902732,센트럴아이어린이집,,Central Child Nursery,Education,Other Education,126.6668995040509,37.5223536322184,대한민국,KOR,KOR,인천광역시,서구,,신현동,,봉오재1로,36,306-1,2021-12-23 15:49:18,교육||아동교육||어린이집||어린이집-일반,False
32872,32873,3267477,한신어린이집,,Hanshin Nursery School,Education,Other Education,126.68411012080588,37.49456949601789,대한민국,KOR,KOR,인천광역시,서구,,가좌동,,건지로,402,7,2019-05-09 23:10:24,교육||아동교육||어린이집||어린이집-일반,False
32948,32949,1263927,A&E지혜어린이집,지혜예나영재어린이집,A&E wisdom Day care Center,Education,Other Education,126.73567166408594,37.49836591760419,대한민국,KOR,KOR,인천광역시,부평구,,부개동,,충선로,101,67-1,2019-12-09 10:51:37,교육||아동교육||어린이집||어린이집-일반,False
32979,32980,5887774,한솔아트어린이집,,Hansol Art Nursery,Education,Other Education,126.72687311098692,37.5354420623551,대한민국,KOR,KOR,인천광역시,계양구,,작전동,,주부토로459번길,8-3,857-8,2022-08-12 13:15:03,교육||아동교육||어린이집||어린이집-일반,False
33047,33048,6301394,인천만수초등학교병설유치원,,Incheon Mansu Elementary School Auxiliary Kindergarten,Education,Other Education,126.73442010013297,37.44746350116306,대한민국,KOR,KOR,인천광역시,남동구,,만수동,,소래로,652,1074,2019-11-14 23:14:56,교육||아동교육||병설유치원,False
33203,33204,2612654,움트리어린이집,,Umtree Nursery School,Education,Other Education,126.73174965701494,37.42334751992826,대한민국,KOR,KOR,인천광역시,남동구,,도림동,,도림북로19번길,33,208,2022-08-18 12:00:50,교육||아동교육||어린이집||어린이집-일반,False
33272,33273,27082824,빅뱅수학13관학원,빅뱅수학국어13관,Big Bang Mathematics Building 13,Education,Other Education,126.73305839999996,37.46142719999979,대한민국,KOR,KOR,인천광역시,남동구,,만수동,,만수서로,62,1118-2,2022-09-06 15:18:26,교육||학원||수학학원||수학학원-일반,False
33349,33350,5890534,예쁜별어린이집,,Pretty Byeol Nursery,Education,Other Education,126.69471199640482,37.466023589294686,대한민국,KOR,KOR,인천광역시,남동구,,간석동,,방축로,501,893-1,2022-05-01 12:37:48,교육||아동교육||어린이집||어린이집-일반,False
33473,33474,995186,뿌리어린이집,,Root Nursery,Education,Other Education,126.68133750000023,37.56825829999968,대한민국,KOR,KOR,인천광역시,서구,,검암동,,검암로,53,501-1,2022-08-18 12:00:50,교육||아동교육||어린이집||어린이집-일반,False
33530,33531,5886110,사랑한줌어린이집,,I love you nursery school,Education,Other Education,126.75894828549002,37.56308354143422,대한민국,KOR,KOR,인천광역시,계양구,,동양동,,당미길,43,613,2021-12-23 15:49:18,교육||아동교육||어린이집||어린이집-일반,False
33575,33576,785491,연평공립어린이집,연평어린이집,Yeonpyeong Public Nursery,Education,Other Education,125.70017079999704,37.66172779999981,대한민국,KOR,KOR,인천광역시,옹진군,,연평면,연평리,연평로137번길,49,485-3,2018-09-18 15:00:00,교육||아동교육||어린이집||국공립어린이집,False
33601,33602,27070001,GSI어학원,,GSI Language School,Education,Other Education,126.64015179999991,37.53341779999982,대한민국,KOR,KOR,인천광역시,서구,,청라동,,청라루비로,93,152-9,2022-09-06 15:18:26,교육||학원||어학원||영어학원||영어학원-일반,False
33649,33650,3123841,종로고시학원,,Jongno High School,Education,Other Education,126.67633000682488,37.41507840542825,대한민국,KOR,KOR,인천광역시,연수구,,청학동,,먼우금로,197,503-1,2020-01-14 23:39:29,"교육||학원||직업,기술학원||고시,공무원||고시,공무원-일반",False
33656,33657,605672,우성자연어린이집,자연어린이집,Woosung Nature Day care Center,Education,Other Education,126.69330331421688,37.46999854904137,대한민국,KOR,KOR,인천광역시,부평구,,십정동,,정석로,16,359-6,2019-11-14 23:28:06,교육||아동교육||어린이집||어린이집-일반,False
33751,33752,5870348,참사랑어린이집,,Chamsarang Nursery School,Education,Other Education,126.73564884320542,37.580578513796894,대한민국,KOR,KOR,인천광역시,계양구,,이화동,,황어로,139,407,2021-12-23 15:49:18,교육||아동교육||어린이집||어린이집-일반,False
33873,33874,27078739,빨리 강해지는 학원,,A school that gets stronger quickly,Education,Other Education,126.67399061789588,37.59249756128092,대한민국,KOR,KOR,인천광역시,서구,,당하동,,청마로167번길,24,1094-3,2022-08-08 10:29:42,교육||학원||입시학원||입시학원-일반,False
33924,33925,5870364,아띠어린이집,,Atti Nursery,Education,Other Education,126.72860585273853,37.40620310467688,대한민국,KOR,KOR,인천광역시,남동구,,논현동,,소래역로,119,603-1,2021-12-23 15:49:18,교육||아동교육||어린이집||어린이집-일반,False
34061,34062,3242556,축현초등학교병설유치원,인천축현초등학교병설유치원,Chukhyeon Elementary School Attached Kindergarten,Education,Other Education,126.6546979551959,37.422842059423445,대한민국,KOR,KOR,인천광역시,연수구,,옥련동,,청량로,176,405-5,2020-04-10 23:00:09,교육||아동교육||병설유치원,False
34077,34078,27069412,예사랑간호학원,,Yesarang Nursing School,Education,Other Education,126.7037339080469,37.5066243390488,대한민국,KOR,KOR,인천광역시,부평구,,산곡동,,마장로,320,100-80,2022-08-12 13:15:03,"교육||학원||직업,기술학원||간호",False
34128,34129,5872679,소망어린이집,,Hope Nursery,Education,Other Education,126.74024339999995,37.54206269999983,대한민국,KOR,KOR,인천광역시,계양구,,용종동,,계양문화로,141,214-2,,교육||아동교육||어린이집||어린이집-일반,False
34215,34216,437033,엔젤유치원,,Angel Kindergarten,Education,Other Education,126.73647939724393,37.50029310617171,대한민국,KOR,KOR,인천광역시,부평구,,부개동,,충선로,124-17,63-31,2021-12-23 15:49:18,교육||아동교육||유치원,False
34265,34266,5863463,라온어린이집, ,Raon Nursery School,Education,Other Education,126.63802589961684,37.525830399724285,대한민국,KOR,KOR,인천광역시,서구,,청라동,,청라커낼로,163,173-1,2021-12-23 15:49:18,교육||아동교육||어린이집||어린이집-일반,False
34338,34339,5871498,아낌없이주는나무어린이집, ,Giving Tree Nursery School,Education,Other Education,126.75090139962398,37.437165300422365,대한민국,KOR,KOR,인천광역시,남동구,,서창동,,장아산로,157,561-1,2018-12-03 20:39:11,교육||아동교육||어린이집||어린이집-일반,False
34351,34352,27086252,GnB어학원 서화캠퍼스,,GnB Language School Seohwa Campus,Education,Other Education,126.66132117466088,37.47287001592417,대한민국,KOR,KOR,인천광역시,미추홀구,,도화동,,숙골로,124,1005-2,2022-08-16 16:52:33,교육||학원||어학원||영어학원||지앤비영어전문학원,False
34441,34442,27094772,지앤비어학원 서창캠퍼스,,G&B Language School Seochang Campus,Education,Other Education,126.74692687644196,37.438218587054365,대한민국,KOR,KOR,인천광역시,남동구,,서창동,,매소홀로,1118,554-5,2022-08-16 16:52:33,교육||학원||어학원||영어학원||지앤비영어전문학원,False
34507,34508,3120714,정상어학원 송도국제캠퍼스,,Jeongsang Language School Songdo International Campus,Education,Other Education,126.65112949160488,37.39602993899065,대한민국,KOR,KOR,인천광역시,연수구,,송도동,,컨벤시아대로,69,3-1,2022-08-16 16:52:33,교육||학원||어학원||영어학원||영어학원-일반,False
34539,34540,5871197,재롱둥이어린이집,,Jaerongdungi Nursery,Education,Other Education,126.73882161771776,37.457871292935685,대한민국,KOR,KOR,인천광역시,남동구,,만수동,,백범로124번길,126,13,2021-12-23 15:49:18,교육||아동교육||어린이집||어린이집-일반,False
34578,34579,637037,예진유치원,,Yejin Kindergarten,Education,Other Education,126.72810786708992,37.41871428320007,대한민국,KOR,KOR,인천광역시,남동구,,도림동,,,,665-7,2021-12-23 15:49:18,교육||아동교육||유치원,False
34609,34610,3242599,숭의초등학교병설유치원,인천숭의초등학교병설유치원,Kindergarten attached to Sungui Elementary School,Education,Other Education,126.65469716292792,37.46278600941657,대한민국,KOR,KOR,인천광역시,미추홀구,,숭의동,,장천로,99,42-2,2019-12-09 10:50:24,교육||아동교육||병설유치원,False
34642,34643,988492,불은어린이집,,Fire Children's Home,Education,Other Education,126.50499299999971,37.65416759999961,대한민국,KOR,KOR,인천광역시,강화군,,불은면,신현리,덕진로,216,200-3,2022-05-01 12:37:48,교육||아동교육||어린이집||어린이집-일반,False
34735,34736,1019904,세광어린이집, ,Sekwang Nursery School,Education,Other Education,126.47794404341168,37.72481835653463,대한민국,KOR,KOR,인천광역시,강화군,,선원면,창리,중앙로,274,663,2022-05-01 12:37:48,교육||아동교육||어린이집||어린이집-일반,False
34768,34769,27187153,에이치엠차이나 어학원,,Hm China Language School,Education,Other Education,126.64569929841184,37.532065281582,대한민국,KOR,KOR,인천광역시,서구,,청라동,,청라커낼로260번길,11,158-1,2022-08-12 13:15:03,교육||학원||어학원||중국어학원||중국어학원-일반,False
34861,34862,3105496,명문학원,,prestigious school,Education,Other Education,126.63651399319885,37.47396649545068,대한민국,KOR,KOR,인천광역시,동구,,송림동,,화도진로,8,234-3,2022-05-01 12:37:48,교육||학원||입시학원||입시학원-일반,False
34943,34944,3241781,불로초등학교병설유치원,인천불로초등학교병설유치원,Kindergarten attached to Bullo Elementary School,Education,Other Education,126.68945774641892,37.61391966032065,대한민국,KOR,KOR,인천광역시,서구,,불로동,,검단로744번1길,50,799-2,2020-01-14 23:42:24,교육||아동교육||병설유치원,False
34978,34979,3582187,해방글어린이집,,Liberation Bulletin  Kindergarten,Education,Other Education,126.67255353732104,37.400110635007564,대한민국,KOR,KOR,인천광역시,연수구,,동춘동,,경원대로119번길,21,929,2020-01-16 13:33:16,교육||아동교육||어린이집||국공립어린이집,False
35257,35258,5889673,솜사탕어린이집,,Cotton Candy Nursery,Education,Other Education,126.7330201,37.397238499999766,대한민국,KOR,KOR,인천광역시,남동구,,논현동,,논고개로,10,755-4,2022-05-01 12:37:48,교육||아동교육||어린이집||어린이집-일반,False
35386,35387,5888334,하은어린이집,,Haeun Nursery School,Education,Other Education,126.70879239999982,37.51423859999979,대한민국,KOR,KOR,인천광역시,부평구,,청천동,,세월천로,16,176,2019-12-12 14:06:15,교육||아동교육||어린이집||어린이집-일반,False
35393,35394,5887980,큰솔어린이집,,Keunsol Nursery School,Education,Other Education,126.73727242884996,37.44135847297662,대한민국,KOR,KOR,인천광역시,남동구,,만수동,,담방로21번길,23,1045,2020-03-17 11:31:14,교육||아동교육||어린이집||어린이집-일반,False
35508,35509,27018044,다은유치원,,Daeun Kindergarten,Education,Other Education,126.66482029999995,37.5291603999998,대한민국,KOR,KOR,인천광역시,서구,,가정동,,청중로478번길,9,606-5,2022-05-01 12:37:48,교육||아동교육||유치원,False
35564,35565,941074,꿈사랑어린이집,,Dream Love Nursery,Education,Other Education,126.73058772742792,37.54419139420892,대한민국,KOR,KOR,인천광역시,계양구,,계산동,,계양산로134번길,37-1,912-23,2021-12-23 15:49:18,교육||아동교육||어린이집||어린이집-일반,False
35825,35826,26866213,빛나는샤인유치원,,Shining Shine Kindergarten,Education,Other Education,126.65295829999992,37.42408129999977,대한민국,KOR,KOR,인천광역시,연수구,,옥련동,,청량로194번길,6,374-5,2022-05-01 12:37:48,교육||아동교육||유치원,False
35856,35857,27163142,밝은내일학원,,bright tomorrow school,Education,Other Education,126.69967418692488,37.46276226800227,대한민국,KOR,KOR,인천광역시,남동구,,간석동,,경인로,551,526-2,2022-08-16 16:52:33,교육||학원||보습학원,False
35905,35906,4345861,신신중국어학원,,Shinshin Chinese Language School,Education,Other Education,126.72445489999994,37.54314959999981,대한민국,KOR,KOR,인천광역시,계양구,,계산동,,경명대로,1058,944-11,2022-08-16 16:52:33,교육||학원||어학원||어학원-일반,False
35986,35987,847960,예인유치원,,Yein Kindergarten,Education,Other Education,126.69201569859588,37.59440924616184,대한민국,KOR,KOR,인천광역시,서구,,원당동,,원당대로819번길,3,811-8,2022-05-01 12:37:48,교육||아동교육||유치원,False
36076,36077,3658559,서창뜰어린이집,,Seochang Yard Nursery,Education,Other Education,126.74342749355996,37.42130493451587,대한민국,KOR,KOR,인천광역시,남동구,,서창동,,서창남순환로,190-15,699,2022-05-01 12:37:48,교육||아동교육||어린이집||국공립어린이집,False
36191,36192,27263654,뉴마스프링스 글로벌융합과학학원,,New Mars Springs Institute of Global Convergence Science,Education,Other Education,126.71443599999988,37.59430169999983,대한민국,KOR,KOR,인천광역시,서구,,원당동,,이음5로,60,산64-4,2022-08-19 9:48:28,교육||학원||보습학원,False
36261,36262,4330784,아시아드어학원,,Asian language school,Education,Other Education,126.71641419938288,37.44320370048657,대한민국,KOR,KOR,인천광역시,남동구,,구월동,,인하로,627,1517-1,2022-08-24 14:41:06,교육||학원||어학원||어학원-일반,False
36403,36404,3242890,부평북초등학교병설유치원,부평북초교병설유치원,Kindergarten attached to Bupyeong Buk Elementary School,Education,Other Education,126.72902438101492,37.52023732534309,대한민국,KOR,KOR,인천광역시,부평구,,갈산동,,주부토로,292,10-1,2019-12-09 10:50:24,교육||아동교육||병설유치원,False
36464,36465,27155894,JBC 어학원,,JBC language school,Education,Other Education,126.69640257938092,37.592694632645006,대한민국,KOR,KOR,인천광역시,서구,,당하동,,고산후로95번길,24,1029-7,2022-08-08 10:29:42,교육||학원||어학원||영어학원||영어학원-일반,False
36486,36487,5869952,꽃들어린이집,,flower nursery,Education,Other Education,126.71100985064491,37.45516212995072,대한민국,KOR,KOR,인천광역시,남동구,,구월동,,구월로,192,23,2021-12-23 15:49:18,교육||아동교육||어린이집||어린이집-일반,False
36653,36654,5902724,루원사과나무어린이집, ,Luwon Apple Tree Nursery,Education,Other Education,126.6681738998089,37.52933649956129,대한민국,KOR,KOR,인천광역시,서구,,가정동,,봉오재3로,75,609-1,2022-05-01 12:37:48,교육||아동교육||어린이집||어린이집-일반,False
36758,36759,5888927,삼산1동어린이집,,Samsan 1-dong Day care Center,Education,Other Education,126.74772549783596,37.5198195515294,대한민국,KOR,KOR,인천광역시,부평구,,삼산동,,영성동로18번길,19,512,2022-05-01 12:37:48,교육||아동교육||어린이집||국공립어린이집,False
36910,36911,27124600,약산셀파우등생학원,,Yaksan Cell Pow Junior High School,Education,Other Education,126.71138834005988,37.46631517119189,대한민국,KOR,KOR,인천광역시,남동구,,간석동,,백범로360번길,14,100-4,2022-08-16 16:52:33,교육||학원||보습학원,False
37095,37096,5888796,꿈에그린어린이집,,Dream Nursery School,Education,Other Education,126.71716951397057,37.40180429758804,대한민국,KOR,KOR,인천광역시,남동구,,논현동,,논현로,106,634-1,2021-12-23 15:49:18,교육||아동교육||어린이집||어린이집-일반,False
37103,37104,1253784,샤인유치원,,Shine Kindergarten,Education,Other Education,126.73094525782992,37.40880967648056,대한민국,KOR,KOR,인천광역시,남동구,,논현동,,은봉로375번길,108,597-9,2022-08-18 12:00:50,교육||아동교육||유치원,False
37116,37117,942931,예원삐아제어린이집,,Yewon Piaget Nursery School,Education,Other Education,126.6811402182859,37.5441885316174,대한민국,KOR,KOR,인천광역시,서구,,심곡동,,탁옥로97번길,16-6,284-2,2021-12-23 15:49:18,교육||아동교육||어린이집||어린이집-일반,False
37127,37128,5871562,꼬마숲어린이집,,Little Forest Nursery School,Education,Other Education,126.55718184998344,37.49322266689918,대한민국,KOR,KOR,인천광역시,중구,,중산동,,은하수로,351,1881-1,2022-09-06 15:18:26,교육||아동교육||어린이집||어린이집-일반,False
37256,37257,5877325,베베스쿨어린이집,,Bebe School Nursery School,Education,Other Education,126.6729926524672,37.59705393690816,대한민국,KOR,KOR,인천광역시,서구,,마전동,,완정로34번길,20,1003-1,2020-01-08 12:16:32,교육||아동교육||어린이집||어린이집-일반,False
37395,37396,27097604,마스터잉글리쉬영어학원,,Master English Language School,Education,Other Education,126.65205498561588,37.39519988571386,대한민국,KOR,KOR,인천광역시,연수구,,송도동,,신송로,121,3-4,2022-08-16 16:52:33,교육||학원||어학원||영어학원||영어학원-일반,False
37397,37398,27141334,국두국어학원 2관,,Gukdu Korean Language Institute Building 2,Education,Other Education,126.72441822503691,37.40202480137114,대한민국,KOR,KOR,인천광역시,남동구,,논현동,,논고개로,120,616-1,2022-08-12 13:15:03,교육||학원||입시학원||입시학원-일반,False
37517,37518,5886072,푸른솔밭어린이집,,Blue Pine Field Nursery School,Education,Other Education,126.68361654621572,37.4101244974584,대한민국,KOR,KOR,인천광역시,연수구,,연수동,,청능대로,175,635,2022-05-01 12:37:48,교육||아동교육||어린이집||어린이집-일반,False
37525,37526,5869698,아기둥지어린이집,,baby nest nursery,Education,Other Education,126.64448739999992,37.38177609999976,대한민국,KOR,KOR,인천광역시,연수구,,송도동,,해송로30번길,20,9-5,,교육||아동교육||어린이집||어린이집-일반,False
37533,37534,5893194,새싹어린이집,,Sprout Nursery,Education,Other Education,126.67682522355756,37.59531289857826,대한민국,KOR,KOR,인천광역시,서구,,마전동,,원당대로685번길,23,1055-1,2021-12-23 15:49:18,교육||아동교육||어린이집||어린이집-일반,False
37552,37553,2618645,사과나무어린이집,,Apple Tree Nursery,Education,Other Education,126.71776098450889,37.486406738633775,대한민국,KOR,KOR,인천광역시,부평구,,부평동,,부영로14번길,4,760-147,2022-05-01 12:37:48,교육||아동교육||어린이집||어린이집-일반,False
37618,37619,708511,청라새싹유치원,새싹유치원,Cheongna Sprout Kindergarten,Education,Other Education,126.67041450000391,37.5464239999965,대한민국,KOR,KOR,인천광역시,서구,,심곡동,,용두산로26번길,14-5,326-6,2021-12-23 15:49:18,교육||아동교육||유치원,False
37670,37671,27183407,고대수학원,,high school,Education,Other Education,126.64544579999993,37.39452319999976,대한민국,KOR,KOR,인천광역시,연수구,,송도동,,해돋이로,161,22-5,2022-08-16 16:52:33,교육||학원||수학학원||수학학원-일반,False
37878,37879,714873,노벨유치원,,Nobel Kindergarten,Education,Other Education,126.63962558869984,37.45425418621837,대한민국,KOR,KOR,인천광역시,미추홀구,,용현동,,낙섬중로,74,577-58,2019-11-14 23:19:39,교육||아동교육||유치원,False
37927,37928,27183413,목동키국어영어학원,,Mokdongki Korean Language School,Education,Other Education,126.6456661999998,37.395984599999714,대한민국,KOR,KOR,인천광역시,연수구,,송도동,,해돋이로,168-7,21-11,2022-08-12 13:15:03,교육||학원||보습학원,False
37986,37987,593284,제물포어린이집,,Jemulpo Day care Center,Education,Other Education,126.65107725655386,37.46801762420357,대한민국,KOR,KOR,인천광역시,미추홀구,,숭의동,,석정로140번길,17,88-16,2022-05-01 12:37:48,교육||아동교육||어린이집||국공립어린이집,False
38062,38063,20482659,최상엘리트영수학원,,The best elite training school,Education,Other Education,126.72095448028593,37.463878812898166,대한민국,KOR,KOR,인천광역시,남동구,,간석동,,호구포로,914,918,2022-08-16 16:52:33,교육||학원||입시학원||입시학원-일반,False
38078,38079,26806625,금강꿈채운 어린이집,,Geumgang Dream Filled Day care Center,Education,Other Education,126.66256366601596,37.476055714119504,대한민국,KOR,KOR,인천광역시,미추홀구,,도화동,,송림로257번길,6,987,2022-05-01 12:37:48,교육||아동교육||어린이집||국공립어린이집,False
38087,38088,89215,새하늘유치원,,New Sky Kindergarten,Education,Other Education,126.6894663000002,37.41524220000009,대한민국,KOR,KOR,인천광역시,연수구,,연수동,,원인재로,232,582-2,2022-05-01 12:37:48,교육||아동교육||유치원,False
38164,38165,5890750,사랑가득예능어린이집,,Full of Love Entertainment Nursery School,Education,Other Education,126.7388772712902,37.49956787556825,대한민국,KOR,KOR,인천광역시,부평구,,부개동,,부개로,11,500-1,2021-12-23 15:49:18,교육||아동교육||어린이집||어린이집-일반,False
38170,38171,5889491,더샵향기어린이집,,The Sharp Hyanggi Nursery,Education,Other Education,126.64188719999996,37.39368769999977,대한민국,KOR,KOR,인천광역시,연수구,,송도동,,센트럴로,194,23-4,,교육||아동교육||어린이집||어린이집-일반,False
38183,38184,27081612,진명어학원,,Jinmyung Language School,Education,Other Education,126.72206395289092,37.527042722945005,대한민국,KOR,KOR,인천광역시,계양구,,작전동,,계양대로,37,442-1,2022-05-01 12:37:48,교육||학원||어학원||영어학원||토익,False
38262,38263,3644652,프라임청라유치원,프라임유치원,Prime Cheongna Kindergarten,Education,Other Education,126.64286491538186,37.5393187699248,대한민국,KOR,KOR,인천광역시,서구,,청라동,,청라한울로59번길,5,111-41,2021-12-23 15:49:18,교육||아동교육||유치원,False
38288,38289,26945668,스마트해법수학 인천검단호반써밋1차점,,Smart solution math  Geomdanhoban Summit 1st place,Education,Other Education,126.70896549999988,37.59572319999981,대한민국,KOR,KOR,인천광역시,서구,,원당동,,,,528-1,2022-08-30 9:43:30,교육||학원||수학학원||프랜차이즈||e해법수학,False
38450,38451,800958,온누리비전유치원,,Onnuri Vision Kindergarten,Education,Other Education,126.65231439301385,37.423927787217856,대한민국,KOR,KOR,인천광역시,연수구,,옥련동,,청량로185번길,16,632,2021-12-23 15:49:18,교육||아동교육||유치원,False
38506,38507,27184143,본잉글리시영어학원,,Born English Language School,Education,Other Education,126.72274696625291,37.401642040854654,대한민국,KOR,KOR,인천광역시,남동구,,논현동,,논고개로123번길,17,632-2,2022-05-01 12:37:48,교육||학원||어학원||영어학원||영어학원-일반,False
38600,38601,5870441,예쁜어린이집,,pretty nursery,Education,Other Education,126.55916319999989,37.484547699999794,대한민국,KOR,KOR,인천광역시,중구,,중산동,,하늘달빛로,65,1872-2,,교육||아동교육||어린이집||어린이집-일반,False
38662,38663,20077026,SLA어학원,에스엘에이어학원,SLA Language School,Education,Other Education,126.64631999999996,37.424504999999776,대한민국,KOR,KOR,인천광역시,연수구,,옥련동,,독배로40번길,25,462-33,2021-12-23 15:49:18,교육||학원||어학원||영어학원||영어학원-일반,False
38751,38752,5889080,꼬마숲속어린이집,,Little Forest Nursery School,Education,Other Education,126.74061147261312,37.53150342417932,대한민국,KOR,KOR,인천광역시,계양구,,작전동,,도두리로,62,912-4,2022-05-01 12:37:48,교육||아동교육||어린이집||어린이집-일반,False
38810,38811,2149306,해그림어린이집,,Haegrim Nursery School,Education,Other Education,126.69996619999993,37.59748929999985,대한민국,KOR,KOR,인천광역시,서구,,원당동,,고산로45번길,16,841-2,2022-05-01 12:37:48,교육||아동교육||어린이집||어린이집-일반,False
38813,38814,712901,예사랑어린이집,,Yesarang Nursery School,Education,Other Education,126.64940989963672,37.59966590062047,대한민국,KOR,KOR,인천광역시,서구,,왕길동,,단봉로,12,295-1,2020-03-17 11:37:48,교육||아동교육||어린이집||어린이집-일반,False
38862,38863,27194432,YT어학원 인천 송도캠퍼스,,YT Language School Incheon Songdo Campus,Education,Other Education,126.65144836451687,37.39500286886454,대한민국,KOR,KOR,인천광역시,연수구,,송도동,,신송로125번길,7,3-5,2022-05-01 12:37:48,교육||학원||어학원||영어학원||영어학원-일반,False
38922,38923,27217618,열린학원,,open school,Education,Other Education,126.65082289006187,37.394228189122245,대한민국,KOR,KOR,인천광역시,연수구,,송도동,,해돋이로120번길,23,3-7,2022-08-12 13:15:03,교육||학원||입시학원||입시학원-일반,False
39006,39007,5886238,사과나무어린이집,,Apple Tree Nursery,Education,Other Education,126.5647611933698,37.49040947214944,대한민국,KOR,KOR,인천광역시,중구,,중산동,,하늘별빛로,66,1887-2,2021-12-23 15:49:18,교육||아동교육||어린이집||어린이집-일반,False
39165,39166,5885884,해바라기어린이집,,Sunflower Nursery,Education,Other Education,126.71780788592332,37.50032921320548,대한민국,KOR,KOR,인천광역시,부평구,,부평동,,부흥로243번길,39,65-7,2021-12-23 15:49:18,교육||아동교육||어린이집||어린이집-일반,False
39172,39173,5890688,인천안남초등학교 병설유치원,,Incheon Annam Elementary School  Auxiliary Kindergarten,Education,Other Education,126.7319108978889,37.54102791619641,대한민국,KOR,KOR,인천광역시,계양구,,계산동,,경명대로1114번길,26,34-2,2022-05-01 12:37:48,교육||아동교육||병설유치원,False
39389,39390,5902739,제일사랑어린이집,,Best Love Nursery School,Education,Other Education,126.64705969970387,37.5398860995692,대한민국,KOR,KOR,인천광역시,서구,,청라동,,청라한울로,95,115-1,2022-05-01 12:37:48,교육||아동교육||어린이집||어린이집-일반,False
39428,39429,5864250,은혜어린이집,,Eunhye Nursery,Education,Other Education,126.73350406861296,37.542070849076005,대한민국,KOR,KOR,인천광역시,계양구,,계산동,,경명대로1142번길,7,18-13,2020-04-01 14:31:02,교육||아동교육||어린이집||어린이집-일반,False
39685,39686,5888720,딩동댕어린이집,,Ding Dong Dang Nursery,Education,Other Education,126.73848256442416,37.5296244595105,대한민국,KOR,KOR,인천광역시,계양구,,작전동,,효서로,381,580,2020-06-30 0:00:00,교육||아동교육||어린이집||어린이집-일반,False
39697,39698,5886125,검단4동어린이집,,Geomdan 4-dong Nursery School,Education,Other Education,126.6695266595542,37.59218173627326,대한민국,KOR,KOR,인천광역시,서구,,당하동,,청마로34번길,6,1075-9,2022-05-01 12:37:48,교육||아동교육||어린이집||국공립어린이집,False
39701,39702,5871231,오즈나라어린이집,,Oznara Nursery School,Education,Other Education,126.68298324741718,37.41659397351831,대한민국,KOR,KOR,인천광역시,연수구,,연수동,,새말로,134,578-1,2021-12-23 15:49:18,교육||아동교육||어린이집||어린이집-일반,False
39762,39763,963621,상아유치원,,Ivory Kindergarten,Education,Other Education,126.74060769999792,37.54352569999551,대한민국,KOR,KOR,인천광역시,계양구,,병방동,,장제로,878,432-5,2022-08-18 12:00:50,교육||아동교육||유치원,False
39840,39841,5890810,예꿈어린이집,,Yes Dream Nursery,Education,Other Education,126.74081275457992,37.483940829540096,대한민국,KOR,KOR,인천광역시,부평구,,부개동,,항동로45번길,53-17,380,2019-08-08 23:05:41,교육||아동교육||어린이집||어린이집-일반,False
39947,39948,27189299,깨달아 알게하는 국어논술학원,,Korean language essay school,Education,Other Education,126.73811304555895,37.5340947324133,대한민국,KOR,KOR,인천광역시,계양구,,계산동,,도두리로,33,1083-4,2022-07-19 20:20:05,교육||학원||논술||논술-일반,False
39951,39952,3242553,인주초등학교병설유치원,인천인주초등학교병설유치원,Kindergarten attached to Inju Elementary School,Education,Other Education,126.67353720898387,37.44234869862306,대한민국,KOR,KOR,인천광역시,미추홀구,,학익동,,매소홀로475번길,53,40,2019-11-14 23:06:52,교육||아동교육||병설유치원,False
39957,39958,5900887,금호유치원,,Kumho Kindergarten,Education,Other Education,126.63187080027384,37.450342799928656,대한민국,KOR,KOR,인천광역시,미추홀구,,용현동,,매소홀로,54,647-1,2021-12-23 15:49:18,교육||아동교육||유치원,False
