,OID_,id,name,name_alias,name_eng,category,subcategory,lon,lat,country,country_code,language_code,sd,sgg,sgg_sub,emd,ri,street,number_st,number_jb,update_date,dwnm,result
32,33,4690613,스윗코칭학원,,Sweet Coaching Academy,Education,Other Education,126.68109529999992,37.41931669999979,대한민국,KOR,KOR,인천광역시,연수구,,연수동,,새말로107번길,15,574-4,2022-08-08 10:29:42,교육||학원||보습학원,False
59,60,1872483,음식나라조리학원 계양점,,Food Nara Cooking School  Gyeyang Branch,Education,Other Education,126.73126279999995,37.54345909999982,대한민국,KOR,KOR,인천광역시,계양구,,계산동,,경명대로,1117,918-8,2022-08-18 12:00:50,교육||학원||요리학원||요리학원-일반,False
95,96,5902683,별하어린이집, ,Byeolha Daycare,Education,Other Education,126.5538651002368,37.49120830004495,대한민국,KOR,KOR,인천광역시,중구,,중산동,,은하수로,377,1878-1,2022-08-12 13:15:03,교육||아동교육||어린이집||어린이집-일반,False
127,128,5885368,롯데캐슬어린이집,,Lotte Castle Daycare,Education,Other Education,126.7187469609836,37.45470186911263,대한민국,KOR,KOR,인천광역시,남동구,,구월동,,호구포로,803,24,2021-12-23 15:49:18,교육||아동교육||어린이집||어린이집-일반,False
223,224,5887288,샛별어린이집,,Saetbyeol Daycare,Education,Other Education,126.67491149999992,37.423880899999766,대한민국,KOR,KOR,인천광역시,연수구,,연수동,,새말로,21,536,,교육||아동교육||어린이집||어린이집-일반,False
250,251,742175,소라유치원,,Sora Kindergarten,Education,Other Education,126.68915975280989,37.45414303735848,대한민국,KOR,KOR,인천광역시,미추홀구,,주안동,,경원대로,799,253-14,2019-11-14 23:22:22,교육||아동교육||유치원,False
297,298,2604244,인천고잔유치원,고잔유치원,Incheon Gojan Kindergarten,Education,Other Education,126.72173506713592,37.39669831807325,대한민국,KOR,KOR,인천광역시,남동구,,논현동,,앵고개로815번길,71,738-3,2019-11-14 23:28:46,교육||아동교육||유치원,False
353,354,26879771,루트수학,,root math,Education,Other Education,126.73303031948696,37.515798425583,대한민국,KOR,KOR,인천광역시,부평구,,삼산동,,장제로340번길,14,436-2,2022-05-01 12:37:48,교육||학원||수학학원||수학학원-일반,False
390,391,5871819,온누리어린이집,,Onnuri Daycare Center,Education,Other Education,126.73908398365433,37.40592996809411,대한민국,KOR,KOR,인천광역시,남동구,,논현동,,청능대로718번길,7,577,2021-12-23 15:49:18,교육||아동교육||어린이집||어린이집-일반,False
537,538,3586627,청천2동어린이집,,Cheongcheon 2-dong Day care Center,Education,Other Education,126.71521270503588,37.50664130392031,대한민국,KOR,KOR,인천광역시,부평구,,청천동,,원길로34번길,8,259-33,2022-05-01 12:37:48,교육||아동교육||어린이집||국공립어린이집,False
669,670,27107299,정석수학,,Jeongseok Mathematics,Education,Other Education,126.65957161360824,37.4414003234974,대한민국,KOR,KOR,인천광역시,미추홀구,,학익동,,매소홀로,338,721,2022-05-01 12:37:48,교육||학원||수학학원||수학학원-일반,False
706,707,1263619,포커스수학학원,,focus math academy,Education,Other Education,126.66868543933188,37.519042973801085,대한민국,KOR,KOR,인천광역시,서구,,신현동,,염곡로383번길,4,107-9,2022-05-01 12:37:48,교육||학원||보습학원,False
789,790,27184165,티아이지,,T.G,Education,Other Education,126.71023955944192,37.40032197772474,대한민국,KOR,KOR,인천광역시,남동구,,논현동,,논현로46번길,39,642-2,2022-05-01 12:37:48,교육||학원||어학원||어학원-일반,False
857,858,3133359,투킴수학,,Tookim Mathematics,Education,Other Education,126.70395599999993,37.47867499999981,대한민국,KOR,KOR,인천광역시,부평구,,십정동,,아트센터로,118,607,2022-05-01 12:37:48,교육||학원||수학학원||수학학원-일반,False
887,888,5885804,아이들세상어린이집,,children's world daycare,Education,Other Education,126.67348269999997,37.408915699999774,대한민국,KOR,KOR,인천광역시,연수구,,동춘동,,먼우금로,126,924,,교육||아동교육||어린이집||어린이집-일반,False
938,939,3125782,어울림음악학원,,Oullim Music Academy,Education,Other Education,126.70503300012788,37.50244500047321,대한민국,KOR,KOR,인천광역시,부평구,,산곡동,,원적로,344,507,2022-08-24 14:41:06,교육||학원||음악학원||음악학원-일반,False
942,943,329412,송현유치원,,Songhyeon Kindergarten,Education,Other Education,126.63485979999976,37.48339189999973,대한민국,KOR,KOR,인천광역시,동구,,송현동,,화수로,40,66-777,2022-08-18 12:00:50,교육||아동교육||유치원,False
1061,1062,20200397,유진영어,,Eugene English,Education,Other Education,126.64442670021894,37.536878967142215,대한민국,KOR,KOR,인천광역시,서구,,청라동,,청라커낼로319번길,3-1,144-24,2021-12-23 15:49:18,교육||학원||어학원||영어학원||영어학원-일반,False
1099,1100,27145626,세종학원,,Sejong Academy,Education,Other Education,126.71427582167487,37.45243832918918,대한민국,KOR,KOR,인천광역시,남동구,,구월동,,용천로,31,1215-9,2022-05-01 12:37:48,교육||학원||보습학원,False
1128,1129,20484794,명륜보습학원,,Myeongryun Moisture Academy,Education,Other Education,126.73176191624098,37.53716059305842,대한민국,KOR,KOR,인천광역시,계양구,,계산동,,계산로,173,66,2022-05-01 12:37:48,교육||학원||보습학원,False
1130,1131,6500596,국공립해나어린이집,,National and Public Hana Daycare Center,Education,Other Education,126.67774119999996,37.41054859999977,대한민국,KOR,KOR,인천광역시,연수구,,동춘동,,청능대로,124,923,2022-08-12 13:15:03,교육||아동교육||어린이집||국공립어린이집,False
1172,1173,3242382,양지초등학교병설유치원,인천양지초등학교병설유치원,Kindergarten attached to Yangji Elementary School,Education,Other Education,126.67135935576589,37.5400723137912,대한민국,KOR,KOR,인천광역시,서구,,심곡동,,승학로197번길,11,144-2,2020-01-14 23:39:43,교육||아동교육||병설유치원,False
1241,1242,1030970,해승유치원,,Haesung Kindergarten,Education,Other Education,126.74022049999996,37.53340199999981,대한민국,KOR,KOR,인천광역시,계양구,,작전동,,,,912-10,2022-05-01 12:37:48,교육||아동교육||유치원,False
1280,1281,3429127,대인학원,,Daein Academy,Education,Other Education,126.67318159999996,37.458701799999794,대한민국,KOR,KOR,인천광역시,미추홀구,,도화동,,제일로,26,458-12,2022-05-01 12:37:48,교육||학원||보습학원,False
1281,1282,5887127,냇마을어린이집,,Nat Village Daycare Center,Education,Other Education,126.7276319314348,37.40305672879778,대한민국,KOR,KOR,인천광역시,남동구,,논현동,,소래역로,93,604-1,2022-08-16 16:52:33,교육||아동교육||어린이집||어린이집-일반,False
1321,1322,5885683,꿈별어린이집,,Dream Byeol Daycare,Education,Other Education,126.65233038623762,37.6024338470628,대한민국,KOR,KOR,인천광역시,서구,,왕길동,,봉수대로1440번길,29,634-1,2022-08-08 10:29:42,교육||아동교육||어린이집||어린이집-일반,False
1333,1334,460130,청학숲유치원,,Cheonghak Forest Kindergarten,Education,Other Education,126.6644294552199,37.431530006783454,대한민국,KOR,KOR,인천광역시,연수구,,청학동,,청학로,49,22-4,2020-01-14 23:38:08,교육||아동교육||유치원,False
1368,1369,5879843,소담어린이집,,Sodam Nursery School,Education,Other Education,126.74033929999992,37.44131479999977,대한민국,KOR,KOR,인천광역시,남동구,,만수동,,담방로,22-16,1048,2021-12-23 15:49:18,교육||아동교육||어린이집||어린이집-일반,False
1441,1442,20473545,강화연세학원,,Ganghwa Yonsei Academy,Education,Other Education,126.50245016103987,37.7427682514522,대한민국,KOR,KOR,인천광역시,강화군,,강화읍,갑곳리,강화대로248번길,23,432-4,2022-08-24 14:41:06,교육||학원||보습학원,False
1477,1478,2149995,코끼리유치원,,Elephant Kindergarten,Education,Other Education,126.48276329999985,37.7360278999999,대한민국,KOR,KOR,인천광역시,강화군,,강화읍,남산리,충렬사로,52-2,343-6,2022-05-01 12:37:48,교육||아동교육||유치원,False
1518,1519,495216,연희유치원,,Yeonhee Kindergarten,Education,Other Education,126.67928869999996,37.54431609999984,대한민국,KOR,KOR,인천광역시,서구,,심곡동,,탁옥로85번길,6,285-4,2022-05-01 12:37:48,교육||아동교육||유치원,False
1600,1601,5886852,파란나라어린이집,,blue country daycare,Education,Other Education,126.68615226735244,37.42332772891981,대한민국,KOR,KOR,인천광역시,연수구,,연수동,,먼우금로,302,534,2022-08-16 16:52:33,교육||아동교육||어린이집||어린이집-일반,False
1664,1665,478148,남양유치원,,Namyang Kindergarten,Education,Other Education,126.7159043289659,37.431179405501446,대한민국,KOR,KOR,인천광역시,남동구,,남촌동,,남촌동로3번길,35,332-6,2019-11-14 23:19:30,교육||아동교육||유치원,False
1688,1689,27048132,수타민수학학원,,Sutamin Mathematics Academy,Education,Other Education,126.70866239989492,37.50616893974908,대한민국,KOR,KOR,인천광역시,부평구,,산곡동,,안남로,261,124-25,2022-08-16 16:52:33,교육||학원||수학학원||수학학원-일반,False
1711,1712,27084346,연세바이올린교습소,,Yonsei Violin School,Education,Other Education,126.48853239999984,37.49494329999982,대한민국,KOR,KOR,인천광역시,중구,,운서동,,영종대로,84,2789-1,2022-05-01 12:37:48,교육||학원||음악학원||바이올린,False
1713,1714,27086160,KES수학전문학원,케이이에스수학전문학원,KES Math Academy,Education,Other Education,126.69778109614292,37.593829031200826,대한민국,KOR,KOR,인천광역시,서구,,원당동,,원당대로,865,824-10,2022-08-12 13:15:03,교육||학원||수학학원||수학학원-일반,False
1727,1728,27110381,토스어학원,,Toss Language School,Education,Other Education,126.71547369999993,37.59480489999984,대한민국,KOR,KOR,인천광역시,서구,,원당동,,이음5로,70,1030-5,2022-08-12 13:15:03,교육||학원||어학원||영어학원||영어학원-일반,False
1736,1737,27130271,카이로스학원,,Kairos Academy,Education,Other Education,126.71350151582888,37.52550314161002,대한민국,KOR,KOR,인천광역시,계양구,,효성동,,아나지로,195,273-102,2022-08-16 16:52:33,교육||학원||보습학원,False
1747,1748,27160237,리틀피카소미술교습소,,Little Picasso Art Academy,Education,Other Education,126.64514561525048,37.425884941441126,대한민국,KOR,KOR,인천광역시,연수구,,옥련동,,독배로,58,633,2022-08-16 16:52:33,교육||학원||미술학원||미술학원-일반,False
1788,1789,27193908,아이스크림 홈런 동양센터,,Ice Cream Home Run Oriental Center,Education,Other Education,126.75936569180492,37.559377640655725,대한민국,KOR,KOR,인천광역시,계양구,,동양동,,동양로,129,641-4,2022-05-13 10:36:55,교육||교육원||교육원-일반,False
1806,1807,27226899,빌드업 영어,,build up english,Education,Other Education,126.70786717212088,37.460543365758696,대한민국,KOR,KOR,인천광역시,남동구,,간석동,,석산로,143,285-7,2022-08-12 13:15:03,교육||학원||어학원||영어학원||영어학원-일반,False
1848,1849,27454000,한음피아노,,Hanum piano,Education,Other Education,126.70927514293545,37.51445068865816,대한민국,KOR,KOR,인천광역시,부평구,,청천동,,세월천로,16,176,2022-08-16 16:52:33,교육||학원||음악학원||피아노||피아노-일반,False
1860,1861,27181900,디오수학,,Dio Math,Education,Other Education,126.69581328255788,37.45216594655167,대한민국,KOR,KOR,인천광역시,남동구,,구월동,,문화서로65번길,10-39,1104-2,2022-08-12 13:15:03,교육||학원||공부방||공부방-일반,False
1921,1922,4338242,이튼유치원,,Eaton Kindergarten,Education,Other Education,126.51997836275375,37.48131135514157,대한민국,KOR,KOR,인천광역시,중구,,운남동,,남디로안길,34-7,1676-2,2022-08-16 16:52:33,교육||아동교육||유치원,False
1928,1929,3242557,인천동부초등학교 병설유치원,동부초등학교병설유치원,Incheon Dongbu Elementary School  Auxiliary Kindergarten,Education,Other Education,126.7276013998489,37.46289521566826,대한민국,KOR,KOR,인천광역시,남동구,,만수동,,만수서로33번길,25,111-5,2022-05-01 12:37:48,교육||아동교육||병설유치원,False
1932,1933,3242385,신석초등학교병설유치원,인천신석초등학교병설유치원,Kindergarten attached to Shinseok Elementary School,Education,Other Education,126.6638874999999,37.51090829999979,대한민국,KOR,KOR,인천광역시,서구,,석남동,,새오개로,9,208-2,2021-12-23 15:49:18,교육||아동교육||병설유치원,False
1962,1963,27091469,삼성중장비운전학원,,Samsung Heavy Equipment Driving School,Education,Other Education,126.67707151796787,37.62621596943375,대한민국,KOR,KOR,인천광역시,서구,,대곡동,,설원로,102,415-8,2022-08-12 13:15:03,"교육||학원||직업,기술학원||기술학원",False
2011,2012,27286233,인천미추홀경찰서직장어린이집,인천미추홀경찰서직장어린이집,Incheon Michuhol Police Station Workplace Daycare Center,Education,Other Education,126.65422266109788,37.443060620001965,대한민국,KOR,KOR,인천광역시,미추홀구,,학익동,,매소홀로290번길,32,489-2,2022-08-04 10:04:43,교육||아동교육||어린이집||어린이집-일반,False
2041,2042,5892012,주안직업상담사전문학원,,Juan Vocational Counseling Academy,Education,Other Education,126.68061123855593,37.45999668897346,대한민국,KOR,KOR,인천광역시,미추홀구,,주안동,,미추홀대로,702,175-3,2019-11-14 23:16:02,"교육||학원||직업,기술학원||직업,기술학원-일반",False
2043,2044,27172911,리틀 피아니스트 음악학원,,Little Pianist Music Academy,Education,Other Education,126.55747998029479,37.48729924559717,대한민국,KOR,KOR,인천광역시,중구,,중산동,,하늘달빛로,94,1875-3,2022-08-16 16:52:33,교육||학원||음악학원||음악학원-일반,False
2089,2090,27428799,홍선생미술 인천남동구지사,,"Teacher Hong Art, Incheon Namdong-gu Branch",Education,Other Education,126.74905525407193,37.42484450645316,대한민국,KOR,KOR,인천광역시,남동구,,서창동,,서창남순환로,223,687-3,2022-08-08 10:29:42,교육||학원||학습지||프랜차이즈||홍선생미술,False
2099,2100,27114552,에이스항공직업전문학교,,Ace Aviation Vocational College,Education,Other Education,126.72446149713292,37.491824691371896,대한민국,KOR,KOR,인천광역시,부평구,,부평동,,경원대로,1395,159-15,2022-08-08 10:29:42,"교육||학원||직업,기술학원||항공학원",False
2107,2108,27115758,프라미스영어학원,,Promise English Academy,Education,Other Education,126.64891833528787,37.398867557494555,대한민국,KOR,KOR,인천광역시,연수구,,송도동,,신송로,170,20-12,2022-08-12 13:15:03,교육||학원||어학원||영어학원||영어학원-일반,False
2182,2183,5705667,에이스화인유치원,,Ace Fine Kindergarten,Education,Other Education,126.72104,37.386172399999765,대한민국,KOR,KOR,인천광역시,남동구,,논현동,,에코중앙로84번길,9,766-3,2022-05-01 12:37:48,교육||아동교육||유치원,False
2234,2235,5713488,인천대학교 평생교육원 제물포캠퍼스,인천대 제물포캠퍼스평생교육원,Incheon National University Lifelong Education Center Jemulpo Campus,Education,Other Education,126.65890339956393,37.47028160060908,대한민국,KOR,KOR,인천광역시,미추홀구,,도화동,,석정로,165,193-12,2022-05-01 12:37:48,교육||교육원||평생교육원||대학부설,False
2243,2244,5891402,아이뜰어린이집,,child garden daycare,Education,Other Education,126.67738754021128,37.59194662884137,대한민국,KOR,KOR,인천광역시,서구,,당하동,,청마로,170,1099-2,2021-12-23 15:49:18,교육||아동교육||어린이집||어린이집-일반,False
2248,2249,27112236,파고다 차이랑 중국어 구월캠퍼스,,Pagoda Chai Lang Chinese Guwol Campus,Education,Other Education,126.70806432740288,37.45722410808747,대한민국,KOR,KOR,인천광역시,남동구,,간석동,,남동대로837번길,5,292-2,2022-08-12 13:15:03,교육||학원||어학원||중국어학원||중국어학원-일반,False
2296,2297,1256980,여성의광장어린이집,,women's square Day care Center,Education,Other Education,126.66496249999994,37.412948699999774,대한민국,KOR,KOR,인천광역시,연수구,,동춘동,,앵고개로,183,920,2022-05-01 12:37:48,교육||아동교육||어린이집||국공립어린이집,False
2320,2321,27424195,엠베스트SE 검단아라캠퍼스학원,,Mbest SE Geomdan Ara Campus Academy,Education,Other Education,126.71153669999984,37.59384999999982,대한민국,KOR,KOR,인천광역시,서구,,원당동,,이음5로,34,산68-4,2022-08-30 9:43:30,교육||학원||보습학원,False
2323,2324,27173454,김혜리 국어학원,,Hyeri Kim Korean Language School,Education,Other Education,126.72435707166893,37.40003765598907,대한민국,KOR,KOR,인천광역시,남동구,,논현동,,논고개로,101,649-3,2022-06-07 17:23:36,교육||학원||보습학원,False
2346,2347,27126515,쇼팽심포니음악학원,,Chopin Symphony School of Music,Education,Other Education,126.75873609999996,37.55934709999983,대한민국,KOR,KOR,인천광역시,계양구,,동양동,,동양로,123,641-8,2022-09-06 15:18:26,교육||학원||음악학원||음악학원-일반,False
2353,2354,4340861,하모니음악학원,,Harmony Music Academy,Education,Other Education,126.7249731418539,37.541497082008405,대한민국,KOR,KOR,인천광역시,계양구,,계산동,,계양대로194번길,20,954-1,2022-08-12 13:15:03,교육||학원||음악학원||피아노||피아노-일반,False
2406,2407,5889968,신나는어린이집,,fun daycare,Education,Other Education,126.71152633528152,37.50770654951614,대한민국,KOR,KOR,인천광역시,부평구,,청천동,,안남로,272,200,2019-12-10 17:47:44,교육||아동교육||어린이집||어린이집-일반,False
2415,2416,5874852,꿈꾸는어린이집, ,dream nursery,Education,Other Education,126.62443469972784,37.52543380018279,대한민국,KOR,KOR,인천광역시,서구,,청라동,,비즈니스로,10,102-16,2018-12-03 20:39:11,교육||아동교육||어린이집||어린이집-일반,False
2446,2447,1262748,해맑은어린이집,,Sunny Daycare,Education,Other Education,126.72746286343391,37.45302600936439,대한민국,KOR,KOR,인천광역시,남동구,,만수동,,하촌서로47번길,43,923-7,2021-12-23 15:49:18,교육||아동교육||어린이집||어린이집-일반,False
2457,2458,5871232,다니엘어린이집,,Daniel Daycare,Education,Other Education,126.71569189999992,37.5026720999998,대한민국,KOR,KOR,인천광역시,부평구,,산곡동,,부영로,165,294-35,,교육||아동교육||어린이집||어린이집-일반,False
2483,2484,3128452,청파학원,,Cheongpa Academy,Education,Other Education,126.66724699077989,37.51764770003619,대한민국,KOR,KOR,인천광역시,서구,,신현동,,원창로,162,83-12,2022-08-16 16:52:33,교육||학원||입시학원||입시학원-일반,False
2497,2498,27172746,브루잉커피바리스타학원,,Brewing Coffee Barista Academy,Education,Other Education,126.56359309999988,37.4887473999998,대한민국,KOR,KOR,인천광역시,중구,,중산동,,하늘별빛로65번길,7-4,1885-1,2022-08-12 13:15:03,"교육||학원||직업,기술학원||바리스타",False
2520,2521,27081802,청라아트피플미술학원,,Cheongna Art People Academy of Fine Arts,Education,Other Education,126.64484130837884,37.53344696591371,대한민국,KOR,KOR,인천광역시,서구,,청라동,,청라커낼로,280,157-5,2022-08-12 13:15:03,교육||학원||미술학원||미술학원-일반,False
2559,2560,20055181,달란트피아노,,talent piano,Education,Other Education,126.65219382434488,37.46065387827126,대한민국,KOR,KOR,인천광역시,미추홀구,,숭의동,,장천로66번길,13,207-41,2021-12-23 15:49:18,교육||학원||음악학원||피아노||피아노-일반,False
2564,2565,964440,큰별유치원,,Big Star Kindergarten,Education,Other Education,126.67676819999994,37.40723419999977,대한민국,KOR,KOR,인천광역시,연수구,,동춘동,,원인재로,81,924-3,2022-08-24 14:41:06,교육||아동교육||유치원,False
2569,2570,3138555,부평사임당 어린이집,,Bupyeong Saimdang Day care Center,Education,Other Education,126.73165692135692,37.49762787786169,대한민국,KOR,KOR,인천광역시,부평구,,부평동,,부흥로360번길,10,132-31,2019-11-14 23:29:08,교육||아동교육||어린이집||어린이집-일반,False
2570,2571,27093505,제이영수전문학원,,J Youngsoo Academy,Education,Other Education,126.63967486314684,37.597354080068605,대한민국,KOR,KOR,인천광역시,서구,,왕길동,,단봉로,107,693-1,2022-08-16 16:52:33,교육||학원||보습학원,False
2573,2574,1073653,꿈동산유치원,,Dream Garden Kindergarten,Education,Other Education,126.66970550000188,37.42397419999956,대한민국,KOR,KOR,인천광역시,연수구,,청학동,,용담로,3,451,2022-08-16 16:52:33,교육||아동교육||유치원,False
2603,2604,3131928,에벤에셀영수학원,,Ebenezer English Academy,Education,Other Education,126.6706146628869,37.408399231493355,대한민국,KOR,KOR,인천광역시,연수구,,동춘동,,앵고개로246번길,10,937-1,2022-07-05 16:31:26,교육||학원||어학원||영어학원||영어학원-일반,False
2638,2639,5702449,맑은내어린이집,부평맑은내어린이집,Sunny My Daycare Center,Education,Other Education,126.7052669445369,37.51981613276429,대한민국,KOR,KOR,인천광역시,부평구,,청천동,,마장로468번길,12-6,9-46,2021-12-23 15:49:18,교육||아동교육||어린이집||국공립어린이집,False
2666,2667,3242900,경서초등학교병설유치원,인천경서초등학교병설유치원,Kindergarten attached to Gyeongseo Elementary School,Education,Other Education,126.65090253111087,37.55639188398663,대한민국,KOR,KOR,인천광역시,서구,,경서동,,경서로31번길,31,741,2020-01-14 23:43:25,교육||아동교육||병설유치원,False
2673,2674,27069152,본엘리트학원,,Bon Elite Academy,Education,Other Education,126.64917579999997,37.39717209999976,대한민국,KOR,KOR,인천광역시,연수구,,송도동,,신송로,153,21-38,2022-08-12 13:15:03,교육||학원||보습학원,False
2697,2698,5877161,수호천사어린이집,,Guardian Angel Daycare,Education,Other Education,126.73233237777998,37.52781957796561,대한민국,KOR,KOR,인천광역시,계양구,,작전동,,효서로,324,169,2021-12-23 15:49:18,교육||아동교육||어린이집||어린이집-일반,False
2725,2726,5693454,초원피아노,,meadow piano,Education,Other Education,126.67105963094689,37.5160416473834,대한민국,KOR,KOR,인천광역시,서구,,신현동,,율도로77번길,28-1,285-35,2021-12-23 15:49:18,교육||학원||음악학원||피아노||피아노-일반,False
2779,2780,1252280,정철어학원주니어 논현캠퍼스,,Jeongcheol Language School Junior Nonhyeon Campus,Education,Other Education,126.72380802549894,37.401932667484765,대한민국,KOR,KOR,인천광역시,남동구,,논현동,,논고개로,121,631-11,2022-05-01 12:37:48,교육||학원||어학원||영어학원||정철어학원주니어,False
2808,2809,27091497,아이짐힘찬태권도,,Igym Himchan Taekwondo,Education,Other Education,126.69811299999996,37.59255319999984,대한민국,KOR,KOR,인천광역시,서구,,당하동,,고산후로95번길,10,1030-7,2022-05-01 12:37:48,"교육||학원||스포츠,레크레이션학원||태권도",False
2819,2820,3554358,통문장영어,,full sentence english,Education,Other Education,126.69817988001388,37.45945840233667,대한민국,KOR,KOR,인천광역시,남동구,,간석동,,경인로524번길,39,518-48,2019-11-14 0:00:00,교육||학원||어학원||영어학원||영어학원-일반,False
2885,2886,5884417,아이랑어린이집,,child and nursery,Education,Other Education,126.69129282231223,37.420792525756255,대한민국,KOR,KOR,인천광역시,연수구,,연수동,,원인재로,315,533,2021-12-23 15:49:18,교육||아동교육||어린이집||어린이집-일반,False
2911,2912,27161797,재능스스로학습센터 남동직영학원,,Talent Self-Learning Center Namdong Academy,Education,Other Education,126.74722349553792,37.42519251082376,대한민국,KOR,KOR,인천광역시,남동구,,서창동,,서창남순환로215번길,27,691-1,2022-05-01 12:37:48,교육||학원||학습지||프랜차이즈||재능교육,False
2912,2913,5664920,아소비 인천 검암센터점,,Asobi Incheon Geomam Center Branch,Education,Other Education,126.67249286113888,37.5565079144254,대한민국,KOR,KOR,인천광역시,서구,,검암동,,도요지로202번길,6-2,678-4,2022-05-01 12:37:48,교육||학원||공부방||프랜차이즈||아소비,False
2945,2946,5862291,해와달어린이집,,sun and moon daycare,Education,Other Education,126.66845990737194,37.40132814557131,대한민국,KOR,KOR,인천광역시,연수구,,동춘동,,먼우금로,19,943,2021-12-23 15:49:18,교육||아동교육||어린이집||어린이집-일반,False
2968,2969,27122275,송도에쥬어학원,,Songdo Ejure Academy,Education,Other Education,126.64969599999993,37.39793379999976,대한민국,KOR,KOR,인천광역시,연수구,,송도동,,신송로,154,20-20,2022-08-30 9:43:30,교육||학원||어학원||어학원-일반,False
2969,2970,27096494,눈높이 간석러닝센터,눈높이러닝센터 간석학원,Noonnoppi Ganseok Learning Center,Education,Other Education,126.70794481025888,37.46056231517808,대한민국,KOR,KOR,인천광역시,남동구,,간석동,,석산로,143,285-7,2022-08-24 14:41:06,교육||학원||학습지||프랜차이즈||눈높이,False
2977,2978,3118837,두드림수학학원,,Do Dream Math Academy,Education,Other Education,126.64745599999993,37.42450699999978,대한민국,KOR,KOR,인천광역시,연수구,,옥련동,,독배로40번길,47,462-20,2022-08-12 13:15:03,교육||학원||수학학원||수학학원-일반,False
2991,2992,5676403,백운이용학원 국비지원,,Baekwoon Yonge Academy  State-funded support,Education,Other Education,126.70939111671989,37.4838096296746,대한민국,KOR,KOR,인천광역시,부평구,,십정동,,백운로45번길,10,182-52,2022-05-01 12:37:48,"교육||학원||직업,기술학원||미용||미용-일반",False
3051,3052,4406428,현실용음악학원,현실용음악,real music academy,Education,Other Education,126.72399179999996,37.48882289999981,대한민국,KOR,KOR,인천광역시,부평구,,부평동,,동수북로158번길,3,725-11,2022-08-16 16:52:33,교육||학원||음악학원||실용음악학원||실용음악학원-일반,False
3108,3109,3132201,삼성영어 정일학원,,Samsung English Jeongil Academy,Education,Other Education,126.67271823993092,37.5169477373861,대한민국,KOR,KOR,인천광역시,서구,,신현동,,가정로,359,283-2,2022-08-18 12:00:50,교육||학원||보습학원,False
3119,3120,5721577,아이윌음악학원,IWill음악학원,iwill music academy,Education,Other Education,126.6567307618329,37.53222932468767,대한민국,KOR,KOR,인천광역시,서구,,청라동,,청라에메랄드로,78,167-16,2022-08-16 16:52:33,교육||학원||음악학원||피아노||피아노-일반,False
3125,3126,5860946,꽃뜰어린이집,,Flower Garden Nursery,Education,Other Education,126.73226372123452,37.58031514666716,대한민국,KOR,KOR,인천광역시,계양구,,오류동,,황어로115번길,12,180,2022-05-01 12:37:48,교육||아동교육||어린이집||어린이집-일반,False
3126,3127,288643,해나라어린이집,,Haenara Nursery School,Education,Other Education,126.66827965984288,37.50085432598329,대한민국,KOR,KOR,인천광역시,서구,,석남동,,석남로,60,589-12,2020-01-14 23:41:43,교육||아동교육||어린이집||어린이집-일반,False
3157,3158,629236,풍림햇살어린이집,풍림햇살어린이집,Poonglim Sunshine Daycare Center,Education,Other Education,126.65362839999985,37.3952233999997,대한민국,KOR,KOR,인천광역시,연수구,,송도동,,신송로118번길,6,2-7,2022-08-18 12:00:50,교육||아동교육||어린이집||어린이집-일반,False
3217,3218,5711916,송선생영어교습소,,Sensei Song English School,Education,Other Education,126.65621509999995,37.39054189999976,대한민국,KOR,KOR,인천광역시,연수구,,송도동,,해돋이로84번길,30,3-38,2021-12-23 15:49:18,교육||학원||어학원||영어학원||영어학원-일반,False
3225,3226,5720568,베스트컴퓨터학원,,best computer academy,Education,Other Education,126.6483329423712,37.42763283318586,대한민국,KOR,KOR,인천광역시,연수구,,옥련동,,한진로,55,137-1,2022-08-16 16:52:33,"교육||학원||직업,기술학원||컴퓨터||컴퓨터-일반",False
3230,3231,5864538,별꽃어린이집,,Star Flower Nursery,Education,Other Education,126.73750248101607,37.44089175749826,대한민국,KOR,KOR,인천광역시,남동구,,만수동,,담방로21번길,23,1045,2021-12-23 15:49:18,교육||아동교육||어린이집||어린이집-일반,False
3259,3260,4327705,하늘다솜어린이집,,Sky Dasom Daycare,Education,Other Education,126.69554870456489,37.405366884427664,대한민국,KOR,KOR,인천광역시,남동구,,고잔동,,남동대로215번길,30,636,2022-05-01 12:37:48,교육||아동교육||어린이집||국공립어린이집,False
3288,3289,5862756,엄지어린이집,,thumb nursery,Education,Other Education,126.73846339999996,37.51850519999981,대한민국,KOR,KOR,인천광역시,부평구,,삼산동,,후정동로,12,170-1,,교육||아동교육||어린이집||어린이집-일반,False
3306,3307,27162792,동춘수학,,Dongchun Mathematics,Education,Other Education,126.67063346238092,37.40841823145355,대한민국,KOR,KOR,인천광역시,연수구,,동춘동,,앵고개로246번길,10,937-1,2022-08-16 16:52:33,교육||학원||수학학원||수학학원-일반,False
3358,3359,5885927,예쁜무지개어린이집,,Pretty Rainbow Nursery School,Education,Other Education,126.73583904114838,37.45853857452257,대한민국,KOR,KOR,인천광역시,남동구,,만수동,,백범로124번길,43,29,2021-12-23 15:49:18,교육||아동교육||어린이집||어린이집-일반,False
3359,3360,6193397,제물포타일기술학원,,Jemulpo Tile Technology Academy,Education,Other Education,126.71025079999994,37.47858809999979,대한민국,KOR,KOR,인천광역시,부평구,,십정동,,경인로,771,575-23,2022-05-01 12:37:48,"교육||학원||직업,기술학원||직업,기술학원-일반",False
3393,3394,3363188,구립중산어린이집,중산어린이집,Municipal Zhongshan Daycare Center,Education,Other Education,126.5504392009478,37.485788759209846,대한민국,KOR,KOR,인천광역시,중구,,중산동,,은하수로,465,1871-5,2022-05-01 12:37:48,교육||아동교육||어린이집||국공립어린이집,False
3459,3460,27133152,메이플베어 송도,,Maple Bear Songdo,Education,Other Education,126.65108952451686,37.39457714044615,대한민국,KOR,KOR,인천광역시,연수구,,송도동,,신송로125번길,13,3-6,2022-08-18 12:00:50,교육||학원||어학원||어학원-일반,False
3460,3461,866933,행복한유치원,,happy kindergarten,Education,Other Education,126.73772823852796,37.40484452325135,대한민국,KOR,KOR,인천광역시,남동구,,논현동,,포구로,64-14,577,2022-08-18 12:00:50,교육||아동교육||유치원,False
3492,3493,5721860,최윤경음악학원,,Choi Yunkyung Music Academy,Education,Other Education,126.7053779660949,37.500432956127085,대한민국,KOR,KOR,인천광역시,부평구,,산곡동,,부흥로123번길,41,263-40,2022-08-24 14:41:06,교육||학원||음악학원||음악학원-일반,False
3593,3594,5861379,에코어린이집,,Eco Daycare,Education,Other Education,126.73071276147816,37.39528484299864,대한민국,KOR,KOR,인천광역시,남동구,,논현동,,논고개로,17,774-1,2021-12-23 15:49:18,교육||아동교육||어린이집||어린이집-일반,False
3639,3640,27083391,어린음악대 서창예샘원 음악학원,,Young Music College Seochang Ye Saemwon Music Academy,Education,Other Education,126.74908091670093,37.43423775337128,대한민국,KOR,KOR,인천광역시,남동구,,서창동,,독곡로,52,543-2,2022-08-16 16:52:33,교육||학원||음악학원||음악학원-일반,False
3742,3743,1877970,논현 씨앤씨 미술학원,씨앤씨미술학원,Nonhyeon CNC Art Academy,Education,Other Education,126.72394349999996,37.40138199999978,대한민국,KOR,KOR,인천광역시,남동구,,논현동,,청능대로,583,631-9,2022-09-06 15:18:26,교육||학원||미술학원||미술학원-일반,False
3747,3748,27069537,원투영수학원,,One Two Young Water Academy,Education,Other Education,126.73727806747092,37.49711853888419,대한민국,KOR,KOR,인천광역시,부평구,,부개동,,동수천로,132,502-9,2022-08-12 13:15:03,교육||학원||어학원||영어학원||영어학원-일반,False
3778,3779,417928,영락어린이집,,Youngnak Daycare Center,Education,Other Education,126.68296696673787,37.44766143135097,대한민국,KOR,KOR,인천광역시,미추홀구,,주안동,,인하로,314,1495-6,2022-08-18 12:00:50,교육||아동교육||어린이집||어린이집-일반,False
3789,3790,27182230,토모수학학원,,Tomo Math Academy,Education,Other Education,126.73273749999996,37.455640099999776,대한민국,KOR,KOR,인천광역시,남동구,,만수동,,백범로,132,39,2022-08-12 13:15:03,교육||학원||보습학원,False
3850,3851,3242567,부개초등학교병설유치원,인천부개초등학교병설유치원,Kindergarten attached to Bugae Elementary School,Education,Other Education,126.73885784363397,37.485696211317595,대한민국,KOR,KOR,인천광역시,부평구,,부개동,,마분로,9,356,2019-11-14 23:28:26,교육||아동교육||병설유치원,False
3949,3950,20027198,등대통문장영어,,Lighthouse Tongmunjang English,Education,Other Education,126.73540399999996,37.40951499999978,대한민국,KOR,KOR,인천광역시,남동구,,논현동,,청능대로715번길,62,599-1,2021-12-23 15:49:18,교육||학원||어학원||영어학원||영어학원-일반,False
3960,3961,3419243,박은미프로페셔널무용학원,박은미무용학원,Eunmi Park Professional Dance Academy,Education,Other Education,126.69459776177293,37.46053420215868,대한민국,KOR,KOR,인천광역시,미추홀구,,주안동,,경인로499번길,8,895-3,2022-08-16 16:52:33,"교육||학원||스포츠,레크레이션학원||무용,발레",False
3975,3976,4323469,거문부동산경매학원,거문경매학원,Geomun Real Estate Auction Academy,Education,Other Education,126.70209999999992,37.454568799999926,대한민국,KOR,KOR,인천광역시,남동구,,구월동,,예술로,230,1135-1,2022-08-16 16:52:33,"교육||학원||직업,기술학원||직업,기술학원-일반",False
4010,4011,3137778,산들어린이집,,Sandeul Daycare,Education,Other Education,126.6972044492809,37.425510430137855,대한민국,KOR,KOR,인천광역시,연수구,,선학동,,학나래로46번길,11,405-10,2022-05-01 12:37:48,교육||아동교육||어린이집||어린이집-일반,False
4018,4019,5702701,리더스영수학원,리더스학원,Leaders Young Academy,Education,Other Education,126.64932359999995,37.47033669999978,대한민국,KOR,KOR,인천광역시,동구,,송림동,,동산로,23,94-2,2022-08-24 14:41:06,교육||학원||보습학원,False
4049,4050,27173479,카이스트플러스학원,,KAIST Plus Academy,Education,Other Education,126.72433037256094,37.40011365657846,대한민국,KOR,KOR,인천광역시,남동구,,논현동,,논고개로,101,649-3,2022-08-12 13:15:03,교육||학원||보습학원,False
4087,4088,5688303,소리원음악학원,,Soriwon Music Academy,Education,Other Education,126.75733605962594,37.55902457978211,대한민국,KOR,KOR,인천광역시,계양구,,동양동,,동양로,111,640,2022-08-16 16:52:33,교육||학원||음악학원||피아노||피아노-일반,False
4125,4126,3118543,드림 미술학원,,Dream Art Academy,Education,Other Education,126.73077703148591,37.45866509651927,대한민국,KOR,KOR,인천광역시,남동구,,만수동,,만수로,15,870-10,2022-08-18 12:00:50,교육||학원||미술학원||미술학원-일반,False
4137,4138,5884765,행복한어린이집,,happy daycare,Education,Other Education,126.73728267078896,37.5161183053518,대한민국,KOR,KOR,인천광역시,부평구,,삼산동,,수변로,333,445-5,2022-05-01 12:37:48,교육||아동교육||어린이집||어린이집-일반,False
4185,4186,4348124,이화무용학원,,Ewha Dance Academy,Education,Other Education,126.6541636547909,37.602223814722805,대한민국,KOR,KOR,인천광역시,서구,,왕길동,,검단로445번길,16-1,636-3,2020-01-14 23:26:10,"교육||학원||스포츠,레크레이션학원||무용,발레",False
4258,4259,27185334,E3원어민어학원,,E3 Native Language School,Education,Other Education,126.62355090918584,37.523551719502976,대한민국,KOR,KOR,인천광역시,서구,,청라동,,솔빛로,20,104-3,2022-08-16 16:52:33,교육||학원||어학원||어학원-일반,False
4269,4270,27111567,서창라라음악학원,,Seochang Lara Music Academy,Education,Other Education,126.74804936377797,37.42628663510676,대한민국,KOR,KOR,인천광역시,남동구,,서창동,,서창남로,81,686-2,2022-08-16 16:52:33,교육||학원||음악학원||피아노||피아노-일반,False
4361,4362,1871458,꿈터어린이집,,Dreamteo Nursery,Education,Other Education,126.67681410345789,37.43724782249076,대한민국,KOR,KOR,인천광역시,미추홀구,,문학동,,소성로,270-20,170-8,2022-05-01 12:37:48,교육||아동교육||어린이집||어린이집-일반,False
4391,4392,27232680,우미린음악교습소,,Umirin Music Academy,Education,Other Education,126.55512158369424,37.49328604275589,대한민국,KOR,KOR,인천광역시,중구,,중산동,,은하수로,351,1881-1,2022-08-16 16:52:33,교육||학원||음악학원||음악학원-일반,False
4400,4401,5857734,동양엔파트어린이집, ,Dongyang Npart Daycare Center,Education,Other Education,126.62201400048684,37.52391860032171,대한민국,KOR,KOR,인천광역시,서구,,청라동,,솔빛로,13,102-3,2018-12-03 20:39:11,교육||아동교육||어린이집||어린이집-일반,False
4439,4440,1268219,경희대어린이집,,Kyunghee University Nursery School,Education,Other Education,126.70274633814088,37.51909325563889,대한민국,KOR,KOR,인천광역시,부평구,,청천동,,마장로459번길,27,30-37,2021-12-23 15:49:18,교육||아동교육||어린이집||어린이집-일반,False
4441,4442,20016204,청음줄리어드음악학원,,Juilliard Music Academy,Education,Other Education,126.6614814327479,37.45048756460098,대한민국,KOR,KOR,인천광역시,미추홀구,,용현동,,한나루로477번길,105,92-40,2021-12-23 15:49:18,교육||학원||음악학원||음악학원-일반,False
4462,4463,27047435,로얄음악학원,,Royal Academy of Music,Education,Other Education,126.73797154362595,37.52097231777872,대한민국,KOR,KOR,인천광역시,부평구,,삼산동,,후정동로,39,60-64,2022-08-16 16:52:33,교육||학원||음악학원||음악학원-일반,False
4471,4472,1262503,한샘학원,,Hanssem Academy,Education,Other Education,126.67293312417688,37.5136145986526,대한민국,KOR,KOR,인천광역시,서구,,가정동,,가정로,322,525-1,2022-05-01 12:37:48,교육||학원||보습학원,False
4480,4481,5885394,경인어린이집,,Gyeongin Daycare,Education,Other Education,126.69687139219089,37.43075781738708,대한민국,KOR,KOR,인천광역시,연수구,,선학동,,넘말로,67,386-6,2022-08-16 16:52:33,교육||아동교육||어린이집||어린이집-일반,False
4524,4525,5890984,새봄어린이집,,New Spring Daycare,Education,Other Education,126.71767155526608,37.453219698621645,대한민국,KOR,KOR,인천광역시,남동구,,구월동,,호구포로,803,24,2022-05-01 12:37:48,교육||아동교육||어린이집||어린이집-일반,False
4552,4553,27182277,허쌤수학,,Huh's Mathematics,Education,Other Education,126.64644498845163,37.44822600604397,대한민국,KOR,KOR,인천광역시,미추홀구,,용현동,,용정공원로,33,664,2022-05-01 12:37:48,교육||학원||수학학원||수학학원-일반,False
4581,4582,27135886,EiE어학원 인천논현캠퍼스,,EiE Language School Incheon Nonhyeon Campus,Education,Other Education,126.73359604852293,37.40173613938277,대한민국,KOR,KOR,인천광역시,남동구,,논현동,,앵고개로,928,671-1,2022-08-12 13:15:03,교육||학원||어학원||영어학원||EiE어학원,False
4609,4610,5878742,흰돌어린이집,,white stone daycare,Education,Other Education,126.48842204404983,37.49213636399675,대한민국,KOR,KOR,인천광역시,중구,,운서동,,흰바위로,34,2788-6,2021-12-23 15:49:18,교육||아동교육||어린이집||어린이집-일반,False
4630,4631,27138937,정상어학원 청라캠퍼스,,Jeongsang Language School Cheongna Campus,Education,Other Education,126.65020741129987,37.53205396792869,대한민국,KOR,KOR,인천광역시,서구,,청라동,,중봉대로,588,162-14,2022-08-24 14:41:06,교육||학원||어학원||영어학원||영어학원-일반,False
4713,4714,1271775,국공립풀내음어린이집,,National Public Poolnaeum Daycare Center,Education,Other Education,126.73976187211694,37.5175631154142,대한민국,KOR,KOR,인천광역시,부평구,,삼산동,,평천로,447,157,2022-05-01 12:37:48,교육||아동교육||어린이집||어린이집-일반,False
4723,4724,3132246,뉴쥴리어드음악학원,,New Juilliard Academy of Music,Education,Other Education,126.66625989999984,37.5956653999998,대한민국,KOR,KOR,인천광역시,서구,,마전동,,완정로65번안길,8,1029-5,2022-08-12 13:15:03,교육||학원||음악학원||피아노||피아노-일반,False
4737,4738,27182037,맥킹영어연구소,,Macking Institute for English,Education,Other Education,126.7041604911099,37.451887752336965,대한민국,KOR,KOR,인천광역시,남동구,,구월동,,미래로,21,1129-17,2022-06-13 10:44:13,교육||학원||어학원||영어학원||영어회화,False
4756,4757,27398823,놀작허니비미술학원 청라센터,,Noljak Honeybee Art Academy Cheongna Center,Education,Other Education,126.64571249999995,37.532086999999834,대한민국,KOR,KOR,인천광역시,서구,,청라동,,청라커낼로260번길,11,158-1,2022-08-26 9:52:19,"교육||유,아동학습||놀이교육||프랜차이즈||놀작마이아트",False
4832,4833,27224784,수학세상학원,,Mathematics World Academy,Education,Other Education,126.73634903065592,37.46283892810846,대한민국,KOR,KOR,인천광역시,남동구,,만수동,,만수로,85,5-440,2022-08-12 13:15:03,교육||학원||수학학원||수학학원-일반,False
4840,4841,552461,행복한어린이집,,happy daycare,Education,Other Education,126.65061939999995,37.39309389999976,대한민국,KOR,KOR,인천광역시,연수구,,송도동,,해돋이로120번길,16,3-10,2022-08-16 16:52:33,교육||아동교육||어린이집||어린이집-일반,False
4880,4881,1246866,루시드어학원,지엔비영어전문학원인동캠퍼스,Lucid language school,Education,Other Education,126.71754875691587,37.45624033324807,대한민국,KOR,KOR,인천광역시,남동구,,구월동,,구월로,243,1244-12,2022-08-18 12:00:50,교육||학원||어학원||영어학원||영어학원-일반,False
4891,4892,472809,리틀랜드어린이집,,Littleland Daycare,Education,Other Education,126.68075626621088,37.43719215147356,대한민국,KOR,KOR,인천광역시,미추홀구,,문학동,,소성로294번길,13-41,364-2,2022-08-18 12:00:50,교육||아동교육||어린이집||어린이집-일반,False
4940,4941,5035604,시네마뷰티미용학원 인천본점,,Cinema Beauty Academy  Incheon Main Branch,Education,Other Education,126.72255299999996,37.49332899999981,대한민국,KOR,KOR,인천광역시,부평구,,부평동,,부평대로,21,549-5,2022-08-24 14:41:06,"교육||학원||직업,기술학원||미용||미용-일반",False
5008,5009,5885045,초록나무어린이집,,Green Tree Nursery,Education,Other Education,126.7117288592849,37.407687566247866,대한민국,KOR,KOR,인천광역시,남동구,,논현동,,은봉로165번길,24,580-1,2022-05-01 12:37:48,교육||아동교육||어린이집||어린이집-일반,False
5016,5017,4361977,문학합기도음악학원,문학음악학원,Literature Hapkido Music Academy,Education,Other Education,126.68213364657488,37.43696111790936,대한민국,KOR,KOR,인천광역시,미추홀구,,문학동,,소성로318번길,18-12,369-8,2019-11-14 23:27:28,교육||학원||음악학원||음악학원-일반,False
5027,5028,27160284,쏘아베 음악학원,,Soabe Music Academy,Education,Other Education,126.65901531963388,37.60498272558143,대한민국,KOR,KOR,인천광역시,서구,,마전동,,완정로178번길,35,917-5,2022-08-16 16:52:33,교육||학원||음악학원||피아노||피아노-일반,False
5087,5088,27453906,조이피아노음악,,Joy piano music,Education,Other Education,126.68817220361451,37.41611545079042,대한민국,KOR,KOR,인천광역시,연수구,,연수동,,원인재로,232,582-2,2022-09-06 15:18:26,교육||학원||음악학원||피아노||피아노-일반,False
5088,5089,1898707,이젠아카데미컴퓨터학원 인천,,Now Academy Computer Academy Incheon,Education,Other Education,126.70290309999996,37.4502888999998,대한민국,KOR,KOR,인천광역시,남동구,,구월동,,인주대로,593,1128-3,2022-08-24 14:41:06,"교육||학원||직업,기술학원||컴퓨터||컴퓨터-일반",False
5099,5100,5890588,꿈에그린어린이집, ,Dream Nursery School,Education,Other Education,126.64007053163992,37.538855617396926,대한민국,KOR,KOR,인천광역시,서구,,청라동,,크리스탈로,148,139-1,2022-05-01 12:37:48,교육||아동교육||어린이집||어린이집-일반,False
5107,5108,4343649,부평바하피아노,바하피아노,Bupyeong Baha piano,Education,Other Education,126.71971401799792,37.48865431784039,대한민국,KOR,KOR,인천광역시,부평구,,부평동,,동수북로120번길,18,751-8,2022-05-01 12:37:48,교육||학원||음악학원||피아노||피아노-일반,False
5218,5219,27067012,유투엠 인천영종국제캠퍼스,,UTOM Incheon Yeongjong International Campus,Education,Other Education,126.55747998029479,37.48729924559717,대한민국,KOR,KOR,인천광역시,중구,,중산동,,하늘달빛로,94,1875-3,2022-08-16 16:52:33,교육||학원||수학학원||수학학원-일반,False
5245,5246,27401220,스타디움어린이집,,Stadium Daycare,Education,Other Education,126.64352499999984,37.46745389999977,대한민국,KOR,KOR,인천광역시,미추홀구,,숭의동,,참외전로,268,462,2022-08-02 16:47:12,교육||아동교육||어린이집||국공립어린이집,False
5255,5256,3118566,이화율음악학원,,Ihwayul Music Academy,Education,Other Education,126.71508957781391,37.45236709441047,대한민국,KOR,KOR,인천광역시,남동구,,구월동,,구월남로,232,1225-36,2022-08-18 12:00:50,교육||학원||음악학원||음악학원-일반,False
5261,5262,27051763,에스더리 음악학원,,Esthery Music Academy,Education,Other Education,126.63679970794486,37.53206523491559,대한민국,KOR,KOR,인천광역시,서구,,청라동,,크리스탈로,78,152-14,2022-05-01 12:37:48,교육||학원||음악학원||바이올린,False
5270,5271,3242549,창영초등학교병설유치원,인천창영초등학교병설유치원,Kindergarten attached to Changyeong Elementary School,Education,Other Education,126.63966553798284,37.472247943722856,대한민국,KOR,KOR,인천광역시,동구,,창영동,,우각로15번길,16,30,2021-12-23 15:49:18,교육||아동교육||병설유치원,False
5326,5327,27280092,제일풍경채검단II아파트어린이집, ,Jeil Punggyeong Chaegomdan II Apartment Daycare Center,Education,Other Education,126.69642345544288,37.61128480486694,대한민국,KOR,KOR,인천광역시,서구,,불로동,,,,산57-2,2022-06-13 10:44:13,교육||아동교육||어린이집||어린이집-일반,False
5338,5339,27076675,삼성영어 동춘서해교실,,Samsung English Dongchun Seohae Classroom,Education,Other Education,126.66616028540692,37.40864878634516,대한민국,KOR,KOR,인천광역시,연수구,,동춘동,,봉재산로36번길,1,1137,2022-05-01 12:37:48,교육||학원||어학원||영어학원||삼성영어,False
5363,5364,2614632,프라임예지유치원,예지유치원,Prime Yeji Kindergarten,Education,Other Education,126.72857879999997,37.39355069999976,대한민국,KOR,KOR,인천광역시,남동구,,논현동,,에코중앙로,192,774-3,2022-05-01 12:37:48,교육||아동교육||유치원,False
5382,5383,27173687,로얄미술학원,,Royal Academy of Fine Arts,Education,Other Education,126.73797154362595,37.52097231777872,대한민국,KOR,KOR,인천광역시,부평구,,삼산동,,후정동로,39,60-64,2022-08-16 16:52:33,교육||학원||미술학원||미술학원-일반,False
5393,5394,20027583,은혜음악학원,,Eunhye Music Academy,Education,Other Education,126.73242859999996,37.4868917999998,대한민국,KOR,KOR,인천광역시,부평구,,부개동,,경인로,1014,234-1,2022-08-18 12:00:50,교육||학원||음악학원||음악학원-일반,False
5404,5405,793937,해마루유치원,,Haemaru Kindergarten,Education,Other Education,126.74825959999998,37.4777743999998,대한민국,KOR,KOR,인천광역시,부평구,,구산동,,일신로,120,360,2022-05-01 12:37:48,교육||아동교육||유치원,False
5454,5455,27075076,캐서린피아노&스트링즈,,Catherine Piano & Strings,Education,Other Education,126.64508337936884,37.39475264634584,대한민국,KOR,KOR,인천광역시,연수구,,송도동,,해돋이로,165,22-4,2022-08-24 14:41:06,교육||학원||음악학원||음악학원-일반,False
5489,5490,27067122,국과수 학원,,National Fruits Academy,Education,Other Education,126.72652760785888,37.39122233968086,대한민국,KOR,KOR,인천광역시,남동구,,논현동,,에코중앙로156번길,13-7,770-4,2022-08-16 16:52:33,교육||학원||보습학원,False
5504,5505,678285,동부동심유치원,관인동심유치원,Eastern Concentric Kindergarten,Education,Other Education,126.7048604425199,37.448048847909874,대한민국,KOR,KOR,인천광역시,남동구,,구월동,,성말로35번길,61,1152-1,2022-05-01 12:37:48,교육||아동교육||유치원,False
5538,5539,5869682,도담어린이집,,Dodam Daycare Center,Education,Other Education,126.73739649999996,37.522096299999816,대한민국,KOR,KOR,인천광역시,부평구,,삼산동,,후정동로47번길,4,56-3,,교육||아동교육||어린이집||어린이집-일반,False
5551,5552,20082917,예쁜소리피아노,,pretty sound piano,Education,Other Education,126.73316109378192,37.54421246105712,대한민국,KOR,KOR,인천광역시,계양구,,임학동,,임학서로,12,46-47,2021-12-23 15:49:18,교육||학원||음악학원||피아노||피아노-일반,False
5570,5571,27194592,예술의터창조미술교습,,Art Center Creative Art Class,Education,Other Education,126.71053815213564,37.46035152345484,대한민국,KOR,KOR,인천광역시,남동구,,간석동,,석산로,166,939-1,2022-08-16 16:52:33,교육||학원||미술학원||미술학원-일반,False
5571,5572,672052,인기자동차운전전문학원,인기자동차운전학원,Popular Auto Driving School,Education,Other Education,126.71372503074488,37.39120086664144,대한민국,KOR,KOR,인천광역시,남동구,,고잔동,,논현고잔로128번길,68-28,308-16,2022-08-12 13:15:03,"교육||학원||직업,기술학원||운전학원",False
5614,5615,5871669,아이랑어린이집,,child and nursery,Education,Other Education,126.71342795871976,37.50759232802277,대한민국,KOR,KOR,인천광역시,부평구,,청천동,,안남로,272,200,2022-08-16 16:52:33,교육||아동교육||어린이집||어린이집-일반,False
5658,5659,20022932,이노필유치원,,Innopil Kindergarten,Education,Other Education,126.74082621776196,37.49210653119461,대한민국,KOR,KOR,인천광역시,부평구,,부개동,,수변로,64,191-21,2022-05-01 12:37:48,교육||아동교육||유치원,False
5665,5666,27181813,키다리언니진학상담지도교습소,,Long-dari sister school counseling and guidance school,Education,Other Education,126.70726916742105,37.4544634176703,대한민국,KOR,KOR,인천광역시,남동구,,구월동,,남동대로799번길,34,1608,2022-08-12 13:15:03,"교육||학원||직업,기술학원||스튜어디스학원",False
5668,5669,4327793,향기보듬이나눔이어린이집,,Sharing the scent of  Daycare,Education,Other Education,126.7112543711449,37.385406056052354,대한민국,KOR,KOR,인천광역시,남동구,,논현동,,논현고잔로,26,763-1,2021-12-23 15:49:18,교육||아동교육||어린이집||국공립어린이집,False
5682,5683,3141395,강화간호학원,,Ganghwa Nursing Academy,Education,Other Education,126.49591519999984,37.7420076999999,대한민국,KOR,KOR,인천광역시,강화군,,강화읍,갑곳리,강화대로312번길,8,341,2022-08-12 13:15:03,"교육||학원||직업,기술학원||간호",False
5706,5707,27185386,청라수학 대성학원,,Cheongna Mathematics Daesung Academy,Education,Other Education,126.63011179999992,37.525436099999816,대한민국,KOR,KOR,인천광역시,서구,,청라동,,솔빛로,82,105-47,2022-08-16 16:52:33,교육||학원||수학학원||수학학원-일반,False
5715,5716,5855890,포스코아이어린이집,,POSCO I Daycare,Education,Other Education,126.64454529999996,37.404552499999774,대한민국,KOR,KOR,인천광역시,연수구,,송도동,,컨벤시아대로42번길,96,15-2,,교육||아동교육||어린이집||어린이집-일반,False
5736,5737,3685664,토플라이어학원,,Top Flyer Academy,Education,Other Education,126.7130670918539,37.490266753979775,대한민국,KOR,KOR,인천광역시,부평구,,부평동,,부평공원로,61,270-60,2019-11-14 23:27:34,교육||학원||어학원||영어학원||영어학원-일반,False
5765,5766,3139292,해피누리어린이집,,Happy Nuri Daycare,Education,Other Education,126.71072263654692,37.501498994411286,대한민국,KOR,KOR,인천광역시,부평구,,산곡동,,안남로206번길,37,284-2,2022-05-01 12:37:48,교육||아동교육||어린이집||어린이집-일반,False
5767,5768,3139299,리틀마리보나어린이집,보나어린이집,Little Maribona Nursery School,Education,Other Education,126.71159758483688,37.526716179453125,대한민국,KOR,KOR,인천광역시,계양구,,효성동,,안남로490번길,6,273-14,2021-12-23 15:49:18,교육||아동교육||어린이집||어린이집-일반,False
5795,5796,5905163,국공립마스터뷰2단지어린이집,,National and Public Masterview Complex 2 Daycare Center,Education,Other Education,126.63159399999992,37.38208249999977,대한민국,KOR,KOR,인천광역시,연수구,,송도동,,컨벤시아대로274번길,35,111,2022-08-12 13:15:03,교육||아동교육||어린이집||국공립어린이집,False
5845,5846,5862873,꾸미어린이집,,Decorating Nursery,Education,Other Education,126.67573155417382,37.56662083528829,대한민국,KOR,KOR,인천광역시,서구,,검암동,,승학로495번길,7,595-3,2021-12-23 15:49:18,교육||아동교육||어린이집||어린이집-일반,False
5864,5865,27240557,숙진음악학원,,Sookjin Music Academy,Education,Other Education,126.7139826038955,37.501968655205104,대한민국,KOR,KOR,인천광역시,부평구,,산곡동,,부영로,165,294-35,2022-08-16 16:52:33,교육||학원||음악학원||음악학원-일반,False
5924,5925,5861924,한화단단이어린이집,,Hanwha Dandanyi Daycare Center,Education,Other Education,126.70451046032804,37.50580426149118,대한민국,KOR,KOR,인천광역시,부평구,,산곡동,,원적로,361,124-23,2021-12-23 15:49:18,교육||아동교육||어린이집||어린이집-일반,False
5957,5958,27425575,에듀코치 인천삼산점,,Educoach Incheon Samsan Branch,Education,Other Education,126.7361347413739,37.508250547339294,대한민국,KOR,KOR,인천광역시,부평구,,삼산동,,체육관로,40,459-5,2022-08-08 10:29:42,교육||학원||입시학원||프랜차이즈||에듀코치,False
5969,5970,3132238,한양무용아카데미학원,,Hanyang Dance Academy,Education,Other Education,126.66799758874788,37.59679938853572,대한민국,KOR,KOR,인천광역시,서구,,마전동,,완정로,57-1,1028-9,2022-08-18 12:00:50,"교육||학원||스포츠,레크레이션학원||무용,발레",False
5997,5998,5856891,부평구청어린이집,,Bupyeong-gu Office Daycare Center,Education,Other Education,126.72191779999999,37.50685779999981,대한민국,KOR,KOR,인천광역시,부평구,,부평동,,부평대로,168,879,,교육||아동교육||어린이집||어린이집-일반,False
6037,6038,27139577,한국직업능력전문학원,,Korea Vocational Competency College,Education,Other Education,126.67969716302188,37.46294415295888,대한민국,KOR,KOR,인천광역시,미추홀구,,주안동,,미추홀대로733번길,7,224-2,2022-08-18 12:00:50,"교육||학원||직업,기술학원||미용||미용-일반",False
6064,6065,27173602,비상학원,,emergency school,Education,Other Education,126.74258287472196,37.521722205493006,대한민국,KOR,KOR,인천광역시,부평구,,삼산동,,부평북로,442,388-11,2022-08-08 10:29:42,교육||학원||보습학원,False
6138,6139,4327743,윌스터디학원,,Will Study Academy,Education,Other Education,126.71441272990091,37.46542211390717,대한민국,KOR,KOR,인천광역시,남동구,,간석동,,용천로,176,49-28,2022-08-24 14:41:06,교육||학원||보습학원,False
6204,6205,5892438,The즐거운어린이집,,The Joyful Nursery,Education,Other Education,126.69022109999996,37.61806499999986,대한민국,KOR,KOR,인천광역시,서구,,불로동,,검단로,832,312-2,,교육||아동교육||어린이집||어린이집-일반,False
6208,6209,4360156,스카이영어,,Sky English,Education,Other Education,126.69825539999992,37.44216169999978,대한민국,KOR,KOR,인천광역시,미추홀구,,관교동,,문화로,33,13-9,2018-08-11 0:00:00,교육||학원||어학원||영어학원||영어학원-일반,False
6214,6215,27148417,루원대성학원,,Luwon University,Education,Other Education,126.66381099999992,37.522471299999815,대한민국,KOR,KOR,인천광역시,서구,,신현동,,새오개로111번안길,21,307-6,2022-08-24 14:41:06,교육||학원||수학학원||수학학원-일반,False
6222,6223,5888005,아이맘어린이집,,imom daycare,Education,Other Education,126.6847577617758,37.49547846388082,대한민국,KOR,KOR,인천광역시,서구,,가좌동,,건지로,402,7,2022-05-01 12:37:48,교육||아동교육||어린이집||어린이집-일반,False
6275,6276,3123810,중앙국악학원,,Central Gugak Academy,Education,Other Education,126.68279999999984,37.422627999999754,대한민국,KOR,KOR,인천광역시,연수구,,연수동,,먼우금로,302,534,2020-02-24 13:51:16,교육||학원||음악학원||국악,False
6369,6370,4582715,케이커피바리스타학원 구월점,,world Barista Academy,Education,Other Education,126.70663458236088,37.451118795891965,대한민국,KOR,KOR,인천광역시,남동구,,구월동,,인주대로623번길,26,1144-5,2022-08-12 13:15:03,"교육||학원||직업,기술학원||바리스타",False
6421,6422,27163979,돌파수학교습소,,Breakthrough math school,Education,Other Education,126.69490262658589,37.593062456760926,대한민국,KOR,KOR,인천광역시,서구,,당하동,,원당대로840번길,5,1028-2,2022-08-12 13:15:03,교육||학원||수학학원||수학학원-일반,False
6449,6450,5871720,영재부모협동어린이집,,Gifted and Talented Parents Cooperative Daycare Center,Education,Other Education,126.72425409999998,37.52739939999982,대한민국,KOR,KOR,인천광역시,계양구,,작전동,,아나지로299번길,17,420,,교육||아동교육||어린이집||어린이집-일반,False
6453,6454,27102176,삼성영어 남동초교실,,Samsung English Namdong Elementary School,Education,Other Education,126.73639088579591,37.44362698691577,대한민국,KOR,KOR,인천광역시,남동구,,만수동,,장승남로,37,1019-7,2022-08-12 13:15:03,교육||학원||어학원||영어학원||삼성영어,False
6463,6464,27221049,웅진씽크빅 인천중부지국,,Woongjin ThinkBig Incheon Central Branch,Education,Other Education,126.63422152489784,37.45079704227656,대한민국,KOR,KOR,인천광역시,미추홀구,,용현동,,낙섬서로,12,627-203,2022-05-01 12:37:48,교육||학원||학습지||프랜차이즈||웅진씽크빅,False
6484,6485,27056296,클루빌 인천동춘제1빌리지,,Cluville Incheon Dongchunje Village 1,Education,Other Education,126.67063816286188,37.40843853140966,대한민국,KOR,KOR,인천광역시,연수구,,동춘동,,앵고개로246번길,10,937-1,2022-05-01 12:37:48,교육||학원||어학원||영어학원||영어학원-일반,False
6504,6505,27069993,삼성영어 청라영어수학학원,,Samsung English Cheongna English Math Academy,Education,Other Education,126.64015184136184,37.533417845018604,대한민국,KOR,KOR,인천광역시,서구,,청라동,,청라루비로,93,152-9,2022-08-16 16:52:33,교육||학원||어학원||영어학원||삼성영어,False
6558,6559,27069196,심고 가꾸고 미술학원 호반퍼스트점,,Planting and cultivating art academy Hoban first branch,Education,Other Education,126.65777589999988,37.37185119999974,대한민국,KOR,KOR,인천광역시,연수구,,송도동,,송도문화로84번길,84,192-8,2022-05-01 12:37:48,교육||학원||미술학원||미술학원-일반,False
6640,6641,3123215,정일품이스턴영어,,Jung Il Poom Eastern English,Education,Other Education,126.68276699999996,37.422505999999785,대한민국,KOR,KOR,인천광역시,연수구,,연수동,,먼우금로,302,534,2021-12-23 15:49:18,교육||학원||어학원||영어학원||이스턴영어,False
6672,6673,2151223,인천직업전문학교,,Incheon Vocational College,Education,Other Education,126.67732349970892,37.472606401301775,대한민국,KOR,KOR,인천광역시,미추홀구,,주안동,,염전로333번길,23,1389-2,2022-05-01 12:37:48,"교육||학원||직업,기술학원||직업,기술학원-일반",False
6718,6719,5887111,동심어린이집,,Concentric Nursery,Education,Other Education,126.67542816284843,37.40702930659032,대한민국,KOR,KOR,인천광역시,연수구,,동춘동,,원인재로,81,924-3,2021-12-23 15:49:18,교육||아동교육||어린이집||어린이집-일반,False
6721,6722,5868325,채송화어린이집,,Chae Songhwa Nursery School,Education,Other Education,126.74384419999996,37.51896979999982,대한민국,KOR,KOR,인천광역시,부평구,,삼산동,,영성서로,10,500,2022-08-16 16:52:33,교육||아동교육||어린이집||어린이집-일반,False
6753,6754,27052733,영수원칙 학원,,Receipt principle school,Education,Other Education,126.64845741688283,37.39844768714255,대한민국,KOR,KOR,인천광역시,연수구,,송도동,,신송로,166,20-14,2022-08-16 16:52:33,교육||학원||보습학원,False
6765,6766,27182652,송도류궈링중국어학원,,Songdo Liu Guoling Chinese Language School,Education,Other Education,126.64508339999993,37.39475269999976,대한민국,KOR,KOR,인천광역시,연수구,,송도동,,해돋이로,165,22-4,2022-08-16 16:52:33,교육||학원||어학원||중국어학원||중국어학원-일반,False
6831,6832,20016238,한얼학원,,Korean language school,Education,Other Education,126.67768239999992,37.50285669999981,대한민국,KOR,KOR,인천광역시,서구,,석남동,,서달로49번길,3,559,2021-12-23 15:49:18,교육||학원||보습학원,False
6835,6836,894343,새싹어린이집,,Sprout Nursery,Education,Other Education,126.69670279999995,37.42646599999978,대한민국,KOR,KOR,인천광역시,연수구,,선학동,,경원대로467번길,38,403-15,2018-09-18 15:00:00,교육||아동교육||어린이집||어린이집-일반,False
6849,6850,27163582,한우리독서토론논술 송도SK뷰점,,Hanwoori Reading Discussion Essay Songdo SK View Branch,Education,Other Education,126.6263671146224,37.41318108326924,대한민국,KOR,KOR,인천광역시,연수구,,송도동,,랜드마크로,19,315-1,2022-08-12 13:15:03,교육||학원||논술||프랜차이즈||한우리독서토론논술,False
6850,6851,27183394,풀아트스튜디오미술교습소,,full art studio art school,Education,Other Education,126.63701979999986,37.39773379999976,대한민국,KOR,KOR,인천광역시,연수구,,송도동,,센트럴로,232,23-3,2022-05-01 12:37:48,교육||학원||미술학원||미술학원-일반,False
6861,6862,5886846,제이맘어린이집,,Jay Mom Daycare,Education,Other Education,126.69032516764823,37.46167049418185,대한민국,KOR,KOR,인천광역시,미추홀구,,주안동,,경원대로,884,1614,2021-12-23 15:49:18,교육||아동교육||어린이집||어린이집-일반,False
6862,6863,3895716,아띠어린이집,,Atti Nursery,Education,Other Education,126.64711689999977,37.381488399999725,대한민국,KOR,KOR,인천광역시,연수구,,송도동,,해송로30번길,19,9-6,2022-08-16 16:52:33,교육||아동교육||어린이집||어린이집-일반,False
6909,6910,126155,소리엘어린이집,,Soriel Nursery School,Education,Other Education,126.6910253303599,37.446387009754176,대한민국,KOR,KOR,인천광역시,미추홀구,,관교동,,경원대로716번길,16,468-1,2021-12-23 15:49:18,교육||아동교육||어린이집||어린이집-일반,False
6916,6917,4679885,한솔빛어린이집,,Hansol Bit Nursery,Education,Other Education,126.69825807488688,37.46035129604727,대한민국,KOR,KOR,인천광역시,남동구,,간석동,,석산로62번길,8-8,516-9,2022-08-16 16:52:33,교육||아동교육||어린이집||어린이집-일반,False
6944,6945,5867813,은행나무어린이집,,Ginkgo Nursery,Education,Other Education,126.71285777694088,37.40308648945816,대한민국,KOR,KOR,인천광역시,남동구,,논현동,,논현로,45,635-1,2022-05-01 12:37:48,교육||아동교육||어린이집||국공립어린이집,False
6971,6972,5867009,베베어린이집,,Bebe Nursery School,Education,Other Education,126.70746062553108,37.51308491985158,대한민국,KOR,KOR,인천광역시,부평구,,청천동,,세월천로,16,176,2022-08-18 12:00:50,교육||아동교육||어린이집||어린이집-일반,False
6977,6978,1870361,나무아이실용음악학원,나무아이음악학원,Namoo Kids Practical Music Academy,Education,Other Education,126.68197546489009,37.44775508399783,대한민국,KOR,KOR,인천광역시,미추홀구,,주안동,,인하로,304-1,1160-6,2022-08-12 13:15:03,교육||학원||음악학원||실용음악학원||실용음악학원-일반,False
6981,6982,5886801,꾸러기어린이집,,Naughty Kindergarten,Education,Other Education,126.68033498277612,37.5683978687556,대한민국,KOR,KOR,인천광역시,서구,,검암동,,검암로,53,501-1,2021-12-23 15:49:18,교육||아동교육||어린이집||어린이집-일반,False
6982,6983,27117478,갓에듀 학원,,God Edu Academy,Education,Other Education,126.6703609832349,37.52719583627229,대한민국,KOR,KOR,인천광역시,서구,,가정동,,봉오재3로,96,618-1,2022-08-16 16:52:33,교육||학원||보습학원,False
6984,6985,3447657,지오과학학원,,Geoscience Academy,Education,Other Education,126.67845899999995,37.41138999999977,대한민국,KOR,KOR,인천광역시,연수구,,연수동,,샘말로8번길,18,631-5,2022-08-16 16:52:33,교육||학원||입시학원||입시학원-일반,False
6987,6988,27047439,눈높이러닝센터 삼산미래학원,눈높이 삼산미래학원,Noonnoppi Learning Center Samsan Future Academy,Education,Other Education,126.74245611510293,37.52171246919191,대한민국,KOR,KOR,인천광역시,부평구,,삼산동,,부평북로,442,388-11,2022-08-26 9:52:19,교육||학원||학습지||프랜차이즈||눈높이,False
6989,6990,1100293,여림어린이집,예림어린이집,Yeorim Daycare,Education,Other Education,126.6725420779679,37.54968610992681,대한민국,KOR,KOR,인천광역시,서구,,연희동,,연희로42번길,6,737-17,2022-08-18 12:00:50,교육||아동교육||어린이집||어린이집-일반,False
6990,6991,27069941,와이즈만영재교육 청라센터,,Wiseman Gifted Education Cheongna Center,Education,Other Education,126.64010726760384,37.533764558800485,대한민국,KOR,KOR,인천광역시,서구,,청라동,,청라루비로,95,152-10,2022-05-01 12:37:48,교육||학원||영재학원||프랜차이즈||와이즈만,False
7007,7008,3442172,삼성영어금마초점,,Samsung English Golden Horse,Education,Other Education,126.74860614599793,37.478674024510994,대한민국,KOR,KOR,인천광역시,부평구,,일신동,,일신로,90,312-1,2019-11-14 0:00:00,교육||학원||어학원||영어학원||삼성영어,False
7008,7009,4349854,마리보나어린이집,,Maribona Nursery School,Education,Other Education,126.71189200692088,37.52693824742619,대한민국,KOR,KOR,인천광역시,계양구,,효성동,,안남로490번길,7-2,272-17,2021-12-23 15:49:18,교육||아동교육||어린이집||어린이집-일반,False
7014,7015,4323361,용현동아이비음악학원,아이비음악학원,Yonghyeon-dong Ivy Music Academy,Education,Other Education,126.64124429999994,37.4521255999998,대한민국,KOR,KOR,인천광역시,미추홀구,,용현동,,낙섬동로,71,611-77,2022-08-18 12:00:50,교육||학원||음악학원||피아노||피아노-일반,False
7015,7016,3610267,인천예송유치원,예송유치원,Incheon Yesong Kindergarten,Education,Other Education,126.63122589999983,37.38090579999962,대한민국,KOR,KOR,인천광역시,연수구,,송도동,,컨벤시아대로302번길,23,115-5,2021-12-23 15:49:18,교육||아동교육||유치원,False
7033,7034,27090539,알티오라 부평1캠퍼스,,Altiora Bupyeong 1 Campus,Education,Other Education,126.73420609575996,37.496270914757,대한민국,KOR,KOR,인천광역시,부평구,,부개동,,부흥로376번길,35-7,93-4,2022-08-16 16:52:33,"교육||유,아동학습||영어교육||프랜차이즈||알티오라",False
7054,7055,27172971,루나미술학원,,Luna Art Academy,Education,Other Education,126.55814579999988,37.48676209999981,대한민국,KOR,KOR,인천광역시,중구,,중산동,,하늘달빛로,84,1875-6,2022-09-06 15:18:26,교육||학원||미술학원||미술학원-일반,False
7111,7112,27092589,Rnc로봇교육센터,,Rnc Robot Training Center,Education,Other Education,126.73807118468292,37.534759636412005,대한민국,KOR,KOR,인천광역시,계양구,,계산동,,오조산로45번길,3,1083-9,2022-08-18 12:00:50,교육||교육원||교육원-일반,False
7121,7122,20770611,검단11국공립유치원(2023년3월예정), ,Geomdan 11th National Public Kindergarten (planned in March 2023),Education,Other Education,126.71470773761196,37.60230226453885,대한민국,KOR,KOR,인천광역시,서구,,원당동,,,,249,2022-07-19 20:20:05,교육||아동교육||유치원,False
7123,7124,5891545,즐거운어린이집,,happy daycare,Education,Other Education,126.63901199999992,37.46533519999979,대한민국,KOR,KOR,인천광역시,중구,,도원동,,도원로26번길,33-8,41-25,2022-08-16 16:52:33,교육||아동교육||어린이집||어린이집-일반,False
7127,7128,3143361,꿈꾸는나무미술학원,,Dreaming Tree Art Academy,Education,Other Education,126.72402786541387,37.54298878670912,대한민국,KOR,KOR,인천광역시,계양구,,계산동,,경명대로1052번길,5,944-14,2022-08-18 12:00:50,교육||학원||미술학원||미술학원-일반,False
7221,7222,3132861,이보영토킹클럽제임스영수학원,이보영토킹클럽,Boyoung Lee Talking Club James Youngsu Academy,Education,Other Education,126.68434050863888,37.494105692630576,대한민국,KOR,KOR,인천광역시,서구,,가좌동,,원적로100번길,18,30-78,2022-08-16 16:52:33,교육||학원||어학원||영어학원||영어학원-일반,False
7251,7252,27096285,미르국어학원,,Mir Language School,Education,Other Education,126.64857199999996,37.397766299999766,대한민국,KOR,KOR,인천광역시,연수구,,송도동,,신송로,161,21-14,2022-05-01 12:37:48,교육||학원||보습학원,False
7282,7283,27092533,엠에스수학과학학원,,MS Mathematics Academy,Education,Other Education,126.64922337785087,37.399194003888255,대한민국,KOR,KOR,인천광역시,연수구,,송도동,,컨벤시아대로42번길,25,20-3,2022-08-12 13:15:03,교육||학원||보습학원,False
7306,7307,5710798,남동구청어린이집,,Namdong-gu Office Daycare Center,Education,Other Education,126.73151309999996,37.44766409999978,대한민국,KOR,KOR,인천광역시,남동구,,만수동,,소래로,633,1008,2018-09-18 15:00:00,교육||아동교육||어린이집||어린이집-일반,False
7343,7344,20473435,인천광역시 농업기계교육관,인천광역시 농업기계교육관,Incheon Metropolitan City Agricultural Machinery Education Center,Education,Other Education,126.39546874502852,37.4562032951582,대한민국,KOR,KOR,인천광역시,중구,,을왕동,,공항서로,587,488-5,2022-05-18 1:20:06,교육||교육원||교육원-일반,False
7360,7361,20071857,무지개어린이집,,rainbow daycare,Education,Other Education,126.72280860539092,37.48522923683649,대한민국,KOR,KOR,인천광역시,부평구,,부평동,,동수로,37,671-30,2022-05-01 12:37:48,교육||아동교육||어린이집||어린이집-일반,False
7367,7368,1841809,성안어린이집,,Seongan Daycare Center,Education,Other Education,126.69059554093488,37.44482325647017,대한민국,KOR,KOR,인천광역시,미추홀구,,관교동,,주승로,182-26,477-4,2021-12-23 15:49:18,교육||아동교육||어린이집||어린이집-일반,False
7456,7457,26803376,e편한세상영종국제도시센텀베뉴어린이집, ,e-Pyunhansang Yeongjong International City Centum Venue Daycare Center,Education,Other Education,126.55143185795389,37.48970053172422,대한민국,KOR,KOR,인천광역시,중구,,중산동,,,,1871-1,2022-05-01 12:37:48,교육||아동교육||어린이집||어린이집-일반,False
7533,7534,27183841,아소비 인천 만수센터점,,Asobi Incheon Mansu Center Branch,Education,Other Education,126.73009929999996,37.45829289999979,대한민국,KOR,KOR,인천광역시,남동구,,만수동,,만수로,9,872-4,2022-05-01 12:37:48,교육||학원||공부방||프랜차이즈||아소비,False
7543,7544,27122525,MSO체스레슨클럽 인천센터,,MSO Chess Lesson Club Incheon Center,Education,Other Education,126.72685991104493,37.525852681643904,대한민국,KOR,KOR,인천광역시,계양구,,작전동,,아나지로,311,388-2,2022-05-01 12:37:48,교육||교육원||교육원-일반,False
7593,7594,27138111,황경숙음악학원,,Kyungsook Hwang Music Academy,Education,Other Education,126.65014806003985,37.45792524113866,대한민국,KOR,KOR,인천광역시,미추홀구,,숭의동,,독정이로33번길,66,293-15,2022-05-01 12:37:48,교육||학원||음악학원||음악학원-일반,False
7622,7623,27183347,일품수학과학 비욘드잉글리쉬 송도제1캠퍼스,,Excellence in Mathematics Beyond English Songdo 1st Campus,Education,Other Education,126.64448769999996,37.39481289999977,대한민국,KOR,KOR,인천광역시,연수구,,송도동,,해돋이로,167,22-2,2022-08-16 16:52:33,교육||학원||수학학원||수학학원-일반,False
7707,7708,5875412,에코꿈나무어린이집,,Eco Dream Tree Nursery,Education,Other Education,126.73008282494555,37.39344602069069,대한민국,KOR,KOR,인천광역시,남동구,,논현동,,논고개로,17,774-1,2019-12-27 15:43:22,교육||아동교육||어린이집||어린이집-일반,False
7743,7744,5704365,채움학원 연수점,,Chaeum Academy  Training Point,Education,Other Education,126.67924949999995,37.42046119999978,대한민국,KOR,KOR,인천광역시,연수구,,연수동,,먼우금로263번길,15,546-4,2022-06-13 10:44:13,교육||학원||입시학원||입시학원-일반,False
7782,7783,5689234,혜성음악학원,,Hyesung Music Academy,Education,Other Education,126.74181333071996,37.48396582547809,대한민국,KOR,KOR,인천광역시,부평구,,일신동,,경인로1104번길,37-2,221-28,2021-12-23 15:49:18,교육||학원||음악학원||피아노||피아노-일반,False
7798,7799,27017616,삼성영어 김쌤수학,,Samsung English Teacher Kim Mathematics,Education,Other Education,126.70879969999989,37.582849699999805,대한민국,KOR,KOR,인천광역시,서구,,당하동,,,,산25-1,2022-08-30 9:43:30,교육||학원||어학원||영어학원||삼성영어,False
7825,7826,27163912,아트테라스미술교습소,,Art Terrace Art Academy,Education,Other Education,126.62732943463728,37.41121399832669,대한민국,KOR,KOR,인천광역시,연수구,,송도동,,센트럴로,415,316,2022-08-16 16:52:33,교육||학원||미술학원||미술학원-일반,False
7830,7831,27397834,스마트 해법수학 루원 시티프라디움점,,Smart solution math Luwon City Plaza,Education,Other Education,126.6680378673865,37.52625837024716,대한민국,KOR,KOR,인천광역시,서구,,가정동,,봉오재3로,66,610-1,2022-08-26 9:52:19,교육||학원||수학학원||프랜차이즈||e해법수학,False
7847,7848,27017051,예원어린이집,,Chorongbyeol Daycare Center,Education,Other Education,126.61856109999992,37.41511879999977,대한민국,KOR,KOR,인천광역시,연수구,,송도동,,랜드마크로,68,311,2022-05-02 21:16:34,교육||아동교육||어린이집||어린이집-일반,False
7848,7849,5876654,아기햇살어린이집,,Baby Sunshine Daycare,Education,Other Education,126.73644176771695,37.48742263390969,대한민국,KOR,KOR,인천광역시,부평구,,부개동,,수변로9번길,51-7,277-26,2022-08-08 10:29:42,교육||아동교육||어린이집||어린이집-일반,False
7854,7855,459977,미일유치원,,US-Japan Kindergarten,Education,Other Education,126.67857588441689,37.51233962019468,대한민국,KOR,KOR,인천광역시,서구,,석남동,,서달로,153-1,470-7,2021-12-23 15:49:18,교육||아동교육||유치원,False
7883,7884,27124789,송수학학원,,Songsoo Academy,Education,Other Education,126.66520294955788,37.5297214290382,대한민국,KOR,KOR,인천광역시,서구,,가정동,,청중로,486,607-3,2022-08-16 16:52:33,교육||학원||수학학원||수학학원-일반,False
7896,7897,5877617,푸른산어린이집,,Blue Mountain Nursery,Education,Other Education,126.70452583590956,37.50117444767368,대한민국,KOR,KOR,인천광역시,부평구,,산곡동,,마장로264번길,36,255-4,2020-03-24 17:03:50,교육||아동교육||어린이집||어린이집-일반,False
7914,7915,27137048,주안컴퓨터아트학원,,Juan Computer Art Academy,Education,Other Education,126.67997669634288,37.460787260435275,대한민국,KOR,KOR,인천광역시,미추홀구,,주안동,,미추홀대로,709,206-5,2022-08-16 16:52:33,"교육||학원||직업,기술학원||컴퓨터||컴퓨터-일반",False
7976,7977,27181779,IQ바둑체스보드게임 영재교실,,IQ Go Chess Board Game Gifted Class,Education,Other Education,126.71344240031215,37.45291812393812,대한민국,KOR,KOR,인천광역시,남동구,,구월동,,구월로,192,23,2022-08-24 14:41:06,교육||학원||취미학원||바둑교실,False
8043,8044,27162698,형태뮤직스페이스 보컬센터,,Form Music Space Vocal Center,Education,Other Education,126.67085259999996,37.40866859999977,대한민국,KOR,KOR,인천광역시,연수구,,동춘동,,앵고개로,242,937,2022-08-12 13:15:03,"교육||학원||음악학원||노래,발성,보컬학원",False
8076,8077,27163903,플라톤아카데미 마리나베이교실,,Plato Academy Marina Bay Classroom,Education,Other Education,126.611822802487,37.4123611067255,대한민국,KOR,KOR,인천광역시,연수구,,송도동,,랜드마크로,160,308-1,2022-05-01 12:37:48,교육||학원||논술||논술-일반,False
8084,8085,27182141,플러스에듀학원,,Plus Edu Academy,Education,Other Education,126.7130198979499,37.50220523373829,대한민국,KOR,KOR,인천광역시,부평구,,산곡동,,부영로189번길,51,281-5,2022-08-12 13:15:03,교육||학원||보습학원,False
8090,8091,27162674,엠스터디 수학학원,,M-study Mathematics Academy,Education,Other Education,126.67182178310692,37.40755601784476,대한민국,KOR,KOR,인천광역시,연수구,,동춘동,,앵고개로264번길,10-13,934,2022-08-16 16:52:33,교육||학원||수학학원||수학학원-일반,False
8127,8128,27075835,루원음악미술학원,,Luwon Academy of Music and Art,Education,Other Education,126.66975438567188,37.52721494764359,대한민국,KOR,KOR,인천광역시,서구,,가정동,,봉오재3로,90,619-1,2022-08-16 16:52:33,교육||학원||미술학원||미술학원-일반,False
8129,8130,3133768,삼성영어서흥초교실,,Samsung English Seoheung Elementary School,Education,Other Education,126.64637438605286,37.47945394186717,대한민국,KOR,KOR,인천광역시,동구,,송림동,,샛골로194번길,13,32-158,2020-01-14 23:42:11,교육||학원||어학원||영어학원||영어학원-일반,False
8213,8214,4343303,엘리트스터디학원,,elite study academy,Education,Other Education,126.65609105421888,37.465833458687165,대한민국,KOR,KOR,인천광역시,미추홀구,,숭의동,,수봉로,4,60-21,2022-08-24 14:41:06,교육||학원||보습학원,False
8252,8253,27182112,에스씨에이아카데미인천,,SCA Academy Incheon,Education,Other Education,126.70711703730989,37.44817253080056,대한민국,KOR,KOR,인천광역시,남동구,,구월동,,남동대로,737,1149-5,2022-05-01 12:37:48,"교육||학원||직업,기술학원||컴퓨터||컴퓨터-일반",False
8256,8257,3363157,창조의아침미술학원 송도캠퍼스,창조의아침미술학원연수캠퍼스,Creative Morning Art Academy Songdo Campus,Education,Other Education,126.64892899999997,37.391392399999766,대한민국,KOR,KOR,인천광역시,연수구,,송도동,,해돋이로,107,4-1,2022-08-16 16:52:33,교육||학원||미술학원||프랜차이즈||창조의아침미술학원,False
8267,8268,20270564,국공립 두리하나어린이집,,National and Public Durihana Daycare Center,Education,Other Education,126.6642561849499,37.47273150796986,대한민국,KOR,KOR,인천광역시,미추홀구,,도화동,,숙골로112번길,22,1007-2,2022-08-16 16:52:33,교육||아동교육||어린이집||국공립어린이집,False
8275,8276,5895162,사랑나무 어린이집,,Love Tree Nursery,Education,Other Education,126.55543187208912,37.48681061144848,대한민국,KOR,KOR,인천광역시,중구,,중산동,,하늘달빛로,113,1871-3,2022-09-06 15:18:26,교육||아동교육||어린이집||어린이집-일반,False
8290,8291,5886057,해마루어린이집,,Haemaru Daycare Center,Education,Other Education,126.7247672484729,37.398162390871846,대한민국,KOR,KOR,인천광역시,남동구,,논현동,,앵고개로815번길,22,740-2,2019-11-14 23:16:02,교육||아동교육||어린이집||국공립어린이집,False
8291,8292,27238011,이화음악교습소,,Ewha Music Academy,Education,Other Education,126.73221657950292,37.39511042394634,대한민국,KOR,KOR,인천광역시,남동구,,논현동,,논고개로,12,755-4,2022-05-01 12:37:48,교육||학원||음악학원||피아노||피아노-일반,False
8337,8338,5871142,보물섬어린이집,,Treasure Island Daycare,Education,Other Education,126.6369685046521,37.448829241319515,대한민국,KOR,KOR,인천광역시,미추홀구,,용현동,,낙섬중로,18,627-79,2021-12-23 15:49:18,교육||아동교육||어린이집||어린이집-일반,False
8354,8355,3242376,인천화전유치원,화전유치원,Incheon Hwajeon Kindergarten,Education,Other Education,126.73115736900591,37.52764648501511,대한민국,KOR,KOR,인천광역시,계양구,,작전동,,효서로,314,169-2,2019-11-14 23:29:08,교육||아동교육||유치원,False
8392,8393,6488818,고은별어린이집,,Go Eun-byeol Daycare Center,Education,Other Education,126.69176679999995,37.462118299999794,대한민국,KOR,KOR,인천광역시,미추홀구,,주안동,,경원대로,884,1614,2022-05-01 12:37:48,교육||아동교육||어린이집||어린이집-일반,False
8431,8432,27107936,공터영어 엔터스카이 학원,,Open Space English Enter Sky Academy,Education,Other Education,126.67595607107792,37.59250118209652,대한민국,KOR,KOR,인천광역시,서구,,당하동,,청마로167번길,8,1095-7,2022-08-24 14:41:06,교육||학원||어학원||영어학원||공터영어,False
8437,8438,336510,연세숲어린이집,,Yonsei Forest Day care Center,Education,Other Education,126.73861062762394,37.45386833394197,대한민국,KOR,KOR,인천광역시,남동구,,만수동,,인수북로4번길,5-15,63-5,2021-12-23 15:49:18,교육||아동교육||어린이집||어린이집-일반,False
8479,8480,5863887,별빛어린이집,,Starlight Daycare,Education,Other Education,126.73115849904973,37.406800189989085,대한민국,KOR,KOR,인천광역시,남동구,,논현동,,논현로,235,601-1,2021-12-23 15:49:18,교육||아동교육||어린이집||어린이집-일반,False
8500,8501,363950,큰사랑어린이집,,big love nursery,Education,Other Education,126.72436644427997,37.45388272827308,대한민국,KOR,KOR,인천광역시,남동구,,구월동,,복개서로,75,1259-18,2022-09-06 15:18:26,교육||아동교육||어린이집||어린이집-일반,False
8541,8542,5879703,풍림어린이집,,Poonglim Daycare Center,Education,Other Education,126.67953007497736,37.49194324925788,대한민국,KOR,KOR,인천광역시,서구,,가좌동,,원적로47번길,6,214,2022-05-01 12:37:48,교육||아동교육||어린이집||어린이집-일반,False
8576,8577,6215704,아트비미술교습소,,Artbee art academy,Education,Other Education,126.66337649064197,37.60097813114345,대한민국,KOR,KOR,인천광역시,서구,,마전동,,완정로92번길,41,997-1,2022-08-24 14:41:06,교육||학원||미술학원||미술학원-일반,False
8583,8584,27425280,링키홈 송도센트럴시티점,,Linky Home Songdo Central City Branch,Education,Other Education,126.64982120070361,37.372977068741,대한민국,KOR,KOR,인천광역시,연수구,,송도동,,송도국제대로,261,190-4,2022-08-08 10:29:42,교육||학원||공부방||공부방-일반,False
8636,8637,1850358,백령어린이집,,Baengnyeong Daycare Center,Education,Other Education,124.66393309996629,37.9592914999992,대한민국,KOR,KOR,인천광역시,옹진군,,백령면,북포리,백령로,846-17,493-18,2018-09-18 15:00:00,교육||아동교육||어린이집||국공립어린이집,False
8637,8638,27120417,라온음악교습소,,Raon Music Academy,Education,Other Education,126.56447855384091,37.489686017041656,대한민국,KOR,KOR,인천광역시,중구,,중산동,,하늘별빛로,66,1887-2,2022-08-12 13:15:03,교육||학원||음악학원||음악학원-일반,False
8677,8678,1259520,파란들어린이집,,blue field daycare,Education,Other Education,126.6718542311419,37.442722771704375,대한민국,KOR,KOR,인천광역시,미추홀구,,학익동,,학익소로61번길,30,36-21,2021-12-23 15:49:18,교육||아동교육||어린이집||어린이집-일반,False
8704,8705,5888530,토마토어린이집,,Tomato Nursery,Education,Other Education,126.67307332197312,37.56330844617264,대한민국,KOR,KOR,인천광역시,서구,,검암동,,승학로471번길,7,605-1,2021-12-23 15:49:18,교육||아동교육||어린이집||어린이집-일반,False
8754,8755,3898790,예능어린이집,,entertainment daycare,Education,Other Education,126.64334723897386,37.455247763996766,대한민국,KOR,KOR,인천광역시,미추홀구,,용현동,,낙섬동로109번길,4-1,556-63,2021-12-23 15:49:18,교육||아동교육||어린이집||어린이집-일반,False
8759,8760,27228126,명인피아노학원,,Myeongin Piano Academy,Education,Other Education,126.7004608432059,37.474190980791775,대한민국,KOR,KOR,인천광역시,부평구,,십정동,,하정로,2,398,2022-08-24 14:41:06,교육||학원||음악학원||피아노||피아노-일반,False
8808,8809,27069942,하하하잉글리쉬학원,,hahaha english academy,Education,Other Education,126.63925049999992,37.532028699999806,대한민국,KOR,KOR,인천광역시,서구,,청라동,,크리스탈로74번길,25,153-4,2022-08-12 13:15:03,교육||학원||어학원||영어학원||영어학원-일반,False
8811,8812,5885640,가인어린이집,,Gain Daycare,Education,Other Education,126.70888390609024,37.40608446290703,대한민국,KOR,KOR,인천광역시,남동구,,논현동,,은봉로165번길,24,580-1,2022-08-16 16:52:33,교육||아동교육||어린이집||어린이집-일반,False
8813,8814,6142465,위브긍정어린이집,,We've Positive Nursery School,Education,Other Education,126.68698509999994,37.490418599999806,대한민국,KOR,KOR,인천광역시,서구,,가좌동,,여우재로,136,611,2022-06-13 10:44:13,교육||아동교육||어린이집||어린이집-일반,False
8820,8821,5882004,소명어린이집, ,Somyung Daycare Center,Education,Other Education,126.65309970814656,37.52913613528808,대한민국,KOR,KOR,인천광역시,서구,,청라동,,청라라임로,17,185-1,2022-05-01 12:37:48,교육||아동교육||어린이집||어린이집-일반,False
8936,8937,27127990,역전타에듀학원 인천연수캠퍼스,,Yeokjeok Taed Edu Academy Incheon Training Campus,Education,Other Education,126.69330419784185,37.42342241176026,대한민국,KOR,KOR,인천광역시,연수구,,선학동,,비류대로529번길,3,376-5,2022-05-01 12:37:48,교육||학원||입시학원||프랜차이즈||역전타에듀학원,False
8953,8954,27173469,눈높이러닝센터 논현에코점,눈높이 논현에코점,Noonnoppi Learning Center Nonhyeon Eco Branch,Education,Other Education,126.72788173255192,37.39742049678337,대한민국,KOR,KOR,인천광역시,남동구,,논현동,,논고개로,61,747-1,2022-08-24 14:41:06,교육||학원||학습지||프랜차이즈||눈높이,False
9107,9108,27056779,라미기타드럼학원,,La Mi Guita Drum Academy,Education,Other Education,126.68354169999996,37.567032099999835,대한민국,KOR,KOR,인천광역시,서구,,검암동,,승학로,578,513-9,2022-08-16 16:52:33,교육||학원||음악학원||실용음악학원||실용음악학원-일반,False
9134,9135,27058058,제이앤케이 실용음악학원,,J&K Practical Music Academy,Education,Other Education,126.65696338730092,37.60153261983803,대한민국,KOR,KOR,인천광역시,서구,,왕길동,,검단로,474,659-5,2022-05-01 12:37:48,교육||학원||음악학원||실용음악학원||실용음악학원-일반,False
9186,9187,5754441,JS실용음악학원,제이에스실용음악학원,JS Practical Music Academy,Education,Other Education,126.7171585989189,37.5280411206399,대한민국,KOR,KOR,인천광역시,계양구,,효성동,,효서로,191,295-1,2022-05-01 12:37:48,교육||학원||음악학원||실용음악학원||실용음악학원-일반,False
9202,9203,27424116,더블랙수학,,The Black Math,Education,Other Education,126.71487259999992,37.59451169999984,대한민국,KOR,KOR,인천광역시,서구,,원당동,,이음5로,62,439-7,2022-08-30 9:43:30,교육||학원||보습학원,False
9415,9416,5687730,프라미스학원,,Promise Academy,Education,Other Education,126.69040324235988,37.44556216512916,대한민국,KOR,KOR,인천광역시,미추홀구,,관교동,,주승로,179,470-4,2022-08-16 16:52:33,교육||학원||보습학원,False
9437,9438,3128314,새은파음악학원,,Saeunpa Music Academy,Education,Other Education,126.73927232362792,37.503959345299016,대한민국,KOR,KOR,인천광역시,부평구,,부개동,,길주남로,157,496-20,2022-08-18 12:00:50,교육||학원||음악학원||피아노||피아노-일반,False
9448,9449,450399,리틀하버드유치원,하버드유치원,Little Harvard Kindergarten,Education,Other Education,126.6618460496029,37.44492374333105,대한민국,KOR,KOR,인천광역시,미추홀구,,학익동,,한나루로403번길,60-3,321-21,2021-12-23 15:49:18,교육||아동교육||유치원,False
9480,9481,3441351,또래또어린이집,,peer-to-peer daycare,Education,Other Education,126.73557284277592,37.50087920267968,대한민국,KOR,KOR,인천광역시,부평구,,부개동,,부흥북로,119,23-8,2021-12-23 15:49:18,교육||아동교육||어린이집||어린이집-일반,False
9535,9536,1260822,시온예능어린이집,예능어린이집,Zion Entertainment Day care Center,Education,Other Education,126.72175095129192,37.46187443448457,대한민국,KOR,KOR,인천광역시,남동구,,간석동,,백범로248번길,23,920-27,2022-05-01 12:37:48,교육||아동교육||어린이집||어린이집-일반,False
9537,9538,6223821,대성제넥스학원 부평4동분원,제넥스학원 부평4동분원,Daesung Genex Academy Bupyeong 4 East Branch,Education,Other Education,126.72535263103592,37.49892735127039,대한민국,KOR,KOR,인천광역시,부평구,,부평동,,주부토로46번길,4,415-9,2022-08-12 13:15:03,교육||학원||보습학원,False
9620,9621,20184077,엘린피아노,,Elin piano,Education,Other Education,126.74596486901996,37.43013709661627,대한민국,KOR,KOR,인천광역시,남동구,,서창동,,서창남순환로,108,639,2022-08-24 14:41:06,교육||학원||음악학원||피아노||피아노-일반,False
9642,9643,3644463,더멘토르학원,더멘토르영어수학전문학원,The Mentor Academy,Education,Other Education,126.72022875554391,37.49328098166481,대한민국,KOR,KOR,인천광역시,부평구,,부평동,,부평문화로,32,251-14,2021-12-23 15:49:18,교육||학원||학원-일반,False
9655,9656,27221239,바다국어교실,,sea ​​language class,Education,Other Education,126.65681172212392,37.5339804806608,대한민국,KOR,KOR,인천광역시,서구,,청라동,,청라에메랄드로102번길,8,167-4,2022-05-01 12:37:48,교육||학원||보습학원,False
9685,9686,5879499,동산어린이집,,Dongsan Daycare,Education,Other Education,126.64931859999994,37.47136729999978,대한민국,KOR,KOR,인천광역시,동구,,송림동,,새천년로,29,97-6,2021-12-23 15:49:18,교육||아동교육||어린이집||국공립어린이집,False
9689,9690,5857910,푸르미어린이집,,Purmi Nursery School,Education,Other Education,126.64293709999994,37.39308769999976,대한민국,KOR,KOR,인천광역시,연수구,,송도동,,센트럴로,160,23-5,2022-08-16 16:52:33,교육||아동교육||어린이집||어린이집-일반,False
9692,9693,5891356,아이친구어린이집,,kids friend daycare,Education,Other Education,126.74971241267832,37.43700592719057,대한민국,KOR,KOR,인천광역시,남동구,,서창동,,장아산로,160,560-4,2021-12-23 15:49:18,교육||아동교육||어린이집||어린이집-일반,False
9777,9778,1257686,공립금산어린이집,금산어린이집,Public Geumsan Daycare Center,Education,Other Education,126.51984679999975,37.505900399999774,대한민국,KOR,KOR,인천광역시,중구,,운북동,,백운로351번길,3,582-5,2022-05-01 12:37:48,교육||아동교육||어린이집||국공립어린이집,False
9790,9791,27182839,용현세인코딩센터,,Yonghyeon Sein Coding Center,Education,Other Education,126.64905474707686,37.44814896968195,대한민국,KOR,KOR,인천광역시,미추홀구,,용현동,,독배로,311,665-12,2022-08-12 13:15:03,교육||학원||보습학원,False
9792,9793,27184140,기분좋은학원,,good school,Education,Other Education,126.72386509999995,37.40168659999976,대한민국,KOR,KOR,인천광역시,남동구,,논현동,,논고개로,117,631-10,2022-08-16 16:52:33,교육||학원||보습학원,False
9805,9806,27067009,클래스케이수학학원,,Class K Math Academy,Education,Other Education,126.5635930507558,37.488747396598875,대한민국,KOR,KOR,인천광역시,중구,,중산동,,하늘별빛로65번길,7-4,1885-1,2022-08-16 16:52:33,교육||학원||수학학원||수학학원-일반,False
9807,9808,27093030,하이수학,,high math,Education,Other Education,126.68144712550188,37.56670049801272,대한민국,KOR,KOR,인천광역시,서구,,검암동,,검암로30번길,10,506-3,2022-08-24 14:41:06,교육||학원||수학학원||수학학원-일반,False
9827,9828,5859188,우성어린이집,,Woosung Daycare,Education,Other Education,126.6824907209774,37.40975402503632,대한민국,KOR,KOR,인천광역시,연수구,,연수동,,청능대로,175,635,2021-12-23 15:49:18,교육||아동교육||어린이집||어린이집-일반,False
9847,9848,5884748,토토어린이집,,Toto Daycare,Education,Other Education,126.57651029999988,37.542268099999816,대한민국,KOR,KOR,인천광역시,중구,,중산동,,운염로,42,1865-6,,교육||아동교육||어린이집||어린이집-일반,False
9863,9864,5871033,아이파크어린이집,,I'Park Daycare,Education,Other Education,126.65779236019453,37.38746218242361,대한민국,KOR,KOR,인천광역시,연수구,,송도동,,해돋이로6번길,7,3-46,2021-12-23 15:49:18,교육||아동교육||어린이집||어린이집-일반,False
9877,9878,27330268,아소비 인천 검단디에트르1차점,,Asobi Incheon Geomdan Dietre 1st,Education,Other Education,126.7098698999999,37.58511129999982,대한민국,KOR,KOR,인천광역시,서구,,당하동,,이음2로,30,558-2,2022-08-30 9:43:30,교육||학원||공부방||프랜차이즈||아소비,False
9889,9890,535360,미래클예능어린이집,,Miracle Entertainment Daycare Center,Education,Other Education,126.69640866862788,37.42832141580414,대한민국,KOR,KOR,인천광역시,연수구,,선학동,,넘말로29번길,27,396,2022-08-16 16:52:33,교육||아동교육||어린이집||어린이집-일반,False
9932,9933,2151216,해찬솔어린이집,,Haechansol Nursery School,Education,Other Education,126.69182662290189,37.461237039420176,대한민국,KOR,KOR,인천광역시,미추홀구,,주안동,,경인로471번길,60,925-6,2021-12-23 15:49:18,교육||아동교육||어린이집||어린이집-일반,False
9983,9984,20483747,검단직업능력개발학원,,Geomdan Vocational Competency Development Academy,Education,Other Education,126.65708609999996,37.60160059999984,대한민국,KOR,KOR,인천광역시,서구,,왕길동,,검단로,474,659-5,2022-05-01 12:37:48,교육||학원||요리학원||요리학원-일반,False
10007,10008,988665,보나유치원,,Bona Kindergarten,Education,Other Education,126.73985479999996,37.53003899999983,대한민국,KOR,KOR,인천광역시,계양구,,작전동,,효서로,393,915-1,2022-08-18 12:00:50,교육||아동교육||유치원,False
10009,10010,27084318,한솔교육 서인천지점,,Hansol Education Seoincheon Branch,Education,Other Education,126.67723415701792,37.5428861189836,대한민국,KOR,KOR,인천광역시,서구,,심곡동,,서곶로,284,303-1,2022-05-01 12:37:48,교육||학원||학습지||프랜차이즈||한솔교육,False
10022,10023,3452198,논현유니랭스어학원,,Nonhyeon University Language School,Education,Other Education,126.72633863516492,37.39855752638895,대한민국,KOR,KOR,인천광역시,남동구,,논현동,,논고개로,77,746-4,2022-05-01 12:37:48,교육||학원||어학원||영어학원||영어학원-일반,False
10082,10083,27047957,웅진씽크빅 인천남동지국,,Woongjin ThinkBig Incheon Namdong Branch,Education,Other Education,126.71457307005888,37.45746755995059,대한민국,KOR,KOR,인천광역시,남동구,,구월동,,용천로,87,70-14,2022-05-01 12:37:48,교육||학원||학습지||프랜차이즈||웅진씽크빅,False
10125,10126,5888819,코끼리맘어린이집,,Elephant Mom Nursery,Education,Other Education,126.73759774811165,37.44281195873336,대한민국,KOR,KOR,인천광역시,남동구,,만수동,,담방로21번길,24,1042,2021-12-23 15:49:18,교육||아동교육||어린이집||어린이집-일반,False
10179,10180,5432159,프레이즈 실용음악학원,,Phrase Practical Music Academy,Education,Other Education,126.73593046163693,37.46321176406148,대한민국,KOR,KOR,인천광역시,남동구,,만수동,,만수로75번길,21,5-9,2022-08-08 10:29:42,교육||학원||음악학원||실용음악학원||실용음악학원-일반,False
10244,10245,5878239,아이숲어린이집,,Children's Forest Daycare,Education,Other Education,126.73203144401286,37.48464706314479,대한민국,KOR,KOR,인천광역시,부평구,,부개동,,동수로120번길,11,442-3,2020-03-23 9:51:20,교육||아동교육||어린이집||어린이집-일반,False
10319,10320,5891075,동아꼬마숲어린이집,,Donga Little Forest Daycare Center,Education,Other Education,126.71819431281428,37.49469625161089,대한민국,KOR,KOR,인천광역시,부평구,,부평동,,부평문화로,37,70-5,2019-12-11 10:32:22,교육||아동교육||어린이집||어린이집-일반,False
10327,10328,1870865,씨튼어린이집,,Seaton Daycare,Education,Other Education,126.73639849953592,37.44729954052556,대한민국,KOR,KOR,인천광역시,남동구,,만수동,,담방서로23번길,17,1085-6,2019-11-14 23:25:18,교육||아동교육||어린이집||국공립어린이집,False
10341,10342,27427753,더클래스브레인학원,,The Class Brain Academy,Education,Other Education,126.69596071236388,37.59272897256012,대한민국,KOR,KOR,인천광역시,서구,,당하동,,고산후로95번길,28,1029-8,2022-08-08 10:29:42,교육||학원||보습학원,False
10348,10349,27185267,인천이용학원,,Incheon User Academy,Education,Other Education,126.73087199999996,37.54341689999982,대한민국,KOR,KOR,인천광역시,계양구,,계산동,,경명대로,1115,918-6,2022-05-01 12:37:48,"교육||학원||직업,기술학원||미용||미용-일반",False
10399,10400,27220237,갈산한솔플러스수학학원,,Galsan Hansol Plus Math Academy,Education,Other Education,126.72586876879193,37.51122063515109,대한민국,KOR,KOR,인천광역시,부평구,,갈산동,,주부토로,179,364-2,2022-08-12 13:15:03,교육||학원||수학학원||수학학원-일반,False
10414,10415,27185306,최스음악학원,,Choi's Music Academy,Education,Other Education,126.67900385951188,37.510346493764985,대한민국,KOR,KOR,인천광역시,서구,,석남동,,서달로130번길,3,109-70,2022-08-16 16:52:33,교육||학원||음악학원||피아노||피아노-일반,False
10462,10463,918397,기암유치원,,Giam Kindergarten,Education,Other Education,126.72469899999987,37.46416129999975,대한민국,KOR,KOR,인천광역시,남동구,,만수동,,서판로,43,1114,2022-08-18 12:00:50,교육||아동교육||유치원,False
10525,10526,5872985,청일초등학교 병설유치원,청일초교 병설유치원,Kindergarten attached to Cheongil Elementary School,Education,Other Education,126.63749163724884,37.529060603822096,대한민국,KOR,KOR,인천광역시,서구,,청라동,,크리스탈로,46,173-2,2021-12-23 15:49:18,교육||아동교육||병설유치원,False
10617,10618,27185155,눈높이러닝센터 부흥점,,Noonnoppi Learning Center Buheung Branch,Education,Other Education,126.73726874351495,37.497063478535104,대한민국,KOR,KOR,인천광역시,부평구,,부개동,,동수천로,132,502-9,2022-08-12 13:15:03,교육||학원||학습지||프랜차이즈||눈높이,False
10646,10647,5884742,하늘빛어린이집,,sky light daycare,Education,Other Education,126.66966106021108,37.49958488802511,대한민국,KOR,KOR,인천광역시,서구,,석남동,,염곡로,172,593,2021-12-23 15:49:18,교육||아동교육||어린이집||어린이집-일반,False
10756,10757,5862455,현대해맑은어린이집,,Modern Sunshine Daycare Center,Education,Other Education,126.71278835765143,37.45559776628751,대한민국,KOR,KOR,인천광역시,남동구,,구월동,,구월로,192,23,2021-12-23 15:49:18,교육||아동교육||어린이집||어린이집-일반,False
10793,10794,5367133,송도국제도시베르디움더퍼스트아파트국공립어린이집,,Songdo International City Verdium The First Apartment National Public Daycare Center,Education,Other Education,126.6565636310958,37.370988726536986,대한민국,KOR,KOR,인천광역시,연수구,,송도동,,송도문화로84번길,84,192-8,2021-12-23 15:49:18,교육||아동교육||어린이집||국공립어린이집,False
10817,10818,27100977,김정아화실 미술공간,,Kim Jung-ah's Art Space,Education,Other Education,126.68572247428088,37.46090885852088,대한민국,KOR,KOR,인천광역시,미추홀구,,주안동,,주안동로,29,97-6,2022-08-08 10:29:42,교육||학원||미술학원||미술학원-일반,False
10839,10840,5864302,도두리어린이집,,Doduri Daycare Center,Education,Other Education,126.7389975820392,37.532082687108975,대한민국,KOR,KOR,인천광역시,계양구,,작전동,,도두리로,52,912-3,2020-01-10 18:09:18,교육||아동교육||어린이집||어린이집-일반,False
10850,10851,3242131,인천동춘초등학교병설유치원,인천동춘초등학교병설유치원,Kindergarten attached to Incheon Dongchun Elementary School,Education,Other Education,126.66858582306588,37.40959598379696,대한민국,KOR,KOR,인천광역시,연수구,,동춘동,,앵고개로,224,938-1,2022-05-01 12:37:48,교육||아동교육||병설유치원,False
10881,10882,5885666,맑은샘어린이집,,Sunny Spring Daycare,Education,Other Education,126.72739479138492,37.525753471124105,대한민국,KOR,KOR,인천광역시,계양구,,작전동,,주부토로363번길,27,388-2,2020-01-16 17:02:11,교육||아동교육||어린이집||어린이집-일반,False
10919,10920,5888378,키즈피아어린이집,,Kids Pia Daycare,Education,Other Education,126.74602305378532,37.43869804577774,대한민국,KOR,KOR,인천광역시,남동구,,서창동,,매소홀로,1103,545,2021-12-23 15:49:18,교육||아동교육||어린이집||어린이집-일반,False
10952,10953,2155522,인동초등학교병설유치원,인천인동초등학교병설유치원,Kindergarten attached to Indong Elementary School,Education,Other Education,126.72257482137088,37.46264401729698,대한민국,KOR,KOR,인천광역시,남동구,,만수동,,백범로248번길,38,846,2019-11-14 23:28:28,교육||아동교육||병설유치원,False
11033,11034,4050973,정철어학원주니어 구월캠퍼스,정철어학원구월캠퍼스,Jeongcheol Language School Junior Guwol Campus,Education,Other Education,126.71445137027187,37.457483360206176,대한민국,KOR,KOR,인천광역시,남동구,,구월동,,용천로,87,70-14,2022-05-13 10:36:55,교육||학원||어학원||영어학원||정철어학원주니어,False
11068,11069,20028069,아사달학원,MACMILLANACADEMY,Asadal Academy,Education,Other Education,126.72289345416993,37.45154123109358,대한민국,KOR,KOR,인천광역시,남동구,,구월동,,구월말로27번길,30,1302-49,2022-05-01 12:37:48,교육||학원||보습학원,False
11117,11118,27181854,차이홍중국어 인천 교육국,,"Tsai Hong Chinese, Incheon Office of Education",Education,Other Education,126.70315523722788,37.44969785879989,대한민국,KOR,KOR,인천광역시,남동구,,구월동,,인주대로,596,1126-7,2022-08-08 10:29:42,교육||학원||어학원||중국어학원||중국어학원-일반,False
11128,11129,27424133,검단날개수학학원,,Geomdanwing Math Academy,Education,Other Education,126.71269172969131,37.59318735219927,대한민국,KOR,KOR,인천광역시,서구,,원당동,,이음대로,388,487-4,2022-09-06 15:18:26,교육||학원||수학학원||수학학원-일반,False
11148,11149,27069521,페이스국어학원,,face language school,Education,Other Education,126.73614524119894,37.508250547640685,대한민국,KOR,KOR,인천광역시,부평구,,삼산동,,체육관로,40,459-5,2022-08-16 16:52:33,교육||학원||입시학원||입시학원-일반,False
11156,11157,5885177,사과나무어린이집,,Apple Tree Nursery,Education,Other Education,126.64674043694743,37.426376353935446,대한민국,KOR,KOR,인천광역시,연수구,,옥련동,,독배로,58,633,2021-12-23 15:49:18,교육||아동교육||어린이집||어린이집-일반,False
11162,11163,2596636,청천예어린이집,,Cheongcheon Art Nursery,Education,Other Education,126.7045176627429,37.5076525107274,대한민국,KOR,KOR,인천광역시,부평구,,산곡동,,마장로,330,100-9,2022-05-02 21:16:34,교육||아동교육||어린이집||어린이집-일반,False
11164,11165,5902744,한양수자인관리동어린이집, ,Hanyang Soojain Management Building Day care Center,Education,Other Education,126.62112930045484,37.525986499572795,대한민국,KOR,KOR,인천광역시,서구,,청라동,,비즈니스로,41,102-2,2022-05-01 12:37:48,교육||아동교육||어린이집||어린이집-일반,False
11172,11173,3844083,엔와이댄스 인천점,NY댄스인천점,N Y Dance Incheon Branch,Education,Other Education,126.73870519999996,37.53835939999983,대한민국,KOR,KOR,인천광역시,계양구,,용종동,,오조산로,83,211-3,2022-09-06 15:18:26,교육||학원||댄스학원||댄스학원-일반,False
11244,11245,27218983,이혜경고등수학학원,,Hyekyung Lee High School of Mathematics,Education,Other Education,126.73811304442692,37.534094732406,대한민국,KOR,KOR,인천광역시,계양구,,계산동,,도두리로,33,1083-4,2022-08-16 16:52:33,교육||학원||수학학원||수학학원-일반,False
11264,11265,5856942,그린키즈어린이집, ,Green Kids Daycare,Education,Other Education,126.64017982171262,37.53879481425003,대한민국,KOR,KOR,인천광역시,서구,,청라동,,크리스탈로,148,139-1,2022-05-01 12:37:48,교육||아동교육||어린이집||어린이집-일반,False
11271,11272,5860312,금별어린이집,,Geumbyeol Daycare Center,Education,Other Education,126.75801138834954,37.55814630524526,대한민국,KOR,KOR,인천광역시,계양구,,동양동,,동양로,100,582,2021-12-23 15:49:18,교육||아동교육||어린이집||어린이집-일반,False
11278,11279,27069401,텐탑학원,,Ten Top Academy,Education,Other Education,126.7041796494289,37.49729103900859,대한민국,KOR,KOR,인천광역시,부평구,,산곡동,,화랑북로11번길,38,236-21,2022-08-12 13:15:03,교육||학원||보습학원,False
11302,11303,3115759,예지찬 음악학원,,Ye Ji-chan  Music Academy,Education,Other Education,126.69349145102088,37.42343479868576,대한민국,KOR,KOR,인천광역시,연수구,,선학동,,학나래로5번길,53,368,2020-01-14 23:38:56,교육||학원||음악학원||음악학원-일반,False
11305,11306,1245943,다솔어린이집,,Dasol Daycare,Education,Other Education,126.6825375000008,37.52120829999807,대한민국,KOR,KOR,인천광역시,서구,,가정동,,서곶로,12,546,2020-06-30 0:00:00,교육||아동교육||어린이집||어린이집-일반,False
11318,11319,900114,연세유치원,,Yonsei Kindergarten,Education,Other Education,126.70945750594096,37.51484527677132,대한민국,KOR,KOR,인천광역시,부평구,,청천동,,세월천로,16,176,2022-05-01 12:37:48,교육||아동교육||유치원,False
11327,11328,1257079,논현영재아카데미학원,논현아카데미,Nonhyeon Gifted Learning Academy,Education,Other Education,126.72098947853593,37.401370614099136,대한민국,KOR,KOR,인천광역시,남동구,,논현동,,논현역로,8,631-1,2022-08-18 12:00:50,교육||학원||보습학원,False
11393,11394,5904063,산새소리유치원,,Sansaesori Kindergarten,Education,Other Education,126.64763520033412,37.477139842303856,대한민국,KOR,KOR,인천광역시,동구,,송림동,,송림로117번길,6,42-31,2022-05-01 12:37:48,교육||아동교육||유치원,False
11401,11402,5885897,건영 영아어린이집,,Geonyoung  Infant Daycare,Education,Other Education,126.63829091904616,37.47910290765654,대한민국,KOR,KOR,인천광역시,동구,,송현동,,송현로,50,154,2022-05-01 12:37:48,교육||아동교육||어린이집||어린이집-일반,False
11405,11406,20073850,이화어린이집,,Ewha Nursery School,Education,Other Education,126.73708199928396,37.504842966684095,대한민국,KOR,KOR,인천광역시,부평구,,부개동,,충선로,176-10,12-152,2021-12-23 15:49:18,교육||아동교육||어린이집||어린이집-일반,False
11456,11457,5870322,푸른들어린이집,,blue field daycare,Education,Other Education,126.69355845647544,37.6186208899434,대한민국,KOR,KOR,인천광역시,서구,,불로동,,고산후로,398,806,2021-12-23 15:49:18,교육||아동교육||어린이집||어린이집-일반,False
11483,11484,1252803,대우늘푸른어린이집,늘푸른어린이집,Daewooneul Blue Nursery,Education,Other Education,126.67699649999994,37.59170649999984,대한민국,KOR,KOR,인천광역시,서구,,당하동,,청마로,170,1099-2,2021-12-23 15:49:18,교육||아동교육||어린이집||어린이집-일반,False
11524,11525,5864333,앨리스어린이집,,Alice Nursery,Education,Other Education,126.56622919999992,37.49127569999981,대한민국,KOR,KOR,인천광역시,중구,,중산동,,하늘별빛로,66,1887-2,2022-05-01 12:37:48,교육||아동교육||어린이집||어린이집-일반,False
11626,11627,5894083,대화초등학교 병설유치원,대화초교 병설유치원,Kindergarten attached to Daehwa Elementary School,Education,Other Education,126.66851949500192,37.46903405517217,대한민국,KOR,KOR,인천광역시,미추홀구,,도화동,,석정로301번길,13,105-11,2022-05-01 12:37:48,교육||아동교육||병설유치원,False
11672,11673,20014136,삼성영어 숭의교실,,Samsung English Songui Classroom,Education,Other Education,126.65463961605488,37.46221118936648,대한민국,KOR,KOR,인천광역시,미추홀구,,숭의동,,장천로94번길,1,34-23,2022-05-01 12:37:48,교육||학원||어학원||영어학원||삼성영어,False
11678,11679,495302,햇살담은어린이집,, Daycare with Sunshine,Education,Other Education,126.7034255814349,37.51096923167849,대한민국,KOR,KOR,인천광역시,부평구,,산곡동,,마장로367번길,1,7-65,2022-05-01 12:37:48,교육||아동교육||어린이집||어린이집-일반,False
11695,11696,5868149,송현초어린이집,,Songhyeon Elementary School,Education,Other Education,126.63388729937184,37.48168526296767,대한민국,KOR,KOR,인천광역시,동구,,송현동,,송화로,45,66-21,2022-05-18 11:21:23,교육||아동교육||어린이집||어린이집-일반,False
11719,11720,288655,소나무어린이집,,Dream Tree Montessori Nursery School,Education,Other Education,126.69541609999995,37.4750778999998,대한민국,KOR,KOR,인천광역시,부평구,,십정동,,배곶로,79-1,324,2022-08-18 12:00:50,교육||아동교육||어린이집||어린이집-일반,False
11745,11746,20104173,검암역로열파크씨티푸르지오1단지아파트어린이집,1단지검암역로열파크씨티푸르지오아파트어린이집,Geomam Station Royal Park City Prugio Apartment Complex 1 Daycare Center,Education,Other Education,126.66693924313188,37.57929540279003,대한민국,KOR,KOR,인천광역시,서구,,백석동,,,,175-5,2022-05-01 12:37:48,교육||아동교육||어린이집||어린이집-일반,False
11784,11785,27424121,라피스뮤직피아노음악교습소,,Lapis Music Piano Music Academy,Education,Other Education,126.71487259999992,37.59451169999984,대한민국,KOR,KOR,인천광역시,서구,,원당동,,이음5로,62,439-7,2022-08-30 9:43:30,교육||학원||음악학원||피아노||피아노-일반,False
11814,11815,1256412,피아노아이,,piano kid,Education,Other Education,126.64408254907588,37.42268636737876,대한민국,KOR,KOR,인천광역시,연수구,,옥련동,,능허대로123번길,17,194-90,2020-06-15 0:00:00,교육||학원||음악학원||피아노||피아노-일반,False
11819,11820,27076862,셀파우등생교실 서구불로월드점,,Self-Powd School Classroom Seogu Bulo World Branch,Education,Other Education,126.69197305688716,37.61705055996369,대한민국,KOR,KOR,인천광역시,서구,,불로동,,검단로,836,308,2022-08-16 16:52:33,교육||학원||공부방||공부방-일반,False
11841,11842,27187171,잉글리시에그 인천청라호수센터,,English League Incheon Cheongna Lake Center,Education,Other Education,126.63692919999993,37.53387899999982,대한민국,KOR,KOR,인천광역시,서구,,청라동,,크리스탈로,100,152-1,2022-05-01 12:37:48,"교육||유,아동학습||영어교육||프랜차이즈||잉글리시에그",False
11862,11863,5879428,누리어린이집, ,Nuri Daycare Center,Education,Other Education,126.69506980052688,37.46176769981788,대한민국,KOR,KOR,인천광역시,미추홀구,,주안동,,경원대로864번길,114,1618,2018-12-03 20:39:11,교육||아동교육||어린이집||어린이집-일반,False
11864,11865,27115141,아이러브음악학원,,I Love Music Academy,Education,Other Education,126.66980959790466,37.40699226199627,대한민국,KOR,KOR,인천광역시,연수구,,동춘동,,먼우금로83번길,12,938,2022-08-12 13:15:03,교육||학원||음악학원||음악학원-일반,False
11879,11880,20046796,시원씨앤에이학원,,Siwon C&A academy,Education,Other Education,126.65094180000033,37.39568629999984,대한민국,KOR,KOR,인천광역시,연수구,,송도동,,컨벤시아대로,69,3-1,2020-06-23 0:00:00,교육||학원||논술||논술-일반,False
11881,11882,4356053,에듀피아유치원,,edupia kindergarten,Education,Other Education,126.75087744223492,37.43040770608496,대한민국,KOR,KOR,인천광역시,남동구,,서창동,,장아산로232번길,16-5,646,2022-08-16 16:52:33,교육||아동교육||유치원,False
11885,11886,27184181,오쌤주산수학공부방,,Oh Sam Jusan Mathematics Study Room,Education,Other Education,126.7248444215219,37.50030107727599,대한민국,KOR,KOR,인천광역시,부평구,,부평동,,부흥북로24번길,23,434-5,2022-05-01 12:37:48,교육||학원||공부방||공부방-일반,False
11960,11961,27050763,삼성영어 영종푸르지오자이교실,,Samsung English Yeongjong Prugio Xi Classroom,Education,Other Education,126.5499616019448,37.48983487770533,대한민국,KOR,KOR,인천광역시,중구,,운남동,,은하수로,412,1779,2022-08-08 10:29:42,교육||학원||어학원||영어학원||삼성영어,False
12057,12058,6209994,이레어린이집,,Ire Daycare,Education,Other Education,126.71242210820688,37.5257203737952,대한민국,KOR,KOR,인천광역시,계양구,,효성동,,아나지로185번길,4,273-56,2021-12-23 15:49:18,교육||아동교육||어린이집||어린이집-일반,False
12080,12081,27153241,꾸메땅학습코칭학원,,Kumetang Learning Coaching Academy,Education,Other Education,126.65184388635086,37.39537038561814,대한민국,KOR,KOR,인천광역시,연수구,,송도동,,신송로,121,3-4,2022-05-01 12:37:48,교육||학원||보습학원,False
12082,12083,27213964,아이큐브랜드,,IQ brand,Education,Other Education,126.73239055448792,37.42627324945786,대한민국,KOR,KOR,인천광역시,남동구,,도림동,,도림북로,41-9,17-1,2022-08-08 10:29:42,"교육||유,아동학습||놀이교육||놀이교육-일반",False
12087,12088,5870603,로뎀어린이집,,Rodem Daycare,Education,Other Education,126.65786591437131,37.44211872518728,대한민국,KOR,KOR,인천광역시,미추홀구,,학익동,,매소홀로,340,721,2021-12-23 15:49:18,교육||아동교육||어린이집||어린이집-일반,False
12103,12104,3588216,꼬마정원유치원,,Little Garden Kindergarten,Education,Other Education,126.63558630411084,37.59420152358352,대한민국,KOR,KOR,인천광역시,서구,,오류동,,봉화로15번길,11-7,1729-6,2020-01-14 23:42:49,교육||아동교육||유치원,False
12106,12107,5880058,아람어린이집,,Aram Daycare Center,Education,Other Education,126.73383551812837,37.46281126627783,대한민국,KOR,KOR,인천광역시,남동구,,만수동,,만수서로,55,1115-1,2021-12-23 15:49:18,교육||아동교육||어린이집||어린이집-일반,False
12158,12159,5893223,완정초등학교 병설유치원,완정초교 병설유치원,Wanjeong Elementary School  Auxiliary Kindergarten,Education,Other Education,126.66457524246388,37.59847868617362,대한민국,KOR,KOR,인천광역시,서구,,마전동,,완정로,99,1117,2020-01-14 23:40:31,교육||아동교육||병설유치원,False
12173,12174,495191,푸른세상어린이집,,blue world daycare,Education,Other Education,126.6718808999996,37.40174309999978,대한민국,KOR,KOR,인천광역시,연수구,,동춘동,,원인재로,14,931,2022-07-13 13:54:25,교육||아동교육||어린이집||어린이집-일반,False
12174,12175,5902371,인천예송초등학교병설유치원,인천예송초교병설유치원,Incheon Yesong Elementary School Auxiliary Kindergarten,Education,Other Education,126.63057431851084,37.38749918158805,대한민국,KOR,KOR,인천광역시,연수구,,송도동,,컨벤시아대로252번길,75,105,2021-12-23 15:49:18,교육||아동교육||병설유치원,False
12175,12176,4341599,은샘음악학원,,Eunsam Music Academy,Education,Other Education,126.72548724979195,37.500849985831074,대한민국,KOR,KOR,인천광역시,부평구,,부평동,,주부토로,66,408-2,2022-05-01 12:37:48,교육||학원||음악학원||피아노||피아노-일반,False
12218,12219,4337676,베르디음악전문학원,,Verdi Music Academy,Education,Other Education,126.66976172804588,37.50074354594978,대한민국,KOR,KOR,인천광역시,서구,,석남동,,건지로249번길,17,592-8,2020-01-14 23:24:57,교육||학원||음악학원||음악학원-일반,False
12223,12224,3127647,윤현피아노학원,,Yunhyeon Piano Academy,Education,Other Education,126.71970666900587,37.49900949075298,대한민국,KOR,KOR,인천광역시,부평구,,부평동,,부흥로,251,70-91,2022-08-24 14:41:06,교육||학원||음악학원||피아노||피아노-일반,False
12224,12225,27127017,미래영재학원,,Future Gifted Academy,Education,Other Education,126.72108979672193,37.49830186758169,대한민국,KOR,KOR,인천광역시,부평구,,부평동,,부흥로,264,529-40,2022-08-18 12:00:50,교육||학원||수학학원||수학학원-일반,False
12248,12249,5669922,청학클래스학원,,Cheonghak Class Academy,Education,Other Education,126.65769909999996,37.42742329999977,대한민국,KOR,KOR,인천광역시,연수구,,옥련동,,비류대로,208,307-1,2022-08-16 16:52:33,교육||학원||입시학원||입시학원-일반,False
12298,12299,3123164,로빈초등영어,,Robin Elementary English,Education,Other Education,126.67235573623591,37.407744608870345,대한민국,KOR,KOR,인천광역시,연수구,,동춘동,,앵고개로,260,936-6,2020-01-14 23:38:58,교육||학원||어학원||영어학원||영어학원-일반,False
12336,12337,449329,바다어린이집,,sea daycare,Education,Other Education,126.6676296078799,37.5123936695715,대한민국,KOR,KOR,인천광역시,서구,,석남동,,염곡로311번길,7,168-76,2022-08-18 12:00:50,교육||아동교육||어린이집||어린이집-일반,False
12355,12356,27189932,GnB어학원 가좌1캠퍼스,,GnB Language School Gajwa 1 Campus,Education,Other Education,126.67486757027892,37.49582785949628,대한민국,KOR,KOR,인천광역시,서구,,가좌동,,가정로126번길,29,142-47,2022-08-12 13:15:03,교육||학원||어학원||영어학원||지앤비영어전문학원,False
12395,12396,27083261,하이스트 계양캠퍼스,,Heist Gyeyang Campus,Education,Other Education,126.73828508769692,37.53968659928538,대한민국,KOR,KOR,인천광역시,계양구,,용종동,,오조산공원로,30,212-8,2022-08-08 10:29:42,교육||학원||보습학원,False
12457,12458,336084,뜨락어린이집,,Trek Nursery,Education,Other Education,126.65014479999996,37.42599859999978,대한민국,KOR,KOR,인천광역시,연수구,,옥련동,,한나루로105번길,68,637-1,2018-09-18 15:00:00,교육||아동교육||어린이집||어린이집-일반,False
12458,12459,27163933,지쌤수학&규쌤영어,,Teacher Ji Mathematics & Teacher Kyu English,Education,Other Education,126.62585836895352,37.414057164821,대한민국,KOR,KOR,인천광역시,연수구,,송도동,,랜드마크로,19,315-1,2022-08-18 12:00:50,교육||학원||공부방||공부방-일반,False
12461,12462,5870698,새싹어린이집,,Sprout Nursery,Education,Other Education,126.73612952642628,37.46013912516101,대한민국,KOR,KOR,인천광역시,남동구,,만수동,,만수로50번길,19,20,2021-12-23 15:49:18,교육||아동교육||어린이집||어린이집-일반,False
12499,12500,27094414,인하직업전문학교 계산캠퍼스,,Inha Vocational College Gyesan Campus,Education,Other Education,126.72303214071592,37.5430594629395,대한민국,KOR,KOR,인천광역시,계양구,,계산동,,계양대로,214,944,2022-08-12 13:15:03,"교육||학원||직업,기술학원||미용||미용-일반",False
12512,12513,5887391,파란하늘어린이집,,blue sky daycare,Education,Other Education,126.69305506613831,37.591990103296006,대한민국,KOR,KOR,인천광역시,서구,,당하동,,원당대로840번길,22,1027-15,2021-12-23 15:49:18,교육||아동교육||어린이집||어린이집-일반,False
12525,12526,27070239,유니팝미술학원 인천송도센터,,Unipop Art Academy Incheon Songdo Center,Education,Other Education,126.64629109210688,37.37911706515104,대한민국,KOR,KOR,인천광역시,연수구,,송도동,,인천타워대로54번길,13,9-18,2022-05-01 12:37:48,교육||학원||미술학원||미술학원-일반,False
12546,12547,27153962,엠베스트SE 차오름에듀검단학원,,Mbest SE Chaoreum Edu Gumdan Academy,Education,Other Education,126.69642371249088,37.59467149204233,대한민국,KOR,KOR,인천광역시,서구,,원당동,,고산후로121번길,25,825-4,2022-08-24 14:41:06,교육||학원||입시학원||입시학원-일반,False
12583,12584,20047819,청라다원어린이집,,Cheongna Tea Garden Daycare Center,Education,Other Education,126.62986869999992,37.538237899999835,대한민국,KOR,KOR,인천광역시,서구,,청라동,,청라한내로,132,85-1,2021-12-23 15:49:18,교육||아동교육||어린이집||어린이집-일반,False
12587,12588,5885255,베베맘어린이집,,Bebe Mom Daycare,Education,Other Education,126.7100554818799,37.40741171432316,대한민국,KOR,KOR,인천광역시,남동구,,논현동,,은봉로165번길,24,580-1,2022-08-12 13:15:03,교육||아동교육||어린이집||어린이집-일반,False
12636,12637,27069407,클라이어학원 산곡캠퍼스,,Claire Academy Sangok Campus,Education,Other Education,126.70794008420188,37.50640203314818,대한민국,KOR,KOR,인천광역시,부평구,,산곡동,,마장로324번길,78,124-135,2022-05-01 12:37:48,교육||학원||어학원||영어학원||영어학원-일반,False
12657,12658,27098507,AS 입시학원,에이에스 입시학원,AS entrance exam academy,Education,Other Education,126.73821241917896,37.54495648327961,대한민국,KOR,KOR,인천광역시,계양구,,임학동,,장제로,871,67-8,2022-08-12 13:15:03,교육||학원||입시학원||입시학원-일반,False
12659,12660,2148805,창리피아노,,Changri piano,Education,Other Education,126.4791946959927,37.72342600230442,대한민국,KOR,KOR,인천광역시,강화군,,선원면,창리,중앙로,274-2,663-1,2022-05-01 12:37:48,교육||학원||음악학원||피아노||피아노-일반,False
12673,12674,27119198,I 버클리실용음악학원,,I Berkeley Practical Music Academy,Education,Other Education,126.73268660785892,37.461470734820175,대한민국,KOR,KOR,인천광역시,남동구,,만수동,,만수서로,60,1118-1,2022-08-16 16:52:33,교육||학원||음악학원||실용음악학원||실용음악학원-일반,False
12693,12694,5877710,우람어린이집,,Wooram Daycare,Education,Other Education,126.69348014031344,37.41890172037972,대한민국,KOR,KOR,인천광역시,연수구,,연수동,,원인재로,300,532,2022-08-18 12:00:50,교육||아동교육||어린이집||어린이집-일반,False
12706,12707,3672000,연세간호학원,,Yonsei Nursing School,Education,Other Education,126.70799124392988,37.46209030011268,대한민국,KOR,KOR,인천광역시,남동구,,간석동,,남동대로,893,283-18,2022-08-18 12:00:50,"교육||학원||직업,기술학원||간호",False
12724,12725,4499924,프리마발레하우스학원,프리마발레하우스,Prima Ballet House Academy,Education,Other Education,126.69504937592689,37.59413926372434,대한민국,KOR,KOR,인천광역시,서구,,원당동,,원당대로,841,824-2,2022-05-01 12:37:48,"교육||학원||스포츠,레크레이션학원||무용,발레",False
12740,12741,27113710,한국뷰티미용학원,,Korea Beauty Academy,Education,Other Education,126.67935962342192,37.41835633203097,대한민국,KOR,KOR,인천광역시,연수구,,연수동,,새말로96번길,22,569-7,2022-08-08 10:29:42,"교육||학원||직업,기술학원||미용||미용-일반",False
12765,12766,5902729,봄빛어린이집, ,spring day nursery,Education,Other Education,126.62510339963384,37.522258999858884,대한민국,KOR,KOR,인천광역시,서구,,청라동,,보석로,32,104-13,2021-12-23 15:49:18,교육||아동교육||어린이집||어린이집-일반,False
12791,12792,1870549,랄랄라음악학원,,Lalala Music Academy,Education,Other Education,126.50221076671872,37.742349457002526,대한민국,KOR,KOR,인천광역시,강화군,,강화읍,갑곳리,강화대로248번길,19,391,2022-08-16 16:52:33,교육||학원||음악학원||피아노||피아노-일반,False
12795,12796,5874074,브레인어린이집,,Brain Daycare,Education,Other Education,126.72160538738292,37.40695026019774,대한민국,KOR,KOR,인천광역시,남동구,,논현동,,논고개로175번길,22-9,589-5,2022-08-16 16:52:33,교육||아동교육||어린이집||어린이집-일반,False
12804,12805,3429039,솔빛유치원,,Solbit Kindergarten,Education,Other Education,126.63666546883084,37.48033318645999,대한민국,KOR,KOR,인천광역시,동구,,송현동,,화수로,2,167,2022-08-18 12:00:50,교육||아동교육||유치원,False
12825,12826,27129682,이화뮤직 피아노,,Ewha Music Piano,Education,Other Education,126.63483961983984,37.38826132883625,대한민국,KOR,KOR,인천광역시,연수구,,송도동,,컨벤시아대로230번길,42,98-2,2022-05-01 12:37:48,교육||학원||음악학원||음악학원-일반,False
12850,12851,5890804,뽀로롱아이어린이집, ,Pororon Child Nursery,Education,Other Education,126.6608320004039,37.53501439958671,대한민국,KOR,KOR,인천광역시,서구,,청라동,,,,137-4,2018-12-02 1:00:17,교육||아동교육||어린이집||어린이집-일반,False
12859,12860,5869142,사랑이넘치는어린이집, ,Nursery full of love,Education,Other Education,126.65162060014788,37.539167600170494,대한민국,KOR,KOR,인천광역시,서구,,청라동,,청라라임로,131,116-4,2018-12-02 1:00:21,교육||아동교육||어린이집||어린이집-일반,False
12864,12865,6066340,검단신도시푸르지오더베뉴어린이집,,Geomdan New Town Prugio The Venue Daycare Center,Education,Other Education,126.7099989348239,37.59771123564759,대한민국,KOR,KOR,인천광역시,서구,,원당동,,이음6로,33,1018,2022-05-01 12:37:48,교육||아동교육||어린이집||어린이집-일반,False
12912,12913,4334146,강소현 음악학원,,Kang So-hyun  Music Academy,Education,Other Education,126.6613759415199,37.43954632403926,대한민국,KOR,KOR,인천광역시,미추홀구,,학익동,,한나루로357번길,5-32,698-3,2022-08-08 10:29:42,교육||학원||음악학원||피아노||피아노-일반,False
12919,12920,27242100,삼성영어교습소,,Samsung English Academy,Education,Other Education,126.74261472795712,37.54501056886627,대한민국,KOR,KOR,인천광역시,계양구,,병방동,,용종로,124,433-1,2022-08-12 13:15:03,교육||학원||어학원||영어학원||영어학원-일반,False
12931,12932,27330338,루원오름수학학원,,Luwon Oreum Mathematics Academy,Education,Other Education,126.6701181999999,37.524252899999794,대한민국,KOR,KOR,인천광역시,서구,,가정동,,가정로,437,472-9,2022-07-12 23:00:29,교육||학원||수학학원||수학학원-일반,False
12939,12940,27397912,더그린조경기술학원,,The Green Landscape Technology Academy,Education,Other Education,126.72447059999998,37.54315899999982,대한민국,KOR,KOR,인천광역시,계양구,,계산동,,경명대로,1058,944-11,2022-09-06 15:18:26,"교육||학원||직업,기술학원||직업,기술학원-일반",False
12969,12970,27104686,구몬학습 인천사업국(인천지국),,Gumon Learning Incheon Office (Incheon Branch),Education,Other Education,126.68821696428292,37.45753470701537,대한민국,KOR,KOR,인천광역시,미추홀구,,주안동,,경인로,434,300-3,2022-05-01 12:37:48,교육||학원||학습지||프랜차이즈||구몬학습,False
13011,13012,20184827,튼튼영어마스터클럽,,Strong English Masters Club,Education,Other Education,126.75543825122796,37.56211881989403,대한민국,KOR,KOR,인천광역시,계양구,,동양동,,양지로,40,605,2022-05-01 12:37:48,교육||학원||어학원||영어학원||튼튼영어,False
13031,13032,27091032,제이앤케이영수학원,,J&K Young Education Academy,Education,Other Education,126.48947599122069,37.49273047534684,대한민국,KOR,KOR,인천광역시,중구,,운서동,,흰바위로,41,2794-1,2022-05-01 12:37:48,교육||학원||입시학원||입시학원-일반,False
13064,13065,4355945,일영유치원,,Ilyoung Kindergarten,Education,Other Education,126.70015924358088,37.597163958503046,대한민국,KOR,KOR,인천광역시,서구,,원당동,,고산로45번길,4,841-6,2021-12-23 15:49:18,교육||아동교육||유치원,False
13066,13067,27017082,영종바리스타제빵학원,,Yeongjong Barista Baking Academy,Education,Other Education,126.56389369999988,37.488490499999806,대한민국,KOR,KOR,인천광역시,중구,,중산동,,하늘별빛로65번길,7-12,1885-2,2022-08-12 13:15:03,"교육||학원||직업,기술학원||직업,기술학원-일반",False
13069,13070,5863994,아이들어린이집,,children's daycare,Education,Other Education,126.7384248628154,37.45890758105878,대한민국,KOR,KOR,인천광역시,남동구,,만수동,,백범로124번길,126,13,2021-12-23 15:49:18,교육||아동교육||어린이집||어린이집-일반,False
13070,13071,5889333,보듬손어린이집,,Bodeumson Nursery School,Education,Other Education,126.70799216236084,37.49220618543151,대한민국,KOR,KOR,인천광역시,부평구,,산곡동,,안남로,91,311-126,2022-08-16 16:52:33,교육||아동교육||어린이집||어린이집-일반,False
13100,13101,3242384,석남초등학교 병설유치원,인천석남초등학교병설유치원,Seoknam Elementary School  Auxiliary Kindergarten,Education,Other Education,126.68000244292992,37.510195241660085,대한민국,KOR,KOR,인천광역시,서구,,석남동,,서달로130번길,4,109-32,2020-01-14 23:42:11,교육||아동교육||병설유치원,False
13109,13110,573789,아림유치원,,Arim Kindergarten,Education,Other Education,126.69079991473788,37.49557873374928,대한민국,KOR,KOR,인천광역시,서구,,가좌동,,장고개로,375-11,2-12,2022-08-18 12:00:50,교육||아동교육||유치원,False
13116,13117,3438981,외대어학원 남동캠퍼스,한국외대학교외대어학원,Foreign Language Institute Namdong Campus,Education,Other Education,126.7209051475509,37.463808450929776,대한민국,KOR,KOR,인천광역시,남동구,,간석동,,호구포로,914,918,2022-05-01 12:37:48,교육||학원||어학원||어학원-일반,False
13126,13127,27071362,아테나학원,,Athena Academy,Education,Other Education,126.72209340239192,37.401360672731755,대한민국,KOR,KOR,인천광역시,남동구,,논현동,,논고개로123번길,35,632-1,2022-08-12 13:15:03,교육||학원||어학원||영어학원||영어학원-일반,False
13169,13170,3261820,동심어린이집,,Concentric Nursery,Education,Other Education,126.6997519330869,37.598558473659615,대한민국,KOR,KOR,인천광역시,서구,,원당동,,고산로45번길,28,834-3,2022-08-16 16:52:33,교육||아동교육||어린이집||어린이집-일반,False
13208,13209,5895212,인천청라초등학교 병설유치원,,Incheon Cheongna Elementary School  Auxiliary Kindergarten,Education,Other Education,126.65576263525888,37.53801428057471,대한민국,KOR,KOR,인천광역시,서구,,청라동,,청라에메랄드로,139,125-6,2020-01-14 23:35:37,교육||아동교육||병설유치원,False
13264,13265,3749895,구립효성샛별어린이집,효성샛별어린이집,Gu Hyosung Saetbyeol Daycare Center,Education,Other Education,126.70571047797588,37.528975829702205,대한민국,KOR,KOR,인천광역시,계양구,,효성동,,마장로,570,186-20,2022-05-01 12:37:48,교육||아동교육||어린이집||국공립어린이집,False
13296,13297,5902372,송일초등학교병설유치원,송일초교병설유치원,Kindergarten attached to Songil Elementary School,Education,Other Education,126.63513499993589,37.384188000250646,대한민국,KOR,KOR,인천광역시,연수구,,송도동,,컨벤시아대로252번길,15,107,2022-05-01 12:37:48,교육||아동교육||병설유치원,False
13322,13323,4023058,스톰영어 차수학학원,스톰잉글리쉬학원,Storm English Cha Mathematics Academy,Education,Other Education,126.69934189999982,37.42577009999975,대한민국,KOR,KOR,인천광역시,연수구,,선학동,,선학로,101,352,2022-08-08 10:29:42,교육||학원||어학원||영어학원||영어학원-일반,False
13326,13327,5857049,해맑은어린이집,,Sunny Daycare,Education,Other Education,126.70879859999997,37.51155739999982,대한민국,KOR,KOR,인천광역시,부평구,,청천동,,안남로,315,303-16,2022-05-01 12:37:48,교육||아동교육||어린이집||어린이집-일반,False
13330,13331,27146195,아소비 인천 불로삼보2차점,,Asobi Incheon Bulosambo 2nd Branch,Education,Other Education,126.6859803999999,37.61001549999983,대한민국,KOR,KOR,인천광역시,서구,,불로동,,검단로744번3길,8,793-1,2022-08-12 13:15:03,교육||학원||공부방||프랜차이즈||아소비,False
13385,13386,27122761,모던K 실용음악학원 인천 캠퍼스,모던케이실용음악학원 인천캠퍼스,Modern K Practical Music Academy Incheon Campus,Education,Other Education,126.73810049999996,37.53818579999982,대한민국,KOR,KOR,인천광역시,계양구,,용종동,,계산새로,89,211-5,2022-08-12 13:15:03,교육||학원||음악학원||실용음악학원||실용음악학원-일반,False
13405,13406,5902736,예쁜우리어린이집,,Pretty Woori Nursery,Education,Other Education,126.66735346087488,37.53174690889608,대한민국,KOR,KOR,인천광역시,서구,,가정동,,봉오재3로,11,603-1,2021-12-23 15:49:18,교육||아동교육||어린이집||어린이집-일반,False
13422,13423,636714,은하유치원,,Eunha Kindergarten,Education,Other Education,126.67398027190875,37.59586338851141,대한민국,KOR,KOR,인천광역시,서구,,마전동,,완정로10번길,20,1008-12,2022-08-18 12:00:50,교육||아동교육||유치원,False
13455,13456,1118609,예솔어린이집,,Yesol Daycare,Education,Other Education,126.66598003524588,37.51623086101378,대한민국,KOR,KOR,인천광역시,서구,,신현동,,새오개로68번길,5,158-8,2021-12-23 15:49:18,교육||아동교육||어린이집||어린이집-일반,False
13464,13465,15611,자연유치원,,natural kindergarten,Education,Other Education,126.70128234607591,37.5300191809207,대한민국,KOR,KOR,인천광역시,계양구,,효성동,,봉오대로477번길,18,123-57,2021-12-23 15:49:18,교육||아동교육||유치원,False
13513,13514,4337006,아이비키즈어린이집,,ivy kids daycare,Education,Other Education,126.73506523111892,37.578987716823626,대한민국,KOR,KOR,인천광역시,계양구,,장기동,,황어로126번길,8,138-8,2021-12-23 15:49:18,교육||아동교육||어린이집||어린이집-일반,False
13520,13521,3464278,교연학원,,Gyoyeon Academy,Education,Other Education,126.7041904702929,37.5133803375372,대한민국,KOR,KOR,인천광역시,부평구,,청천동,,마장로,396,179-15,2019-11-14 23:24:17,교육||학원||보습학원,False
13536,13537,3123668,효성이스턴어학원,,Hyosung Stern Language School,Education,Other Education,126.71683886748188,37.5288545776804,대한민국,KOR,KOR,인천광역시,계양구,,효성동,,새벌로,131,277-21,2022-08-18 12:00:50,교육||학원||어학원||영어학원||영어학원-일반,False
13550,13551,1853650,논현유치원,,Nonhyeon Kindergarten,Education,Other Education,126.70960692851088,37.405593546227536,대한민국,KOR,KOR,인천광역시,남동구,,논현동,,은봉로,177,580-4,2021-12-23 15:49:18,교육||아동교육||유치원,False
