,OID_,id,name,name_alias,name_eng,category,subcategory,lon,lat,country,country_code,language_code,sd,sgg,sgg_sub,emd,ri,street,number_st,number_jb,update_date,dwnm,result
1,2,199590,신다우빌라,,Sindau Villa,Residence,House,126.7069498636429,37.5336597572989,대한민국,KOR,KOR,인천광역시,계양구,,효성동,,길마로,12,99-12,2021-12-23 15:49:18,"빌딩,건물||주택||연립,빌라||빌라",False
2,3,228336,제일그린빌라,,Cheil Green Villa,Residence,House,126.70174379960088,37.491271300384575,대한민국,KOR,KOR,인천광역시,부평구,,산곡동,,,,산48-30,2022-05-01 12:37:48,"빌딩,건물||주택||연립,빌라||빌라",False
3,4,229892,동진주택,,Dongjin House,Residence,House,126.66416740558088,37.425324259648754,대한민국,KOR,KOR,인천광역시,연수구,,청학동,,솔샘로,86,565-7,2020-01-14 23:40:02,"빌딩,건물||주택||연립,빌라||연립주택",False
6,7,382543,성신빌라,,Sungshin Villa,Residence,House,126.67031033233188,37.5172867547718,대한민국,KOR,KOR,인천광역시,서구,,신현동,,원창로,190-4,279-38,2021-12-23 15:49:18,"빌딩,건물||주택||연립,빌라||빌라",False
9,10,590829,미래타운,,future town,Residence,House,126.69682500020488,37.5213583004412,대한민국,KOR,KOR,인천광역시,부평구,,청천동,,,,378-19,2022-05-01 12:37:48,"빌딩,건물||주택||연립,빌라||빌라",False
11,12,671818,궁전빌라,,palace villa,Residence,House,126.73805160894995,37.5474189977616,대한민국,KOR,KOR,인천광역시,계양구,,임학동,,계양산로,200,5-41,2019-11-14 23:06:52,"빌딩,건물||주택||연립,빌라||빌라",False
13,14,782717,대진빌라,,Daejin Villa,Residence,House,126.67908079999992,37.517193999999805,대한민국,KOR,KOR,인천광역시,서구,,가정동,,서달로193번길,6-16,563,2018-10-05 10:30:30,"빌딩,건물||주택||연립,빌라||빌라",False
14,15,800191,경창맨션,,Gyeongchang Mansion,Residence,House,126.71941512306388,37.44837689524998,대한민국,KOR,KOR,인천광역시,남동구,,구월동,,호구포로740번길,9-1,1287-4,2021-12-23 15:49:18,"빌딩,건물||주택||연립,빌라||빌라",False
15,16,897346,창대빌라,,ChangdaeVilla,Residence,House,126.67231299973588,37.49754329971839,대한민국,KOR,KOR,인천광역시,서구,,가좌동,,,,114-9,2022-05-01 12:37:48,"빌딩,건물||주택||연립,빌라||빌라",False
17,18,1266844,한일빌라,,Hanil Villa,Residence,House,126.72609947380592,37.518570990660606,대한민국,KOR,KOR,인천광역시,부평구,,갈산동,,부평대로296번길,80,168-7,2019-11-14 23:28:26,"빌딩,건물||주택||연립,빌라||빌라",False
23,24,3135703,두산빌리지,,Doosan Village,Residence,House,126.67949796649988,37.49985119052479,대한민국,KOR,KOR,인천광역시,서구,,석남동,,서달로,14-14,329-22,2021-12-23 15:49:18,"빌딩,건물||주택||연립,빌라||빌라",False
45,46,6220402,우리빌리지,,Woori Village,Residence,House,126.73733312405994,37.49319209800951,대한민국,KOR,KOR,인천광역시,부평구,,부개동,,부평문화로194번길,14,120-19,2019-11-14 23:30:26,"빌딩,건물||주택||연립,빌라||빌라",False
56,57,2613717,한양빌라2차,2차한양빌라,Hanyang Villa 2nd,Residence,House,126.71572706439288,37.46597207278209,대한민국,KOR,KOR,인천광역시,남동구,,간석동,,간석로72번길,7,37-130,2022-05-01 12:37:48,"빌딩,건물||주택||연립,빌라||빌라",False
60,61,4785903,경원하이뷰오피스텔,하이뷰오피스텔,Gyeongwon High View Officetel,Residence,House,126.67185741557589,37.59347282147933,대한민국,KOR,KOR,인천광역시,서구,,당하동,,원당대로,638,1077-6,2022-05-01 12:37:48,"빌딩,건물||주택||오피스텔||오피스텔-일반||100세대미만",False
61,62,3121778,대명하이츠빌라,,Daemyung Heights Villa,Residence,House,126.6561211931009,37.457163621967055,대한민국,KOR,KOR,인천광역시,미추홀구,,용현동,,수봉남로,13,454-278,2021-12-23 15:49:18,"빌딩,건물||주택||연립,빌라||빌라",False
92,93,6071498,이화빌라,,Ewha Villa,Residence,House,126.68237221959788,37.489429623926576,대한민국,KOR,KOR,인천광역시,서구,,가좌동,,장고개로275번길,16-8,238-5,2021-12-23 15:49:18,"빌딩,건물||주택||연립,빌라||빌라",False
94,95,5769631,드림빌라,,Dream Villa,Residence,House,126.71764499820688,37.449944671583275,대한민국,KOR,KOR,인천광역시,남동구,,구월동,,용천로4번길,63-9,1237-6,2022-05-01 12:37:48,"빌딩,건물||주택||연립,빌라||빌라",False
97,98,5766754,관청말빌리지,,gwancheongmal Village,Residence,House,126.53882853996176,37.495711164288274,대한민국,KOR,KOR,인천광역시,중구,,운남동,,전소로1번길,28,537,2022-05-01 12:37:48,"빌딩,건물||주택||연립,빌라||빌라",False
102,103,5773321,성강주택,,Seongkang House,Residence,House,126.6543641634939,37.424324670004665,대한민국,KOR,KOR,인천광역시,연수구,,옥련동,,한나루로157번길,13,354-9,2022-05-01 12:37:48,"빌딩,건물||주택||연립,빌라||연립주택",False
110,111,1259184,삼성주택,,Samsung Housing,Residence,House,126.6801820548569,37.496698349833785,대한민국,KOR,KOR,인천광역시,서구,,가좌동,,가석로156번길,48,186-3,2020-01-14 23:42:11,"빌딩,건물||주택||연립,빌라||빌라",False
111,112,6232548,대승주택,,Daeseung House,Residence,House,126.68800272072492,37.61187914952913,대한민국,KOR,KOR,인천광역시,서구,,불로동,,검단로744번3길,38,801-1,2021-12-23 15:49:18,"빌딩,건물||주택||연립,빌라||연립주택",False
115,116,4361876,선경타운,,Sunkyung Town,Residence,House,126.6917804451219,37.592988562898825,대한민국,KOR,KOR,인천광역시,서구,,당하동,,원당대로820번1길,27,1021-6,2020-01-14 23:24:57,"빌딩,건물||주택||연립,빌라||빌라",False
117,118,2609987,태림아트빌,,Taerim Artville,Residence,House,126.72239255625288,37.45160097216388,대한민국,KOR,KOR,인천광역시,남동구,,구월동,,구월말로27번길,38,1302-8,2019-11-14 23:24:12,"빌딩,건물||주택||연립,빌라||빌라",False
121,122,87821,대명빌라,,Daemyung Villa,Residence,House,126.73998232088196,37.466447938488365,대한민국,KOR,KOR,인천광역시,남동구,,만수동,,만수로,130-19,1-287,2021-12-23 15:49:18,"빌딩,건물||주택||연립,빌라||빌라",False
122,123,6209647,우진빌라,,Woojin,Residence,House,126.66314841415264,37.451399662346574,대한민국,KOR,KOR,인천광역시,미추홀구,,용현동,,경인남길102번길,95-8,77-20,2022-08-18 12:00:50,"빌딩,건물||주택||연립,빌라||빌라",False
123,124,5726658,범우빌라,,Beomwoo Villa,Residence,House,126.72727112616197,37.45138269450026,대한민국,KOR,KOR,인천광역시,남동구,,만수동,,복개동로38번길,17,927-7,2021-12-23 15:49:18,"빌딩,건물||주택||연립,빌라||빌라",False
128,129,3141880,호은빌라,,HoeunVilla,Residence,House,126.71367498894791,37.43227017422808,대한민국,KOR,KOR,인천광역시,남동구,,남촌동,,남촌로122번길,32,347-17,2021-12-23 15:49:18,"빌딩,건물||주택||연립,빌라||빌라",False
129,130,1257506,금성주택,,Goldstar House,Residence,House,126.64529526771088,37.472137846818384,대한민국,KOR,KOR,인천광역시,동구,,송림동,,금송로37번길,33,80-61,2021-12-23 15:49:18,"빌딩,건물||주택||연립,빌라||빌라",False
133,134,5686326,신동아빌라,,Shindong Avila,Residence,House,126.70546586688188,37.49342990164048,대한민국,KOR,KOR,인천광역시,부평구,,산곡동,,마장로168번길,26-4,311-184,2019-11-14 23:24:43,"빌딩,건물||주택||연립,빌라||빌라",False
138,139,2604692,잉꼬홈타운A,,Parakeet Hometown A,Residence,House,126.68835379133792,37.45483041911588,대한민국,KOR,KOR,인천광역시,미추홀구,,주안동,,경원대로807번길,20,257-8,2019-12-09 10:50:24,"빌딩,건물||주택||연립,빌라||빌라",False
142,143,2147420,서광빌라,세광,Seogwang Villa,Residence,House,126.71615999648085,37.46544169973847,대한민국,KOR,KOR,인천광역시,남동구,,간석동,,용천로176번길,31,37-67,2022-05-01 12:37:48,"빌딩,건물||주택||연립,빌라||빌라",False
144,145,3140397,대영빌라,,Daeyoung Villa,Residence,House,126.66479511516089,37.45456701808239,대한민국,KOR,KOR,인천광역시,미추홀구,,주안동,,인주대로237번길,38,665-12,2021-12-23 15:49:18,"빌딩,건물||주택||연립,빌라||빌라",False
146,147,2599600,거목빌라,,giant tree villa,Residence,House,126.63223933784982,37.47098691578588,대한민국,KOR,KOR,인천광역시,중구,,율목동,,율목로49번길,12,231-12,2021-12-23 15:49:18,"빌딩,건물||주택||연립,빌라||빌라",False
156,157,110746,원석빌라,,Wonseok Villa,Residence,House,126.63396090308484,37.470404611012576,대한민국,KOR,KOR,인천광역시,중구,,율목동,,율목로32번길,21,194,2021-12-23 15:49:18,"빌딩,건물||주택||연립,빌라||빌라",False
167,168,5726215,청솔홈타운,,Cheongsol Hometown,Residence,House,126.7291034803929,37.422093400220064,대한민국,KOR,KOR,인천광역시,남동구,,도림동,,도리미로7번길,24,650-3,2021-12-23 15:49:18,"빌딩,건물||주택||연립,빌라||빌라",False
170,171,1253932,세보빌라,,sevovilla,Residence,House,126.74471249966697,37.54647500107631,대한민국,KOR,KOR,인천광역시,계양구,,병방동,,장제로920번길,36,163-1,2019-07-29 23:00:09,"빌딩,건물||주택||연립,빌라||빌라",False
171,172,2148365,삼원주택,,Samwon House,Residence,House,126.70388499668287,37.519830888485295,대한민국,KOR,KOR,인천광역시,부평구,,청천동,,청중로57번길,50,14-26,2019-11-14 23:24:43,"빌딩,건물||주택||연립,빌라||빌라",False
173,174,2151632,평창주택,,Pyeongchang House,Residence,House,126.64742074280387,37.42293649891525,대한민국,KOR,KOR,인천광역시,연수구,,옥련동,,독배로26번길,42,450-8,2020-01-14 0:00:00,"빌딩,건물||주택||연립,빌라||연립주택",False
175,176,1265564,성진빌라,,Seongjin Villa,Residence,House,126.67410635820288,37.51536200529158,대한민국,KOR,KOR,인천광역시,서구,,가정동,,가경주로24번길,6,519-4,2021-12-23 15:49:18,"빌딩,건물||주택||연립,빌라||빌라",False
176,177,2150381,덕수빌라,덕수,Deoksu Villa,Residence,House,126.63356464169387,37.46795065501838,대한민국,KOR,KOR,인천광역시,중구,,신흥동2가,,제물량로92번길,14,22-36,2021-12-23 15:49:18,"빌딩,건물||주택||연립,빌라||빌라",False
179,180,4636577,미하우스,,me house,Residence,House,126.66026069999992,37.452663199999776,대한민국,KOR,KOR,인천광역시,미추홀구,,용현동,,인주대로224번길,38-17,179-13,2021-12-23 15:49:18,"빌딩,건물||주택||연립,빌라||빌라",False
187,188,2613941,플러스캐슬,,Plus Castle,Residence,House,126.7240779736209,37.49524488039649,대한민국,KOR,KOR,인천광역시,부평구,,부평동,,부평대로40번길,21,207-63,2019-11-14 23:05:38,"빌딩,건물||주택||연립,빌라||빌라",False
189,190,5778238,일오빌라,,Il Ovilla,Residence,House,126.71486766875388,37.42721154321636,대한민국,KOR,KOR,인천광역시,남동구,,남촌동,,남촌로67번길,18-7,565-2,2022-05-01 12:37:48,"빌딩,건물||주택||연립,빌라||빌라",False
191,192,3145324,UN빌리지2,유엔빌리지2,UN Village 2,Residence,House,126.72257830346092,37.45153980171919,대한민국,KOR,KOR,인천광역시,남동구,,구월동,,구월말로27번길,36,1302-9,2019-11-14 23:24:34,"빌딩,건물||주택||연립,빌라||빌라",False
192,193,347955,성광빌라,,Seonggwang Villa,Residence,House,126.68300139999992,37.490090199999806,대한민국,KOR,KOR,인천광역시,서구,,가좌동,,장고개로293번길,13,241-24,2018-10-05 10:30:30,"빌딩,건물||주택||연립,빌라||빌라",False
194,195,4332746,진흥빌라,,Jinheung Villa,Residence,House,126.63211515095284,37.46942188954517,대한민국,KOR,KOR,인천광역시,중구,,율목동,,답동로24번길,28-18,242-58,2021-12-23 15:49:18,"빌딩,건물||주택||연립,빌라||빌라",False
197,198,2154536,효석빌라,효석,Hyoseok Villa,Residence,House,126.66597342979888,37.456505411717366,대한민국,KOR,KOR,인천광역시,미추홀구,,주안동,,수봉로182번길,77,586-9,2021-12-23 15:49:18,"빌딩,건물||주택||연립,빌라||빌라",False
198,199,2609388,태정빌라,,TaejeongVilla,Residence,House,126.72283841203593,37.45050418847008,대한민국,KOR,KOR,인천광역시,남동구,,구월동,,호구포로764번길,65-4,1300-8,2019-11-14 23:23:57,"빌딩,건물||주택||연립,빌라||빌라",False
203,204,4328582,이삼주택,,Lee Sam House,Residence,House,126.67938906173087,37.461980197742875,대한민국,KOR,KOR,인천광역시,미추홀구,,주안동,,주안로90번길,46,222-23,2019-12-09 10:51:37,"빌딩,건물||주택||연립,빌라||빌라",False
204,205,2154927,미주빌라,미주,Missouri Villa,Residence,House,126.68124409194488,37.45540160721827,대한민국,KOR,KOR,인천광역시,미추홀구,,주안동,,경인로380번길,62-25,449-12,2021-12-23 15:49:18,"빌딩,건물||주택||연립,빌라||빌라",False
215,216,2609411,노블하우스,,Noble House,Residence,House,126.7050309462799,37.45911057342116,대한민국,KOR,KOR,인천광역시,남동구,,간석동,,구월로131번길,50,353-2,2019-12-09 10:51:35,"빌딩,건물||주택||연립,빌라||빌라",False
221,222,5663785,황금빌라,,golden villa,Residence,House,126.71417499544388,37.43306730444238,대한민국,KOR,KOR,인천광역시,남동구,,남촌동,,남촌동로36번길,24,351-17,2021-12-23 15:49:18,"빌딩,건물||주택||연립,빌라||빌라",False
225,226,2602644,금강빌라,,Geumgang Villa,Residence,House,126.67147468736889,37.46794667748578,대한민국,KOR,KOR,인천광역시,미추홀구,,도화동,,석정로,323,119-46,2022-05-01 12:37:48,"빌딩,건물||주택||연립,빌라||빌라",False
229,230,6220955,라온하우스,,Raon House,Residence,House,126.53364635706372,37.494250008832445,대한민국,KOR,KOR,인천광역시,중구,,운남동,,운남로,185,1503-6,2020-01-14 23:36:15,"빌딩,건물||주택||연립,빌라||빌라",False
234,235,305595,석탑주택,,stone tower house,Residence,House,126.73458920547392,37.496374690085695,대한민국,KOR,KOR,인천광역시,부평구,,부개동,,충선로81번길,17,93-17,2021-12-23 15:49:18,"빌딩,건물||주택||연립,빌라||연립주택",False
239,240,5655984,시온에빌라,,Zion Evila,Residence,House,126.73981009999996,37.4456781999998,대한민국,KOR,KOR,인천광역시,남동구,,만수동,,장승로,64,1099-4,2021-12-23 15:49:18,"빌딩,건물||주택||연립,빌라||빌라",False
240,241,6226601,월드빌라,,World Villa,Residence,House,126.63730181638083,37.45340862147575,대한민국,KOR,KOR,인천광역시,미추홀구,,용현동,,낙섬서로50번길,17,622-78,2019-11-14 23:30:27,"빌딩,건물||주택||연립,빌라||빌라",False
241,242,3127554,영화주택,,film house,Residence,House,126.6560766045319,37.45246013615298,대한민국,KOR,KOR,인천광역시,미추홀구,,용현동,,인하로47번길,40,197-6,2019-11-14 23:06:52,"빌딩,건물||주택||연립,빌라||빌라",False
247,248,4337644,성지주택,,holy land house,Residence,House,126.69653114080492,37.424995072189056,대한민국,KOR,KOR,인천광역시,연수구,,선학동,,학나래로,35,362-3,2021-12-23 15:49:18,"빌딩,건물||주택||연립,빌라||연립주택",False
252,253,4336087,현암빌라,,Hyeonam Villa,Residence,House,126.66378039856485,37.430158705811344,대한민국,KOR,KOR,인천광역시,연수구,,청학동,,청학로,34-1,531-14,2021-12-23 15:49:18,"빌딩,건물||주택||연립,빌라||빌라",False
256,257,1030667,남강빌라,,NamgangVilla,Residence,House,126.66793471051388,37.458059113549375,대한민국,KOR,KOR,인천광역시,미추홀구,,주안동,,수봉로182번길,29,595-1,2021-12-23 15:49:18,"빌딩,건물||주택||연립,빌라||빌라",False
261,262,3145963,P&K파크빌,피앤케이파크빌,P&K Parkville,Residence,House,126.7156638996159,37.46116155117188,대한민국,KOR,KOR,인천광역시,남동구,,간석동,,석산로207번길,12-10,31-12,2019-11-14 23:24:14,"빌딩,건물||주택||연립,빌라||빌라",False
263,264,3129364,정성맨션,,JeongseongMansion,Residence,House,126.62516793486785,37.476360598970366,대한민국,KOR,KOR,인천광역시,중구,,전동,,전동로,18-6,27-5,2020-01-14 23:43:17,"빌딩,건물||주택||연립,빌라||빌라",False
265,266,676902,성재빌라,,Seongjae Villa,Residence,House,126.6603142159429,37.46200500929467,대한민국,KOR,KOR,인천광역시,미추홀구,,숭의동,,수봉안길,38,6-45,2019-11-14 23:24:16,"빌딩,건물||주택||연립,빌라||빌라",False
266,267,1259768,연흥빌라,,Yeonheung Villa,Residence,House,126.6853250001989,37.44920960007588,대한민국,KOR,KOR,인천광역시,미추홀구,,주안동,,,,1501-28,2022-05-01 12:37:48,"빌딩,건물||주택||연립,빌라||빌라",False
267,268,917722,서해아파트,,Seohae Apartment,Residence,House,126.6665344003189,37.421622800835856,대한민국,KOR,KOR,인천광역시,연수구,,청학동,,미추홀대로251번길,9,450,2022-05-01 12:37:48,"빌딩,건물||주택||아파트||아파트명||100세대이상",False
270,271,615536,광명빌라,,Gwangmyeong Villa,Residence,House,126.6573625745969,37.458362552891366,대한민국,KOR,KOR,인천광역시,미추홀구,,용현동,,독정안길,5,454-1,2019-12-09 0:00:00,"빌딩,건물||주택||연립,빌라||빌라",False
271,272,1039087,신동아맨션,,Shindonga Mansion,Residence,House,126.67951467923788,37.43834157244786,대한민국,KOR,KOR,인천광역시,미추홀구,,문학동,,소성로289번길,15,357-3,2021-12-23 15:49:18,"빌딩,건물||주택||연립,빌라||빌라",False
274,275,4453192,이안빌리지,,Ian Village,Residence,House,126.6745243141309,37.56099997785951,대한민국,KOR,KOR,인천광역시,서구,,검암동,,승학로506번안길,55-28,632-2,2022-08-18 12:00:50,"빌딩,건물||주택||연립,빌라||빌라",False
276,277,2152902,조흥빌라16차,,Joheung Villa 16th,Residence,House,126.73577267860696,37.548410805060016,대한민국,KOR,KOR,인천광역시,계양구,,임학동,,병방시장로41번길,3-6,170,2021-12-23 15:49:18,"빌딩,건물||주택||연립,빌라||빌라",False
278,279,126558,신성빌리지,,Shinsung Village,Residence,House,126.72295235918592,37.452898489460885,대한민국,KOR,KOR,인천광역시,남동구,,구월동,,모래내로,9,349-489,2021-12-23 15:49:18,"빌딩,건물||주택||연립,빌라||빌라",False
285,286,346031,남승빌라,,NamseungVilla,Residence,House,126.6782847999999,37.5170230999998,대한민국,KOR,KOR,인천광역시,서구,,가정동,,서달로193번길,12-26,562-5,2021-12-23 15:49:18,"빌딩,건물||주택||연립,빌라||빌라",False
291,292,5663656,서정맨션,,Seojeong Mansion,Residence,House,126.65492259951688,37.47718090131398,대한민국,KOR,KOR,인천광역시,미추홀구,,도화동,,송림로185번길,10,14-35,2022-05-01 12:37:48,"빌딩,건물||주택||연립,빌라||빌라",False
295,296,323443,송림빌라,,Songlim Villa,Residence,House,126.67330259945987,37.49982680026169,대한민국,KOR,KOR,인천광역시,서구,,석남동,,,,578-11,2022-05-01 12:37:48,"빌딩,건물||주택||연립,빌라||빌라",False
296,297,2154072,성남빌라,성남,SeongnamVilla,Residence,House,126.64971676733587,37.452366006785255,대한민국,KOR,KOR,인천광역시,미추홀구,,용현동,,경인북길,27,209-4,2021-12-23 15:49:18,"빌딩,건물||주택||연립,빌라||빌라",False
313,314,4354154,흥덕주택,,Heungdeok House,Residence,House,126.72924251236893,37.42060647802687,대한민국,KOR,KOR,인천광역시,남동구,,도림동,,도림로,5-1,655-5,2019-11-14 23:25:13,"빌딩,건물||주택||연립,빌라||연립주택",False
322,323,2152945,동원빌라,동원,Dongwon Villa,Residence,House,126.74519884022995,37.55585728654143,대한민국,KOR,KOR,인천광역시,계양구,,박촌동,,장제로1009번길,4,52-14,2019-11-14 23:06:52,"빌딩,건물||주택||연립,빌라||빌라",False
325,326,2156968,극동빌라,극동,Far East Villa,Residence,House,126.71787040808792,37.456829354847855,대한민국,KOR,KOR,인천광역시,남동구,,구월동,,당좌로,9-1,1245-11,2019-12-09 10:51:37,"빌딩,건물||주택||연립,빌라||빌라",False
336,337,3440224,범한주택1,,Beomhan House 1,Residence,House,126.50667910281872,37.483460023658814,대한민국,KOR,KOR,인천광역시,중구,,운서동,,운서1로3번길,18,2931-14,2021-12-23 15:49:18,"빌딩,건물||주택||연립,빌라||연립주택",False
337,338,1167822,하나빌라,,Hana Villa,Residence,House,126.66699260009987,37.5167198016898,대한민국,KOR,KOR,인천광역시,서구,,신현동,,새오개로68번길,15-29,171-3,2019-08-02 23:01:13,"빌딩,건물||주택||연립,빌라||빌라",False
347,348,5677190,유림빌라,,Yurim Villa,Residence,House,126.61885732372184,37.48253185498987,대한민국,KOR,KOR,인천광역시,중구,,북성동1가,,제물량로335번길,60-17,1-11,2022-05-01 12:37:48,"빌딩,건물||주택||연립,빌라||빌라",False
351,352,3128403,대명주택,,Daemyung House,Residence,House,126.6531337658719,37.5557641555169,대한민국,KOR,KOR,인천광역시,서구,,경서동,,경서로45번길,9,753-3,2020-01-14 23:39:12,"빌딩,건물||주택||연립,빌라||빌라",False
363,364,5726734,인흥빌라,,InheungVilla,Residence,House,126.6799321460989,37.44293955660077,대한민국,KOR,KOR,인천광역시,미추홀구,,주안동,,승학길76번길,3,1290-24,2021-12-23 15:49:18,"빌딩,건물||주택||연립,빌라||빌라",False
371,372,6232835,원앙빌라,,Wonang Villa,Residence,House,126.71818334689088,37.46581939846397,대한민국,KOR,KOR,인천광역시,남동구,,간석동,,간석로97번길,6,37-77,2022-05-01 12:37:48,"빌딩,건물||주택||연립,빌라||빌라",False
374,375,1265230,태영빌라,,Taeyoung Villa,Residence,House,126.70358839713587,37.459652540389264,대한민국,KOR,KOR,인천광역시,남동구,,간석동,,예술로284번길,19,466-8,2021-12-23 15:49:18,"빌딩,건물||주택||연립,빌라||빌라",False
377,378,3145891,예은주택,,Yeeun House,Residence,House,126.68512975966588,37.462281135614376,대한민국,KOR,KOR,인천광역시,미추홀구,,주안동,,주안동로25번길,42,75-28,2021-12-23 15:49:18,"빌딩,건물||주택||연립,빌라||빌라",False
383,384,4359408,풀하우스,,full house ,Residence,House,126.75285774180495,37.45066771462746,대한민국,KOR,KOR,인천광역시,남동구,,장수동,,장자로,30-2,787-9,2019-12-09 10:51:35,"빌딩,건물||주택||연립,빌라||빌라",False
387,388,1263303,칠성빌라,,Chilsung Villa,Residence,House,126.70250968570488,37.47825383957558,대한민국,KOR,KOR,인천광역시,부평구,,십정동,,이규보로62번길,6-1,435-1,2021-12-23 15:49:18,"빌딩,건물||주택||연립,빌라||빌라",False
389,390,5774592,솔빛주택,,Solbit House,Residence,House,126.6622847736419,37.42882970153095,대한민국,KOR,KOR,인천광역시,연수구,,청학동,,비류대로239번길,46,522-17,2022-05-01 12:37:48,"빌딩,건물||주택||연립,빌라||연립주택",False
397,398,5769640,대창빌라,,Daechang Villa,Residence,House,126.7357062416009,37.4622724462787,대한민국,KOR,KOR,인천광역시,남동구,,만수동,,만수로73번길,6,5-153,2022-05-01 12:37:48,"빌딩,건물||주택||연립,빌라||빌라",False
402,403,5929108,드림힐,,Dream Hill,Residence,House,126.66873106494496,37.59004579495495,대한민국,KOR,KOR,인천광역시,서구,,당하동,,청마로34번길,23,956-19,2022-05-01 12:37:48,"빌딩,건물||주택||연립,빌라||빌라",False
405,406,5662391,부일빌리지,,Buil Village,Residence,House,126.74167738694194,37.49168881011209,대한민국,KOR,KOR,인천광역시,부평구,,부개동,,부일로113번길,33-7,491-3,2021-12-23 15:49:18,"빌딩,건물||주택||연립,빌라||빌라",False
412,413,20184978,청운아트,,Chungwoon Art,Residence,House,126.66860487822893,37.45835831439869,대한민국,KOR,KOR,인천광역시,미추홀구,,도화동,,경인북길,401-11,504-7,2022-05-01 12:37:48,"빌딩,건물||주택||연립,빌라||빌라",False
416,417,1266212,나랑빌라,,Narang Villa,Residence,House,126.72951163157292,37.45291174953197,대한민국,KOR,KOR,인천광역시,남동구,,만수동,,구월남로355번길,28,941,2019-11-14 23:19:12,"빌딩,건물||주택||연립,빌라||빌라",False
417,418,4345762,하늘아파트,,Sky Apartment,Residence,House,126.64550940919386,37.46465940685406,대한민국,KOR,KOR,인천광역시,미추홀구,,숭의동,,석정로64번길,13,159-26,2019-11-14 23:28:28,"빌딩,건물||주택||연립,빌라||빌라",False
421,422,2155334,승기주택,,SeunggiHouse,Residence,House,126.6973427737399,37.42717547196087,대한민국,KOR,KOR,인천광역시,연수구,,선학동,,학나래로,90,403-5,2021-12-23 15:49:18,"빌딩,건물||주택||연립,빌라||연립주택",False
422,423,26879785,H하우스,,H House,Residence,House,126.67770353658496,37.5013260239422,대한민국,KOR,KOR,인천광역시,서구,,석남동,,서달로,29-6,560-7,2022-08-24 14:41:06,"빌딩,건물||주택||연립,빌라||빌라",False
430,431,5771968,백조빌라,,Swan Villa,Residence,House,126.67654194937688,37.44565767680236,대한민국,KOR,KOR,인천광역시,미추홀구,,주안동,,신기길58번길,2,1343-97,2022-05-01 12:37:48,"빌딩,건물||주택||연립,빌라||빌라",False
433,434,610065,창성그린타운,,Changseong Green Town,Residence,House,126.73574999999995,37.519524999999824,대한민국,KOR,KOR,인천광역시,부평구,,삼산동,,충선로,344,208-6,2018-10-05 10:30:30,"빌딩,건물||주택||연립,빌라||빌라",False
435,436,2153794,명성빌라,명성,Myeongseong Villa,Residence,House,126.63928396913182,37.469166650660256,대한민국,KOR,KOR,인천광역시,중구,,도원동,,도원로56번길,15,18-160,2021-12-23 15:49:18,"빌딩,건물||주택||연립,빌라||빌라",False
437,438,6232569,은영빌라,,Eunyoung Villa,Residence,House,126.72389725262792,37.44936232785067,대한민국,KOR,KOR,인천광역시,남동구,,구월동,,구월말로3번길,8,1296-31,2021-12-23 15:49:18,"빌딩,건물||주택||연립,빌라||빌라",False
441,442,861691,성수빌라,,Seongsu Villa,Residence,House,126.72119952844496,37.487524902626106,대한민국,KOR,KOR,인천광역시,부평구,,부평동,,남부역로5번길,18,743-5,2022-08-24 14:41:06,"빌딩,건물||주택||연립,빌라||빌라",False
443,444,5686731,탑하우스,,top house,Residence,House,126.73031189916593,37.544118151927805,대한민국,KOR,KOR,인천광역시,계양구,,계산동,,주부토로562번길,16,912-13,2021-12-23 15:49:18,"빌딩,건물||주택||연립,빌라||빌라",False
446,447,6248675,쌍성주택,,twin house,Residence,House,126.70616645010388,37.49639451525288,대한민국,KOR,KOR,인천광역시,부평구,,산곡동,,화랑북로,29-7,325-58,2021-12-23 15:49:18,"빌딩,건물||주택||연립,빌라||연립주택",False
449,450,589264,석남빌라,,Seoknam Villa,Residence,House,126.67715152021894,37.500419769545296,대한민국,KOR,KOR,인천광역시,서구,,석남동,,길주로142번길,64-1,564-28,2022-08-18 12:00:50,"빌딩,건물||주택||연립,빌라||빌라",False
450,451,4330960,온누리아트빌,,Onnuri Artville,Residence,House,126.7149733868199,37.45140692290867,대한민국,KOR,KOR,인천광역시,남동구,,구월동,,호구포로765번길,68-10,1224-10,2019-11-14 23:28:31,"빌딩,건물||주택||연립,빌라||빌라",False
451,452,866646,고려빌라,,Goryeo Villa,Residence,House,126.6831812562369,37.487368579202986,대한민국,KOR,KOR,인천광역시,서구,,가좌동,,열우물로282번길,20-11,331-11,2020-01-14 23:42:11,"빌딩,건물||주택||연립,빌라||빌라",False
452,453,5666704,은정빌라,,EunjeongVilla,Residence,House,126.72542142420792,37.45000580253888,대한민국,KOR,KOR,인천광역시,남동구,,구월동,,구월말로4번길,19-17,1312-21,2021-12-23 15:49:18,"빌딩,건물||주택||연립,빌라||빌라",False
453,454,1004898,인하아트빌,,Inha Artville,Residence,House,126.66636025787489,37.44999116277487,대한민국,KOR,KOR,인천광역시,미추홀구,,용현동,,인하로163번길,22,25-16,2021-12-23 15:49:18,"빌딩,건물||주택||연립,빌라||빌라",False
454,455,748405,미승빌라,,MiseungVilla,Residence,House,126.71811218265388,37.541667861254325,대한민국,KOR,KOR,인천광역시,계양구,,계산동,,계산로22번길,4-1,754,2021-12-23 15:49:18,"빌딩,건물||주택||연립,빌라||빌라",False
459,460,1265195,동방빌라,,Dongbang Villa,Residence,House,126.6741237935259,37.5494068021409,대한민국,KOR,KOR,인천광역시,서구,,연희동,,연희로28번길,2,739-9,2020-01-14 23:38:58,"빌딩,건물||주택||연립,빌라||빌라",False
464,465,2153828,문화주택,,cultural housing,Residence,House,126.59963695325284,37.47376112612607,대한민국,KOR,KOR,인천광역시,중구,,북성동1가,,월미로243번길,8,98-318,2022-05-01 12:37:48,"빌딩,건물||주택||연립,빌라||빌라",False
468,469,4349887,한성빌라,,Hanseong Villa,Residence,House,126.74458568117396,37.54711147262983,대한민국,KOR,KOR,인천광역시,계양구,,병방동,,병방로23번길,20-3,159-11,2021-12-23 15:49:18,"빌딩,건물||주택||연립,빌라||빌라",False
470,471,3129402,대도맨션,,Daedo Mansion,Residence,House,126.63891612239983,37.452417822298266,대한민국,KOR,KOR,인천광역시,미추홀구,,용현동,,토금중로51번길,5,611-50,2019-11-14 23:24:43,"빌딩,건물||주택||연립,빌라||빌라",False
473,474,28322,이온빌라,,Aeon Villa,Residence,House,126.73064519109091,37.488751804089695,대한민국,KOR,KOR,인천광역시,부평구,,부평동,,장제로38번길,18,613-14,2022-05-01 12:37:48,"빌딩,건물||주택||연립,빌라||빌라",False
474,475,4333260,리치맨션,,Rich Mansion,Residence,House,126.69526512798689,37.45199971153596,대한민국,KOR,KOR,인천광역시,남동구,,구월동,,문화서로65번길,20-33,1103-2,2019-11-14 23:24:34,"빌딩,건물||주택||연립,빌라||빌라",False
484,485,5784195,호원그린빌,,HowonGreen Ville,Residence,House,126.67636527110191,37.466825014334766,대한민국,KOR,KOR,인천광역시,미추홀구,,주안동,,석정로,368-2,26-15,2022-05-01 12:37:48,"빌딩,건물||주택||연립,빌라||빌라",False
487,488,5683042,드림파크빌I,드림파크빌1,Dream Park Ville I,Residence,House,126.51067618112772,37.48251376585864,대한민국,KOR,KOR,인천광역시,중구,,운서동,,운서4로,11-20,2916-9,2020-01-14 23:22:24,"빌딩,건물||주택||연립,빌라||빌라",False
490,491,5781854,한성아트빌2차,,Hansung Artville 2nd,Residence,House,126.6656524102549,37.42852653140736,대한민국,KOR,KOR,인천광역시,연수구,,청학동,,청학로16번길,33-6,534-27,2022-05-01 12:37:48,"빌딩,건물||주택||연립,빌라||빌라",False
494,495,2153361,세화주택,,Sehwa House,Residence,House,126.67987795936789,37.44064561303677,대한민국,KOR,KOR,인천광역시,미추홀구,,문학동,,승학길26번길,7,333-3,2021-12-23 15:49:18,"빌딩,건물||주택||연립,빌라||빌라",False
495,496,4327513,다솜하우스,,Dasom House,Residence,House,126.50610889280073,37.48488947585744,대한민국,KOR,KOR,인천광역시,중구,,운서동,,운서1로4번길,29,2936-6,2021-12-23 15:49:18,"빌딩,건물||주택||연립,빌라||빌라",False
499,500,9743,동흥빌라,,Dongheung Villa,Residence,House,126.6976521761529,37.45316541210937,대한민국,KOR,KOR,인천광역시,남동구,,구월동,,문화서로90번길,16,1097-8,2021-12-23 15:49:18,"빌딩,건물||주택||연립,빌라||빌라",False
502,503,2610630,수정빌라,,Sujeong Villa,Residence,House,126.70405014768592,37.447418057168974,대한민국,KOR,KOR,인천광역시,남동구,,구월동,,인주대로604번길,49-4,1162-2,2021-12-23 15:49:18,"빌딩,건물||주택||연립,빌라||빌라",False
508,509,1261917,선진빌라4차,4차선진빌라,Sunjin Villa 4,Residence,House,126.7190057583429,37.46545893763268,대한민국,KOR,KOR,인천광역시,남동구,,간석동,,용천로176번길,85-17,224-742,2022-05-01 12:37:48,"빌딩,건물||주택||연립,빌라||빌라",False
509,510,1261843,하나홈타운,,Hana Home Town,Residence,House,126.70949305808588,37.45015768153889,대한민국,KOR,KOR,인천광역시,남동구,,구월동,,인주대로653번길,9,1197-8,2022-05-01 12:37:48,"빌딩,건물||주택||연립,빌라||연립주택",False
511,512,1263649,전인빌라,,JeoninVilla,Residence,House,126.67341512775891,37.507636633710966,대한민국,KOR,KOR,인천광역시,서구,,석남동,,옻우물로14번길,3,505-12,2021-12-23 15:49:18,"빌딩,건물||주택||연립,빌라||빌라",False
512,513,5782970,행복아트빌,,Happy Artville,Residence,House,126.71070006331593,37.483754858539776,대한민국,KOR,KOR,인천광역시,부평구,,십정동,,창휘로,26-3,180-53,2022-05-01 12:37:48,"빌딩,건물||주택||연립,빌라||빌라",False
516,517,2599071,천우빌라,,Cheonwoo Villa,Residence,House,126.73297887935593,37.453690508486574,대한민국,KOR,KOR,인천광역시,남동구,,만수동,,하촌로59번길,4-11,953-27,2021-12-23 15:49:18,"빌딩,건물||주택||연립,빌라||빌라",False
520,521,2150434,김씨빌라,,Kim's Villa,Residence,House,126.63846414402784,37.46805023895097,대한민국,KOR,KOR,인천광역시,중구,,도원동,,도산로21번길,12,70-39,2021-12-23 15:49:18,"빌딩,건물||주택||연립,빌라||빌라",False
526,527,191872,합동빌라,,joint villa,Residence,House,126.67066709999985,37.49423739999977,대한민국,KOR,KOR,인천광역시,서구,,가좌동,,가정로111번길,7-1,146-12,2022-07-13 13:54:25,"빌딩,건물||주택||연립,빌라||빌라",False
529,530,3466636,비아트,,beat,Residence,House,126.65254035678788,37.556921494239205,대한민국,KOR,KOR,인천광역시,서구,,경서동,,경서로45번길,8-24,744-3,2021-12-23 15:49:18,"빌딩,건물||주택||연립,빌라||빌라",False
530,531,2149071,힐타운5차,5차힐타운,Hill Town 5,Residence,House,126.74522631306796,37.56662417529383,대한민국,KOR,KOR,인천광역시,계양구,,귤현동,,양지로,169-4,505-15,2019-11-14 23:24:12,"빌딩,건물||주택||연립,빌라||빌라",False
535,536,1271975,삼정빌리지,삼정빌라,Samjeong Village,Residence,House,126.7100265008159,37.52841491257967,대한민국,KOR,KOR,인천광역시,계양구,,효성동,,효서로135번길,5-12,232-16,2021-12-23 15:49:18,"빌딩,건물||주택||연립,빌라||빌라",False
536,537,1266242,대성빌라,,Daesung Villa,Residence,House,126.73315820466692,37.48553933056159,대한민국,KOR,KOR,인천광역시,부평구,,부개동,,경인로1024번길,28-5,245,2021-12-23 15:49:18,"빌딩,건물||주택||연립,빌라||빌라",False
541,542,617602,킹스빌타운,,Kingsville Town,Residence,House,126.7446917,37.55692459999983,대한민국,KOR,KOR,인천광역시,계양구,,박촌동,,장제로1025번길,7-1,22-3,2018-10-05 10:30:30,"빌딩,건물||주택||연립,빌라||빌라",False
543,544,2154930,정석아트빌,,Jeongseok Artville,Residence,House,126.66794650828992,37.451550656688575,대한민국,KOR,KOR,인천광역시,미추홀구,,주안동,,한나루로502번길,8,803-1,2021-12-23 15:49:18,"빌딩,건물||주택||연립,빌라||빌라",False
546,547,5678870,대인캐슬,,Daein Castle,Residence,House,126.73040254054892,37.4857835082968,대한민국,KOR,KOR,인천광역시,부평구,,부평동,,경인로990번길,25-14,624-22,2022-05-01 12:37:48,"빌딩,건물||주택||연립,빌라||빌라",False
551,552,1264730,대원빌라,,Daewon Villa,Residence,House,126.74002324049592,37.484519293605295,대한민국,KOR,KOR,인천광역시,부평구,,부개동,,경인로1092번길,42,382-2,2021-12-23 15:49:18,"빌딩,건물||주택||연립,빌라||빌라",False
552,553,2157096,명성빌라,명성,Myeongseong Villa,Residence,House,126.65943616363391,37.42654657652725,대한민국,KOR,KOR,인천광역시,연수구,,옥련동,,비류대로224번길,13,325-5,2021-12-23 15:49:18,"빌딩,건물||주택||연립,빌라||빌라",False
559,560,4338001,필하우스2차,2차필하우스,Feel House 2nd,Residence,House,126.65608932000389,37.556634988731794,대한민국,KOR,KOR,인천광역시,서구,,경서동,,경서로46번길,20,758-4,2020-01-14 23:21:05,"빌딩,건물||주택||연립,빌라||빌라",False
565,566,4326808,평화아트빌,,Peace Artville,Residence,House,126.6555289880999,37.45277831468905,대한민국,KOR,KOR,인천광역시,미추홀구,,용현동,,경인남길,42,167-7,2021-12-23 15:49:18,"빌딩,건물||주택||연립,빌라||빌라",False
578,579,5778212,은혜빌라,,Eunhye Villa,Residence,House,126.65184952751484,37.42226496022857,대한민국,KOR,KOR,인천광역시,연수구,,옥련동,,한나루로128번길,6,417-3,2022-05-01 12:37:48,"빌딩,건물||주택||연립,빌라||빌라",False
581,582,528719,삼덕아파트,삼덕진주아파트(108-5),Samdeok Apartment,Residence,House,126.6689096004039,37.46941020051128,대한민국,KOR,KOR,인천광역시,미추홀구,,도화동,,장고개로16번길,49,108-5,2022-05-01 12:37:48,"빌딩,건물||주택||아파트||아파트명||100세대미만",False
586,587,20476422,현설주택,,Existing house,Residence,House,126.68415142093592,37.45655078272647,대한민국,KOR,KOR,인천광역시,미추홀구,,주안동,,동주길119번길,15-5,412-3,2022-05-01 12:37:48,"빌딩,건물||주택||연립,빌라||빌라",False
607,608,4331570,이안빌리지,,Ian Village,Residence,House,126.6969553733559,37.45082116027447,대한민국,KOR,KOR,인천광역시,남동구,,구월동,,문화서로62번길,7,1114-15,2019-11-14 23:28:28,"빌딩,건물||주택||연립,빌라||빌라",False
610,611,6218689,제이케이하우스,,JK House,Residence,House,126.64740656063488,37.51327928493339,대한민국,KOR,KOR,인천광역시,서구,,원창동,,원석로196번안길,4-2,493-1,2020-01-14 23:36:46,"빌딩,건물||주택||연립,빌라||빌라",False
617,618,1265361,삼영빌라,,Samyoung Villa,Residence,House,126.7172248324109,37.433129473361966,대한민국,KOR,KOR,인천광역시,남동구,,남촌동,,남촌동로16번길,33-5,377-6,2021-12-23 15:49:18,"빌딩,건물||주택||연립,빌라||빌라",False
624,625,35198,거산아파트,,Geosan Apartment,Residence,House,126.6975491999199,37.51370320083651,대한민국,KOR,KOR,인천광역시,부평구,,산곡동,,,,63-69,2022-05-01 12:37:48,"빌딩,건물||주택||아파트||아파트명||100세대미만",False
631,632,2151624,골든하우스,,Golden House,Residence,House,126.69360658544105,37.447805701026574,대한민국,KOR,KOR,인천광역시,미추홀구,,관교동,,인하로411번길,35,316-9,2022-05-01 12:37:48,"빌딩,건물||주택||연립,빌라||빌라",False
637,638,6071440,금남빌라,,Geumnam Villa,Residence,House,126.68607905726188,37.48583327078957,대한민국,KOR,KOR,인천광역시,서구,,가좌동,,고래울로38번길,3-8,345-2,2021-12-23 15:49:18,"빌딩,건물||주택||연립,빌라||빌라",False
642,643,26868784,드림타워10차,,Dream Tower 10th,Residence,House,126.69860594886596,37.4642386355598,대한민국,KOR,KOR,인천광역시,남동구,,간석동,,주안로255번길,20,388-18,2022-05-01 12:37:48,"빌딩,건물||주택||연립,빌라||빌라",False
643,644,1265788,대원빌라,,Daewon Villa,Residence,House,126.72544043123992,37.46452271849488,대한민국,KOR,KOR,인천광역시,남동구,,만수동,,서판로53번길,15-9,839-5,2021-12-23 15:49:18,"빌딩,건물||주택||연립,빌라||빌라",False
644,645,4338801,파크빌,,parkville,Residence,House,126.67055856133788,37.55615585693142,대한민국,KOR,KOR,인천광역시,서구,,경서동,,이화로,27-1,1000-9,2020-01-14 23:21:05,"빌딩,건물||주택||연립,빌라||빌라",False
646,647,2617098,서보한마음빌라,,Servo Hanmaeum Villa,Residence,House,126.67441080334788,37.46996946178688,대한민국,KOR,KOR,인천광역시,미추홀구,,주안동,,석정로347번길,54,11-26,2021-12-23 15:49:18,"빌딩,건물||주택||연립,빌라||빌라",False
649,650,3144494,신성빌라,,Shinsung Villa,Residence,House,126.66819910103288,37.457809419440665,대한민국,KOR,KOR,인천광역시,미추홀구,,주안동,,경인북길387번길,3,595-2,2021-12-23 15:49:18,"빌딩,건물||주택||연립,빌라||빌라",False
650,651,2150479,공명빌리지,,GongmyeongVillage,Residence,House,126.62407487844683,37.48021473178396,대한민국,KOR,KOR,인천광역시,중구,,송월동1가,,참외전로35번길,11,4-106,2022-05-18 1:18:35,"빌딩,건물||주택||연립,빌라||빌라",False
659,660,1258699,동암빌라,,Dongam Villa,Residence,House,126.69543047629688,37.47112775762269,대한민국,KOR,KOR,인천광역시,부평구,,십정동,,배곶남로6번길,8,317-118,2021-12-23 15:49:18,"빌딩,건물||주택||연립,빌라||빌라",False
662,663,529957,송정아파트,,Songjeong Apartment,Residence,House,126.70512920043488,37.44685260054987,대한민국,KOR,KOR,인천광역시,남동구,,구월동,,남동대로725번길,31,1160,2022-05-01 12:37:48,"빌딩,건물||주택||아파트||아파트명||100세대이상",False
663,664,177250,대광빌라,,Daegwang Villa,Residence,House,126.62628743989286,37.48343000650777,대한민국,KOR,KOR,인천광역시,동구,,만석동,,제물량로,398,21-104,2019-05-09 23:05:25,"빌딩,건물||주택||연립,빌라||빌라",False
664,665,5669316,삼성빌라,,Samsung Villa,Residence,House,126.73300079201792,37.4510726780746,대한민국,KOR,KOR,인천광역시,남동구,,만수동,,하촌로,40-13,969-5,2021-12-23 15:49:18,"빌딩,건물||주택||연립,빌라||빌라",False
667,668,2603216,다움아트빌,,DaumArtville,Residence,House,126.48921389999984,37.74505829999988,대한민국,KOR,KOR,인천광역시,강화군,,강화읍,관청리,동문로12번길,12,119-17,2021-12-23 15:49:18,"빌딩,건물||주택||연립,빌라||빌라",False
668,669,1164125,삼미하우스,,Sammi House,Residence,House,126.72454242393492,37.462113300724,대한민국,KOR,KOR,인천광역시,남동구,,만수동,,백범로226번길,39,844-153,2021-12-23 15:49:18,"빌딩,건물||주택||연립,빌라||빌라",False
672,673,1254940,현대빌라,,Hyundai Villa,Residence,House,126.64214889365284,37.47700144088117,대한민국,KOR,KOR,인천광역시,동구,,송림동,,안송로39번길,3,54-34,2022-05-01 12:37:48,"빌딩,건물||주택||연립,빌라||빌라",False
673,674,4345431,해피하우스,,Happy House,Residence,House,126.68149355663888,37.4968669353196,대한민국,KOR,KOR,인천광역시,서구,,가좌동,,건지로366번길,7,97-8,2020-01-14 23:24:57,"빌딩,건물||주택||연립,빌라||빌라",False
674,675,2153333,성서주택,,SeongseoHouse,Residence,House,126.68357898556287,37.43718413235606,대한민국,KOR,KOR,인천광역시,미추홀구,,문학동,,소성로326번길,5,374-4,2022-08-12 13:15:03,"빌딩,건물||주택||연립,빌라||빌라",False
682,683,988566,보금빌라,,BogeumVilla,Residence,House,126.6678358642639,37.51256568171108,대한민국,KOR,KOR,인천광역시,서구,,석남동,,염곡로311번길,8,168-52,2020-01-14 23:37:51,"빌딩,건물||주택||연립,빌라||빌라",False
689,690,3804040,희주주택,,Heeju House,Residence,House,126.65906949999996,37.43311759999979,대한민국,KOR,KOR,인천광역시,연수구,,청학동,,청솔로,137-6,3-18,2015-04-16 0:00:00,"빌딩,건물||주택||연립,빌라||연립주택",False
693,694,1262742,믿음빌라,,faith villa,Residence,House,126.72749946468188,37.461298542525995,대한민국,KOR,KOR,인천광역시,남동구,,만수동,,백범로206번길,38,865-27,2021-12-23 15:49:18,"빌딩,건물||주택||연립,빌라||빌라",False
698,699,1268816,한솔빌라,,Hansol Villa,Residence,House,126.74358734890195,37.54831906951341,대한민국,KOR,KOR,인천광역시,계양구,,병방동,,장제로928번길,17,101-21,2021-12-23 15:49:18,"빌딩,건물||주택||연립,빌라||빌라",False
703,704,5780543,천지빌라,,Cheonji Villa,Residence,House,126.65979329031391,37.46461162939369,대한민국,KOR,KOR,인천광역시,미추홀구,,숭의동,,수봉안길35번길,55,2-47,2022-05-01 12:37:48,"빌딩,건물||주택||연립,빌라||빌라",False
705,706,458132,진흥1단지아파트,1단지진흥아파트,Jinheung Apartment Complex 1,Residence,House,126.67880350025588,37.51519880087949,대한민국,KOR,KOR,인천광역시,서구,,가정동,,서달로179번길,6-10,564,2022-05-01 12:37:48,"빌딩,건물||주택||아파트||아파트명||100세대이상",False
721,722,932344,별장빌라,,villa villa,Residence,House,126.66514228533993,37.42867154270656,대한민국,KOR,KOR,인천광역시,연수구,,청학동,,청학로16번길,25-6,534-2,2021-12-23 15:49:18,"빌딩,건물||주택||연립,빌라||빌라",False
728,729,4337230,대원주택,,Daewon House,Residence,House,126.71007414898688,37.461957689152875,대한민국,KOR,KOR,인천광역시,남동구,,간석동,,석산로169번길,33-11,190-16,2021-12-23 15:49:18,"빌딩,건물||주택||연립,빌라||연립주택",False
731,732,4340814,그린힐,,green hill,Residence,House,126.53454433469771,37.49437500794145,대한민국,KOR,KOR,인천광역시,중구,,운남동,,운중로13번길,19-7,1500-11,2021-12-23 15:49:18,"빌딩,건물||주택||연립,빌라||빌라",False
734,735,855679,산호빌라,,coral villa,Residence,House,126.73602313450692,37.54418514796272,대한민국,KOR,KOR,인천광역시,계양구,,임학동,,장제로853번길,14,69-11,2021-12-23 15:49:18,"빌딩,건물||주택||연립,빌라||빌라",False
742,743,459344,동인아파트,동인,Dongin Apartment,Residence,House,126.6818378996509,37.46551440087567,대한민국,KOR,KOR,인천광역시,미추홀구,,주안동,,염창로,72,31-1,2022-05-01 12:37:48,"빌딩,건물||주택||아파트||아파트명||100세대이상",False
743,744,1270059,서보주택,,servo house,Residence,House,126.6866450149829,37.55089194187631,대한민국,KOR,KOR,인천광역시,서구,,공촌동,,경명대로706번길,10-3,307-37,2021-12-23 15:49:18,"빌딩,건물||주택||연립,빌라||연립주택",False
744,745,2613904,현대빌라,,Hyundai Villa,Residence,House,126.7261420456499,37.502154792684486,대한민국,KOR,KOR,인천광역시,부평구,,부평동,,부흥북로35번길,18,375-92,2019-11-14 23:28:28,"빌딩,건물||주택||연립,빌라||빌라",False
745,746,2147894,태광빌라,태광,Taekwang Villa,Residence,House,126.7280322897709,37.50309976369953,대한민국,KOR,KOR,인천광역시,부평구,,부평동,,장제로195번길,47,10-716,2019-11-14 23:24:16,"빌딩,건물||주택||연립,빌라||빌라",False
746,747,5780540,지월주택,,jiwol House,Residence,House,126.6608519482469,37.46396268976607,대한민국,KOR,KOR,인천광역시,미추홀구,,숭의동,,수봉로33번길,75,2-24,2022-05-01 12:37:48,"빌딩,건물||주택||연립,빌라||연립주택",False
747,748,2155154,에덴빌라,에덴,Eden Villa,Residence,House,126.68653552396188,37.46117200703437,대한민국,KOR,KOR,인천광역시,미추홀구,,주안동,,경원대로875번길,52,57-8,2021-12-23 15:49:18,"빌딩,건물||주택||연립,빌라||빌라",False
752,753,1046507,흥진하이츠빌라,흥진빌라,Heungjin Heights Villa,Residence,House,126.66708461327988,37.45359828337118,대한민국,KOR,KOR,인천광역시,미추홀구,,주안동,,한나루로527번길,29,681-12,2021-12-23 15:49:18,"빌딩,건물||주택||연립,빌라||빌라",False
754,755,3267530,로얄하우스,,Royal House,Residence,House,126.65794210039088,37.61127090362283,대한민국,KOR,KOR,인천광역시,서구,,마전동,,가현로42번길,38,1149-13,2020-01-14 23:41:08,"빌딩,건물||주택||연립,빌라||빌라",False
756,757,3139127,희망주택,,Hope House,Residence,House,126.68699099881188,37.43800654441915,대한민국,KOR,KOR,인천광역시,미추홀구,,문학동,,매소홀로576번길,5-32,383-8,2021-12-23 15:49:18,"빌딩,건물||주택||연립,빌라||빌라",False
757,758,4343063,동원빌라,,Dongwon Villa,Residence,House,126.68263704589889,37.55065167582312,대한민국,KOR,KOR,인천광역시,서구,,공촌동,,심곡로208번길,8-10,311-5,2021-12-23 15:49:18,"빌딩,건물||주택||연립,빌라||빌라",False
758,759,1265445,신성빌라,,Shinsung Villa,Residence,House,126.73263481104397,37.49165108197669,대한민국,KOR,KOR,인천광역시,부평구,,부평동,,부일로9번길,36,475-6,2021-12-23 15:49:18,"빌딩,건물||주택||연립,빌라||빌라",False
759,760,6212243,미래타운,,future town,Residence,House,126.6560568554309,37.5570683949969,대한민국,KOR,KOR,인천광역시,서구,,경서동,,경서로14번길,51,750-5,2020-01-14 23:36:15,"빌딩,건물||주택||연립,빌라||빌라",False
762,763,2147829,청산그린빌,,Cheongsan Green Ville,Residence,House,126.72143805168793,37.49612042808938,대한민국,KOR,KOR,인천광역시,부평구,,부평동,,부평문화로53번길,49-5,542-61,2021-12-23 15:49:18,"빌딩,건물||주택||연립,빌라||빌라",False
770,771,1261501,수현주택,,SuhyeonHouse,Residence,House,126.71180375075492,37.45070116945189,대한민국,KOR,KOR,인천광역시,남동구,,구월동,,용천로11번길,42,1210-9,2021-12-23 15:49:18,"빌딩,건물||주택||연립,빌라||연립주택",False
776,777,1263516,대림아파트,,Daelim Apartment,Residence,House,126.73166740271591,37.489417337801285,대한민국,KOR,KOR,인천광역시,부평구,,부평동,,동수천로,17,499-2,2019-11-14 23:24:43,"빌딩,건물||주택||연립,빌라||연립주택",False
777,778,1870763,부양그린빌,,BuyangGreen Ville,Residence,House,126.68661761211888,37.611735307303135,대한민국,KOR,KOR,인천광역시,서구,,불로동,,검단로744번4길,4-7,795-9,2020-01-14 23:37:47,"빌딩,건물||주택||연립,빌라||빌라",False
785,786,1252325,동양빌라,,Dongyang Villa,Residence,House,126.63807547440884,37.46659682769027,대한민국,KOR,KOR,인천광역시,중구,,도원동,,도원로30번길,18,33-11,2021-12-23 15:49:18,"빌딩,건물||주택||연립,빌라||빌라",False
796,797,6209419,제이아이하우스,,J.I House,Residence,House,126.49958850210886,37.49811489104592,대한민국,KOR,KOR,인천광역시,중구,,운서동,,화랑목로,70-4,3029-2,2021-12-23 15:49:18,"빌딩,건물||주택||연립,빌라||빌라",False
798,799,20199868,주원빌라,,Juwon Villa,Residence,House,126.70013484765595,37.466979241343,대한민국,KOR,KOR,인천광역시,남동구,,간석동,,석정로574번길,9-14,579-4,2022-05-01 12:37:48,"빌딩,건물||주택||연립,빌라||빌라",False
804,805,1259573,일성주택,,Ilsung House,Residence,House,126.68096384935087,37.42706349914437,대한민국,KOR,KOR,인천광역시,연수구,,연수동,,함박안로,106,499-4,2021-12-23 15:49:18,"빌딩,건물||주택||연립,빌라||연립주택",False
806,807,2154339,리산주택,,Lisan House,Residence,House,126.67476444306187,37.46230111965046,대한민국,KOR,KOR,인천광역시,미추홀구,,도화동,,주안로50번길,42,406-15,2021-12-23 15:49:18,"빌딩,건물||주택||연립,빌라||빌라",False
808,809,5686141,현대빌라,,Hyundai Villa,Residence,House,126.72725761641593,37.45265895276408,대한민국,KOR,KOR,인천광역시,남동구,,만수동,,복개동로56번길,28,924-26,2021-12-23 15:49:18,"빌딩,건물||주택||연립,빌라||빌라",False
809,810,293501,옥동아파트,,Okdong Apartment,Residence,House,126.64642495175488,37.46277973771007,대한민국,KOR,KOR,인천광역시,미추홀구,,숭의동,,미추로35번길,9-11,165-22,2019-11-14 23:06:52,"빌딩,건물||주택||연립,빌라||빌라",False
817,818,1255700,그린빌,,greenville,Residence,House,126.65415689311888,37.42714707180346,대한민국,KOR,KOR,인천광역시,연수구,,옥련동,,한나루로197번길,55,272-18,2021-12-23 15:49:18,"빌딩,건물||주택||연립,빌라||빌라",False
821,822,5667646,드림파크빌,,Dream Parkville,Residence,House,126.67953776269688,37.59045303285372,대한민국,KOR,KOR,인천광역시,서구,,당하동,,청마로134번길,13-16,1106-12,2020-01-14 23:21:05,"빌딩,건물||주택||연립,빌라||빌라",False
822,823,2603651,소망빌라,,Hope Villa,Residence,House,126.72528806054288,37.45085148681867,대한민국,KOR,KOR,인천광역시,남동구,,구월동,,구월말로24번길,14,1309-17,2021-12-23 15:49:18,"빌딩,건물||주택||연립,빌라||빌라",False
824,825,2606543,현대주택,,modern house,Residence,House,126.68850894357288,37.45521043732828,대한민국,KOR,KOR,인천광역시,미추홀구,,주안동,,동주길94번길,64,258-6,2021-12-23 15:49:18,"빌딩,건물||주택||연립,빌라||빌라",False
837,838,20184738,문성주택,,Moonseong House,Residence,House,126.69833086340697,37.60045859557464,대한민국,KOR,KOR,인천광역시,서구,,원당동,,고산후로161번안길,32-9,800-6,2021-12-23 15:49:18,"빌딩,건물||주택||연립,빌라||빌라",False
838,839,4357777,하은주택,,Haeun House,Residence,House,126.74579466584495,37.437777350601856,대한민국,KOR,KOR,인천광역시,남동구,,서창동,,독곡로16번길,22-23,555-2,2019-11-14 23:19:12,"빌딩,건물||주택||연립,빌라||연립주택",False
847,848,2150394,한샘빌라,한샘,Hanssem Villa,Residence,House,126.63515558308586,37.469245079551854,대한민국,KOR,KOR,인천광역시,중구,,율목동,,율목로8번길,12-18,247-8,2021-12-23 15:49:18,"빌딩,건물||주택||연립,빌라||빌라",False
859,860,3133324,진흥빌라,,Jinheung Villa,Residence,House,126.72216917934092,37.486847084704166,대한민국,KOR,KOR,인천광역시,부평구,,부평동,,경인로,920,669,2022-05-01 12:37:48,"빌딩,건물||주택||연립,빌라||빌라",False
860,861,4327744,리더스아파트,,Leader's Apartment,Residence,House,126.71410035382688,37.465410721267375,대한민국,KOR,KOR,인천광역시,남동구,,간석동,,용천로,177,51-3,2022-05-01 12:37:48,"빌딩,건물||주택||아파트||아파트명||아파트명-일반",False
861,862,277902,삼성에센빌,,Samsung Essenville,Residence,House,126.67641562722288,37.465752938615296,대한민국,KOR,KOR,인천광역시,미추홀구,,주안동,,염창로,24,28-11,2021-12-23 15:49:18,"빌딩,건물||주택||연립,빌라||빌라",False
864,865,5784306,SK맨션,,SK Mansion,Residence,House,126.68208721512993,37.442452201581375,대한민국,KOR,KOR,인천광역시,미추홀구,,주안동,,승학길76번길,42,1292-27,2022-05-01 12:37:48,"빌딩,건물||주택||연립,빌라||빌라",False
868,869,6205202,인하우스,,in house,Residence,House,126.70137830835888,37.474159005498166,대한민국,KOR,KOR,인천광역시,부평구,,십정동,,하정로,10,399,2019-11-14 0:00:00,"빌딩,건물||주택||연립,빌라||빌라",False
869,870,3129933,현대빌리지,,Hyundai Village,Residence,House,126.61984912334285,37.47707530174949,대한민국,KOR,KOR,인천광역시,중구,,북성동3가,,자유공원서로29번길,17,3-13,2022-05-18 1:18:35,"빌딩,건물||주택||연립,빌라||빌라",False
871,872,1252753,동인빌라,,Dongin Villa,Residence,House,126.65175767245486,37.45456831588877,대한민국,KOR,KOR,인천광역시,미추홀구,,용현동,,인주대로132번길,36,237-1,2021-12-23 15:49:18,"빌딩,건물||주택||연립,빌라||빌라",False
873,874,2151061,경기빌라,경기,GyeonggiVilla,Residence,House,126.66594465142188,37.46518711903957,대한민국,KOR,KOR,인천광역시,미추홀구,,도화동,,경인로,213-16,603-18,2021-12-23 15:49:18,"빌딩,건물||주택||연립,빌라||빌라",False
875,876,2154994,번영빌라,번영,Prosperity Villa,Residence,House,126.66703040953789,37.45291541716287,대한민국,KOR,KOR,인천광역시,미추홀구,,주안동,,한나루로515번길,15-31,679-15,2021-12-23 15:49:18,"빌딩,건물||주택||연립,빌라||빌라",False
877,878,1872270,삼호빌라,,Samho Villa,Residence,House,126.73055492103792,37.52167444882199,대한민국,KOR,KOR,인천광역시,부평구,,갈산동,,새갈로,43,6-7,2021-12-23 15:49:18,"빌딩,건물||주택||연립,빌라||빌라",False
885,886,5775851,숭의빌리지,,Sungui Village,Residence,House,126.64386239787484,37.46078670582038,대한민국,KOR,KOR,인천광역시,미추홀구,,숭의동,,인주대로35번길,36-30,339-19,2022-05-01 12:37:48,"빌딩,건물||주택||연립,빌라||빌라",False
889,890,275298,광림타운,,Gwanglim Town,Residence,House,126.73639079803291,37.48840467865748,대한민국,KOR,KOR,인천광역시,부평구,,부개동,,경인로1045번길,32,287,2019-12-09 10:50:24,"빌딩,건물||주택||연립,빌라||빌라",False
890,891,2147379,동광빌라트,,Donggwang Villat,Residence,House,126.7128663602689,37.46302393556228,대한민국,KOR,KOR,인천광역시,남동구,,간석동,,남동대로898번길,81-7,129-21,2021-12-23 15:49:18,"빌딩,건물||주택||연립,빌라||빌라",False
892,893,5779503,일광빌라,,Ilgwang Villa,Residence,House,126.6768904060349,37.46467891748079,대한민국,KOR,KOR,인천광역시,미추홀구,,주안동,,주안로61번길,8-12,261-9,2022-05-01 12:37:48,"빌딩,건물||주택||연립,빌라||빌라",False
894,895,2596499,만복빌라,,Manbok Villa,Residence,House,126.71624379293787,37.43246819311028,대한민국,KOR,KOR,인천광역시,남동구,,남촌동,,남촌동로26번길,8-5,376-3,2021-12-23 15:49:18,"빌딩,건물||주택||연립,빌라||빌라",False
913,914,6209486,다복주택,,multi-family house,Residence,House,126.6990326860989,37.44834833417704,대한민국,KOR,KOR,인천광역시,남동구,,구월동,,문화로89번길,8-26,1347-19,2021-12-23 15:49:18,"빌딩,건물||주택||연립,빌라||연립주택",False
915,916,2152781,재림빌라,재림,Second Advent Villa,Residence,House,126.72028536530192,37.54168946730922,대한민국,KOR,KOR,인천광역시,계양구,,계산동,,계산로21번길,14-1,976-8,2021-12-23 15:49:18,"빌딩,건물||주택||연립,빌라||빌라",False
916,917,2597006,하늘빌리지,,Sky Village,Residence,House,126.53965041114276,37.495782378959966,대한민국,KOR,KOR,인천광역시,중구,,운남동,,전소로,28,536-3,2021-12-23 15:49:18,"빌딩,건물||주택||연립,빌라||빌라",False
922,923,2151119,대동빌라,대동,Daedong Villa,Residence,House,126.67721118279088,37.46105093306147,대한민국,KOR,KOR,인천광역시,미추홀구,,도화동,,석바위로,37-1,359-3,2021-12-23 15:49:18,"빌딩,건물||주택||연립,빌라||빌라",False
929,930,1264695,나라아트빌,,Nara Artville,Residence,House,126.73617304678496,37.49958029913459,대한민국,KOR,KOR,인천광역시,부평구,,부개동,,충선로,116,64-35,2021-12-23 15:49:18,"빌딩,건물||주택||연립,빌라||빌라",False
931,932,3137176,영진빌라,,Youngjin Villa,Residence,House,126.72419997901892,37.45127613197158,대한민국,KOR,KOR,인천광역시,남동구,,구월동,,구월말로27번길,5,1301-5,2021-12-23 15:49:18,"빌딩,건물||주택||연립,빌라||빌라",False
934,935,3142499,세연빌라,,SeyeonVilla,Residence,House,126.68948765234192,37.464215697322366,대한민국,KOR,KOR,인천광역시,미추홀구,,주안동,,경원대로,911-10,960-5,2021-12-23 15:49:18,"빌딩,건물||주택||연립,빌라||빌라",False
939,940,2154589,진흥빌라,진흥,Jinheung Villa,Residence,House,126.6657699927579,37.455378481959166,대한민국,KOR,KOR,인천광역시,미추홀구,,주안동,,경인남길,232-1,649-26,2021-12-23 15:49:18,"빌딩,건물||주택||연립,빌라||빌라",False
946,947,922531,계산대우빌라,대우빌라,gyesan Daewoo Villa,Residence,House,126.72976089999996,37.54406519999982,대한민국,KOR,KOR,인천광역시,계양구,,계산동,,주부토로562번길,10-1,912-38,2018-10-05 10:30:30,"빌딩,건물||주택||연립,빌라||빌라",False
948,949,3143110,성지맨션,,Holy Land Mansion,Residence,House,126.6666903915619,37.454297751213566,대한민국,KOR,KOR,인천광역시,미추홀구,,주안동,,인주대로265번길,34,690-18,2021-12-23 15:49:18,"빌딩,건물||주택||연립,빌라||빌라",False
955,956,2149888,나나빌라,나나,Nanavila,Residence,House,126.48963249999984,37.7465431999999,대한민국,KOR,KOR,인천광역시,강화군,,강화읍,관청리,동문로,20-1,140-1,2022-05-01 12:37:48,"빌딩,건물||주택||연립,빌라||빌라",False
959,960,312423,은정빌라,,EunjeongVilla,Residence,House,126.65147412973585,37.453372180255045,대한민국,KOR,KOR,인천광역시,미추홀구,,용현동,,독배로382번길,47-46,367-30,2021-12-23 15:49:18,"빌딩,건물||주택||연립,빌라||빌라",False
970,971,3145898,한솔주택,,Hansol House,Residence,House,126.68517467897388,37.43806091241228,대한민국,KOR,KOR,인천광역시,미추홀구,,문학동,,매소홀로562번길,5-30,384-6,2021-12-23 15:49:18,"빌딩,건물||주택||연립,빌라||빌라",False
984,985,1048591,상우아트빌,,Sangwoo Artville,Residence,House,126.65530072156288,37.423388315461054,대한민국,KOR,KOR,인천광역시,연수구,,옥련동,,청룡로30번길,35,348-78,2020-01-14 23:39:43,"빌딩,건물||주택||연립,빌라||빌라",False
988,989,2605049,리치빌라,,Rich Villa,Residence,House,126.73651092262092,37.54421500066751,대한민국,KOR,KOR,인천광역시,계양구,,임학동,,장제로863번길,32,69-29,2021-12-23 15:49:18,"빌딩,건물||주택||연립,빌라||빌라",False
989,990,4349971,성하주택,,SeonghaHouse,Residence,House,126.67020879414488,37.541638829895,대한민국,KOR,KOR,인천광역시,서구,,심곡동,,심곡로8번길,4-1,340-9,2020-01-14 0:00:00,"빌딩,건물||주택||연립,빌라||빌라",False
1000,1001,2150759,한미홈타운,,Hanmi Hometown,Residence,House,126.63330452896584,37.45058072418985,대한민국,KOR,KOR,인천광역시,미추홀구,,용현동,,낙섬서로,7-13,627-437,2019-11-14 23:24:17,"빌딩,건물||주택||연립,빌라||빌라",False
1001,1002,1872786,현대빌리지,,Hyundai Village,Residence,House,126.68267653723488,37.42700454264635,대한민국,KOR,KOR,인천광역시,연수구,,연수동,,함박안로,136,516,2021-12-23 15:49:18,"빌딩,건물||주택||연립,빌라||연립주택",False
1002,1003,6266125,샛별주택,,Saetbyeol House,Residence,House,126.72404105672793,37.45841286137287,대한민국,KOR,KOR,인천광역시,남동구,,만수동,,구월말로103번길,24,900-2,2021-12-23 15:49:18,"빌딩,건물||주택||연립,빌라||연립주택",False
1006,1007,2154039,시민주택,,civic housing,Residence,House,126.65913143406291,37.45611180126757,대한민국,KOR,KOR,인천광역시,미추홀구,,용현동,,수봉남로12번길,55-3,130-6,2021-12-23 15:49:18,"빌딩,건물||주택||연립,빌라||빌라",False
1008,1009,2155245,수성주택,,Suseong House,Residence,House,126.68385458669692,37.46216910554878,대한민국,KOR,KOR,인천광역시,미추홀구,,주안동,,석바위로101번길,31-6,94-1,2019-11-14 23:19:19,"빌딩,건물||주택||연립,빌라||빌라",False
1009,1010,6207342,월드홈타운,,World Hometown,Residence,House,126.65836440924292,37.599368628149435,대한민국,KOR,KOR,인천광역시,서구,,왕길동,,완정로165번길,32,661-13,2020-01-14 23:36:46,"빌딩,건물||주택||연립,빌라||빌라",False
1017,1018,2150931,대원빌라,,Daewon Villa,Residence,House,126.6668210798189,37.46684897980678,대한민국,KOR,KOR,인천광역시,미추홀구,,도화동,,숙골로,40-1,224-16,2022-05-01 12:37:48,"빌딩,건물||주택||연립,빌라||빌라",False
1018,1019,242238,무궁화빌라,,Mugunghwa Villa,Residence,House,126.74135778616797,37.518600691775305,대한민국,KOR,KOR,인천광역시,부평구,,삼산동,,영성로18번길,27-2,165-1,2019-11-14 23:06:52,"빌딩,건물||주택||연립,빌라||빌라",False
1019,1020,5672415,더갤러리빌라,,The Gallery Villa,Residence,House,126.66790427549888,37.453794503598765,대한민국,KOR,KOR,인천광역시,미추홀구,,주안동,,한나루로527번길,15,685-3,2019-11-14 23:20:09,"빌딩,건물||주택||연립,빌라||빌라",False
1023,1024,5665000,힐하우스,,Hill House,Residence,House,126.68692856672487,37.61255708288303,대한민국,KOR,KOR,인천광역시,서구,,불로동,,검단로744번4길,19-2,797-2,2020-01-14 23:24:59,"빌딩,건물||주택||연립,빌라||빌라",False
1026,1027,5844569,현대렉스힐,,Hyundai Rex Hill,Residence,House,126.72348950013092,37.482493400639456,대한민국,KOR,KOR,인천광역시,부평구,,부평동,,동수로52번길,15-47,665-567,2022-05-01 12:37:48,"빌딩,건물||주택||연립,빌라||빌라",False
1040,1041,445788,명성그랜드빌라,명성빌라,Myeongseong Grand Villa,Residence,House,126.72500071275392,37.53350304302701,대한민국,KOR,KOR,인천광역시,계양구,,작전동,,작전시장로19번길,9-3,856-81,2021-12-23 15:49:18,"빌딩,건물||주택||연립,빌라||빌라",False
1044,1045,2594380,주영빌라,,Juyeong Villa,Residence,House,126.74856244822496,37.56747220932313,대한민국,KOR,KOR,인천광역시,계양구,,귤현동,,굴재길,3,497-8,2019-11-14 23:25:05,"빌딩,건물||주택||연립,빌라||빌라",False
1052,1053,3137744,신일주택,,Shinil House,Residence,House,126.6810991137159,37.43966162557705,대한민국,KOR,KOR,인천광역시,미추홀구,,문학동,,매소홀로535번길,12-31,338-9,2021-12-23 15:49:18,"빌딩,건물||주택||연립,빌라||빌라",False
1054,1055,1254556,성동빌라,,SeongdongVilla,Residence,House,126.64156373200386,37.45168038336287,대한민국,KOR,KOR,인천광역시,미추홀구,,용현동,,낙섬동로,68-13,612-43,2019-11-14 23:05:38,"빌딩,건물||주택||연립,빌라||빌라",False
1060,1061,2157274,평화빌라,,Peace Villa,Residence,House,126.6627594209889,37.42896418145647,대한민국,KOR,KOR,인천광역시,연수구,,청학동,,청학로21번길,11,522-4,2021-12-23 15:49:18,"빌딩,건물||주택||연립,빌라||빌라",False
1064,1065,2155317,기아주택,,Kia House,Residence,House,126.65603279999993,37.42780479999978,대한민국,KOR,KOR,인천광역시,연수구,,옥련동,,비류대로,190,289-3,2017-09-08 11:11:11,"빌딩,건물||주택||연립,빌라||빌라",False
1065,1066,5770520,모던하우스,,Modern House ,Residence,House,126.6987240997099,37.45931540093736,대한민국,KOR,KOR,인천광역시,남동구,,간석동,,문화로217번길,42-5,516-24,2022-05-01 12:37:48,"빌딩,건물||주택||연립,빌라||빌라",False
1072,1073,5686694,하늘정원빌라,,Sky Garden Villa,Residence,House,126.54672789990678,37.498750075196334,대한민국,KOR,KOR,인천광역시,중구,,중산동,,백운로61번길,31,1378,2020-01-14 23:21:05,"빌딩,건물||주택||연립,빌라||빌라",False
1074,1075,2155410,현대주택,,modern house,Residence,House,126.66931042959692,37.42645425978488,대한민국,KOR,KOR,인천광역시,연수구,,청학동,,계림로112번길,27,552-5,2021-12-23 15:49:18,"빌딩,건물||주택||연립,빌라||빌라",False
1076,1077,2151125,신영빌라,신영,Shinyoung Villa,Residence,House,126.66986375825392,37.46943391994947,대한민국,KOR,KOR,인천광역시,미추홀구,,도화동,,석정로301번길,36,119-27,2022-05-01 12:37:48,"빌딩,건물||주택||연립,빌라||빌라",False
1080,1081,1271318,대산빌라,,Daesan Villa,Residence,House,126.7253572076659,37.535584774250594,대한민국,KOR,KOR,인천광역시,계양구,,작전동,,계산로112번길,20-3,856-38,2019-12-09 10:50:24,"빌딩,건물||주택||연립,빌라||빌라",False
1083,1084,5665016,삼미그랜드빌라,,Sammi Grand Villa,Residence,House,126.67419042818791,37.446106235945855,대한민국,KOR,KOR,인천광역시,미추홀구,,주안동,,인하로236번길,50-8,856-101,2021-12-23 15:49:18,"빌딩,건물||주택||연립,빌라||빌라",False
1086,1087,4346656,그린캐슬,,Green Castle,Residence,House,126.73446605226492,37.49940037652608,대한민국,KOR,KOR,인천광역시,부평구,,부개동,,장제로160번길,68,16-68,2021-12-23 15:49:18,"빌딩,건물||주택||연립,빌라||빌라",False
1087,1088,994004,새문화빌라,,New Culture Villa,Residence,House,126.7038183561239,37.46697465530846,대한민국,KOR,KOR,인천광역시,남동구,,간석동,,예술로362번길,13-14,254-2,2021-12-23 15:49:18,"빌딩,건물||주택||연립,빌라||빌라",False
1088,1089,3139798,삼성탑스빌,,Samsung Tops Ville,Residence,House,126.68714716226188,37.46099134122437,대한민국,KOR,KOR,인천광역시,미추홀구,,주안동,,경원대로875번길,43-3,58-9,2021-12-23 15:49:18,"빌딩,건물||주택||연립,빌라||빌라",False
1089,1090,1261052,영진맨션,,Youngjin Mansion,Residence,House,126.70405270136288,37.45969307742118,대한민국,KOR,KOR,인천광역시,남동구,,간석동,,구월로115번길,66-18,466-7,2021-12-23 15:49:18,"빌딩,건물||주택||연립,빌라||빌라",False
1094,1095,6206986,벤츠타운,,Benz Town,Residence,House,126.6614268545299,37.61060662539433,대한민국,KOR,KOR,인천광역시,서구,,마전동,,가현로82번길,8,1152-20,2022-05-01 12:37:48,"빌딩,건물||주택||연립,빌라||빌라",False
1098,1099,663348,대영그린빌라,,Daeyoung Green Villa,Residence,House,126.73351259999998,37.45196889999978,대한민국,KOR,KOR,인천광역시,남동구,,만수동,,하촌로48번길,10,970-12,2018-10-05 10:30:30,"빌딩,건물||주택||연립,빌라||빌라",False
1110,1111,4408985,해담은빌라,,Hadam Eun Villa,Residence,House,126.73407086536795,37.51821469377349,대한민국,KOR,KOR,인천광역시,부평구,,삼산동,,평천로391번길,15-1,260-14,2019-11-14 23:05:38,"빌딩,건물||주택||연립,빌라||빌라",False
1111,1112,422760,시민아파트,,Citizen's Apartment,Residence,House,126.69734640036988,37.47192500055048,대한민국,KOR,KOR,인천광역시,부평구,,십정동,,배곶로,42,306-1,2022-05-01 12:37:48,"빌딩,건물||주택||아파트||아파트명||100세대미만",False
1114,1115,20380297,미광빌라,,Mikwang Villa,Residence,House,126.72224524801588,37.45345998517757,대한민국,KOR,KOR,인천광역시,남동구,,구월동,,구월말로39번길,50-7,349-429,2022-05-01 12:37:48,"빌딩,건물||주택||연립,빌라||빌라",False
1115,1116,3140709,성민주택,,Seongmin House,Residence,House,126.68455626467988,37.612192001059725,대한민국,KOR,KOR,인천광역시,서구,,불로동,,검단로744번2길,8-6,783-3,2021-12-23 15:49:18,"빌딩,건물||주택||연립,빌라||빌라",False
1116,1117,6071547,태경주택,,Taekyung House,Residence,House,126.6785490196559,37.5127261868793,대한민국,KOR,KOR,인천광역시,서구,,석남동,,서달로149번길,6-14,470-9,2020-01-14 0:00:00,"빌딩,건물||주택||연립,빌라||빌라",False
1124,1125,22412,대경빌라,,Daegyeong Villa,Residence,House,126.73615562847594,37.54337013907971,대한민국,KOR,KOR,인천광역시,계양구,,임학동,,안산로,68,73-21,2021-12-23 15:49:18,"빌딩,건물||주택||연립,빌라||빌라",False
1125,1126,2153922,로얄하이츠빌라,로얄하이츠,Royal Heights Villa,Residence,House,126.62971128230384,37.48212688436408,대한민국,KOR,KOR,인천광역시,동구,,화수동,,화도로51번길,6-5,169,2021-12-23 15:49:18,"빌딩,건물||주택||연립,빌라||빌라",False
1139,1140,832390,강남빌라,,Gangnam Villa,Residence,House,126.72943010414892,37.45608177207479,대한민국,KOR,KOR,인천광역시,남동구,,만수동,,만경로8번길,39,881-4,2021-12-23 15:49:18,"빌딩,건물||주택||연립,빌라||빌라",False
1145,1146,1267815,새날맨션,,SaenalMansion,Residence,House,126.68009511363488,37.56572708364731,대한민국,KOR,KOR,인천광역시,서구,,검암동,,검암로19번길,3,521-10,2020-01-14 23:40:31,"빌딩,건물||주택||연립,빌라||빌라",False
1152,1153,1261400,정석빌라,,Jeongseok Villa,Residence,House,126.6797604203429,37.51238967001019,대한민국,KOR,KOR,인천광역시,서구,,석남동,,서달로,150-23,111-70,2020-01-14 23:42:10,"빌딩,건물||주택||연립,빌라||빌라",False
1154,1155,6205110,대호아트빌,,Daeho Artville,Residence,House,126.70732189714694,37.468333129094496,대한민국,KOR,KOR,인천광역시,남동구,,간석동,,동암남로34번길,49,221-7,2021-12-23 15:49:18,"빌딩,건물||주택||연립,빌라||빌라",False
1159,1160,1263669,한진아트빌,,Hanjin Artville,Residence,House,126.67679973624885,37.508285061684695,대한민국,KOR,KOR,인천광역시,서구,,석남동,,가석로,266,490-2,2021-12-23 15:49:18,"빌딩,건물||주택||연립,빌라||빌라",False
1161,1162,2155042,부일빌라,부일,BuilVilla,Residence,House,126.68361056381988,37.45554257386428,대한민국,KOR,KOR,인천광역시,미추홀구,,주안동,,동주길97번길,21,414-17,2021-12-23 15:49:18,"빌딩,건물||주택||연립,빌라||빌라",False
1173,1174,1085275,대신주택,,Daeshin House,Residence,House,126.66419390317988,37.46488392427798,대한민국,KOR,KOR,인천광역시,미추홀구,,도화동,,경인로,198-16,625-21,2019-11-14 23:19:12,"빌딩,건물||주택||연립,빌라||연립주택",False
1175,1176,2154708,유한주택,,Yuhan Housing,Residence,House,126.67547752381888,37.46379028739647,대한민국,KOR,KOR,인천광역시,미추홀구,,주안동,,주안로56번길,8,284-4,2019-11-14 23:19:30,"빌딩,건물||주택||연립,빌라||빌라",False
1181,1182,20483147,한별주택,,Hanbyeol House,Residence,House,126.67270718529892,37.504004042132316,대한민국,KOR,KOR,인천광역시,서구,,석남동,,면개포로,9,540-14,2022-05-01 12:37:48,"빌딩,건물||주택||연립,빌라||빌라",False
1185,1186,1127115,삼익목화맨션,삼익목화,Samik Cotton Mansion,Residence,House,126.70897299979188,37.46363680078169,대한민국,KOR,KOR,인천광역시,남동구,,간석동,,,,210-4,2022-05-01 12:37:48,"빌딩,건물||주택||아파트||아파트명||100세대미만",False
1187,1188,2150469,신천빌라,신천,Shincheon Villa,Residence,House,126.62370816440986,37.48027276646958,대한민국,KOR,KOR,인천광역시,중구,,송월동1가,,참외전로33번길,11,4-160,2022-05-18 1:14:04,"빌딩,건물||주택||연립,빌라||빌라",False
1188,1189,845774,유원아파트,,Yuwon Apartment,Residence,House,126.64254829959788,37.45587800062155,대한민국,KOR,KOR,인천광역시,미추홀구,,용현동,,낙섬중로,102,557-1,2022-05-01 12:37:48,"빌딩,건물||주택||아파트||아파트명||500세대이상",False
1191,1192,4322572,한영빌리지,,Hanyeong Village,Residence,House,126.68639784248587,37.44982877255968,대한민국,KOR,KOR,인천광역시,미추홀구,,주안동,,인주대로446번길,21-14,1519-2,2019-11-14 23:25:16,"빌딩,건물||주택||연립,빌라||빌라",False
1192,1193,4341238,드림빌,,Dreamville,Residence,House,126.65844135675088,37.60751425769813,대한민국,KOR,KOR,인천광역시,서구,,마전동,,완정로188번4길,27,893-6,2020-01-14 23:23:42,"빌딩,건물||주택||연립,빌라||빌라",False
1196,1197,1268450,대산빌라,,Daesan Villa,Residence,House,126.74317556112194,37.547254431771115,대한민국,KOR,KOR,인천광역시,계양구,,병방동,,장제로920번길,20,156-6,2021-12-23 15:49:18,"빌딩,건물||주택||연립,빌라||빌라",False
1199,1200,1262045,현대빌라,,Hyundai Villa,Residence,House,126.73835291351796,37.4879745767733,대한민국,KOR,KOR,인천광역시,부평구,,부개동,,수변로15번길,21,296-11,2021-12-23 15:49:18,"빌딩,건물||주택||연립,빌라||빌라",False
1200,1201,572398,롯데맨션,,Lotte Mansion,Residence,House,126.72538839723094,37.5473324181812,대한민국,KOR,KOR,인천광역시,계양구,,계산동,,하느재로,42-1,903-7,2021-12-23 15:49:18,"빌딩,건물||주택||연립,빌라||빌라",False
1203,1204,152885,덕우빌라,,Deokwoo Villa,Residence,House,126.71741226160992,37.43314950140597,대한민국,KOR,KOR,인천광역시,남동구,,남촌동,,남촌동로16번길,31,377-7,2021-12-23 15:49:18,"빌딩,건물||주택||연립,빌라||빌라",False
1209,1210,6209340,나무하우스,,tree house,Residence,House,126.64786419303186,37.5141307669568,대한민국,KOR,KOR,인천광역시,서구,,원창동,,원석로196번안길,12-5,490-3,2020-01-14 23:36:46,"빌딩,건물||주택||연립,빌라||빌라",False
1210,1211,2148251,인우맨션,,Inwoo Mansion,Residence,House,126.7100621484919,37.48218841130108,대한민국,KOR,KOR,인천광역시,부평구,,십정동,,경인로811번길,27-4,181-24,2021-12-23 15:49:18,"빌딩,건물||주택||연립,빌라||빌라",False
1214,1215,156046,동부빌라,,Dongbu Villa,Residence,House,126.67136239999992,37.514987799999815,대한민국,KOR,KOR,인천광역시,서구,,신현동,,가정로335번길,12-2,286-10,2021-12-23 15:49:18,"빌딩,건물||주택||연립,빌라||빌라",False
1215,1216,2155249,순주택,,net house,Residence,House,126.67531576781388,37.45518443586037,대한민국,KOR,KOR,인천광역시,미추홀구,,주안동,,한나루로550번길,95,556-3,2019-11-14 23:19:19,"빌딩,건물||주택||연립,빌라||빌라",False
1217,1218,2603832,대훈빌라,,Daehoon Villa,Residence,House,126.67266178711591,37.548784787555284,대한민국,KOR,KOR,인천광역시,서구,,연희동,,연희로39번길,6-1,743-8,2021-12-23 15:49:18,"빌딩,건물||주택||연립,빌라||빌라",False
1220,1221,6496225,성원주택,,Sungwon House,Residence,House,126.67516714553794,37.495258602993694,대한민국,KOR,KOR,인천광역시,서구,,가좌동,,가남로,151-2,143-211,2021-12-23 15:49:18,"빌딩,건물||주택||연립,빌라||빌라",False
1222,1223,27036739,행복주택,,happy house,Residence,House,126.66673062878094,37.4575837462343,대한민국,KOR,KOR,인천광역시,미추홀구,,주안동,,수봉로182번길,50-13,580-10,2022-05-01 12:37:48,"빌딩,건물||주택||연립,빌라||빌라",False
1223,1224,3168640,태우빌라,,Taewoo Villa,Residence,House,126.72579430022093,37.46105779991217,대한민국,KOR,KOR,인천광역시,남동구,,만수동,,,,857-33,2022-05-01 12:37:48,"빌딩,건물||주택||연립,빌라||빌라",False
1225,1226,2156578,안국빌라,안국,Anguk Villa,Residence,House,126.6655146665889,37.51086957924249,대한민국,KOR,KOR,인천광역시,서구,,석남동,,새오개로,8-5,189-3,2021-12-23 15:49:18,"빌딩,건물||주택||연립,빌라||빌라",False
1231,1232,84467,고려아트빌라,,Korea Art Villa,Residence,House,126.66750702666388,37.51517657627469,대한민국,KOR,KOR,인천광역시,서구,,신현동,,새오개로54번길,17-1,149-24,2020-06-15 0:00:00,"빌딩,건물||주택||연립,빌라||빌라",False
1237,1238,2147476,금성빌라,금성,Geumseong Villa,Residence,House,126.71868246828988,37.465106766566365,대한민국,KOR,KOR,인천광역시,남동구,,간석동,,용천로176번길,85-7,224-730,2022-05-01 12:37:48,"빌딩,건물||주택||연립,빌라||빌라",False
1240,1241,5667506,삼성빌,,Samsung Ville,Residence,House,126.51025013975772,37.482211269887536,대한민국,KOR,KOR,인천광역시,중구,,운서동,,운서4로,11-7,2914-3,2021-12-23 15:49:18,"빌딩,건물||주택||연립,빌라||빌라",False
1242,1243,1258135,공작빌라,,peacock villa,Residence,House,126.69790530445889,37.465395029556085,대한민국,KOR,KOR,인천광역시,남동구,,간석동,,석정로552번길,9-20,605-4,2019-11-14 23:24:43,"빌딩,건물||주택||연립,빌라||빌라",False
1243,1244,2152919,우성빌리지,,Woosung Village,Residence,House,126.73682493304892,37.54400239204572,대한민국,KOR,KOR,인천광역시,계양구,,임학동,,장제로863번길,34-2,69-21,2022-05-01 12:37:48,"빌딩,건물||주택||연립,빌라||빌라",False
1246,1247,1258932,청구주택,,billing house,Residence,House,126.66441249999995,37.42620129999977,대한민국,KOR,KOR,인천광역시,연수구,,청학동,,비류대로278번길,8-17,563-4,2021-12-23 15:49:18,"빌딩,건물||주택||연립,빌라||연립주택",False
1255,1256,2153784,제주빌라,제주,Jeju Villa,Residence,House,126.63729734560984,37.46685181979947,대한민국,KOR,KOR,인천광역시,중구,,도원동,,도원로,26,30-75,2020-01-14 0:00:00,"빌딩,건물||주택||연립,빌라||빌라",False
1263,1264,4785751,해피드림,,Happy Dream,Residence,House,126.64735639944288,37.46434400100146,대한민국,KOR,KOR,인천광역시,미추홀구,,숭의동,,경인로41번길,3,148-20,2021-12-23 15:49:18,"빌딩,건물||주택||연립,빌라||빌라",False
1264,1265,283061,삼보아파트,,Sambo Apartment,Residence,House,126.72766370014192,37.454569800697776,대한민국,KOR,KOR,인천광역시,남동구,,만수동,,구월로336번길,14,917-15,2022-05-01 12:37:48,"빌딩,건물||주택||아파트||아파트명||100세대이상",False
1274,1275,6216469,준하우스,,Jun House,Residence,House,126.68158328194092,37.615709204970535,대한민국,KOR,KOR,인천광역시,서구,,불로동,,검단로763번길,37-2,764-12,2020-01-14 23:36:15,"빌딩,건물||주택||연립,빌라||빌라",False
1275,1276,2147548,로얄파크빌,,Royal Parkville,Residence,House,126.73886182328594,37.46542509917939,대한민국,KOR,KOR,인천광역시,남동구,,만수동,,만수로,122,1-171,2021-12-23 15:49:18,"빌딩,건물||주택||연립,빌라||빌라",False
1278,1279,5777808,온누리힐하우스,,Onnuri Hill House,Residence,House,126.65739746026588,37.46470885199788,대한민국,KOR,KOR,인천광역시,미추홀구,,숭의동,,경인로142번길,34-11,48-18,2022-05-01 12:37:48,"빌딩,건물||주택||연립,빌라||빌라",False
1286,1287,812154,서창자이아파트,자이아파트,Seochangjai Apartment,Residence,House,126.75073289945492,37.43761150052276,대한민국,KOR,KOR,인천광역시,남동구,,서창동,,장아산로,157,561-1,2022-05-01 12:37:48,"빌딩,건물||주택||아파트||아파트명||500세대이상",False
1287,1288,20201185,신일빌라,,Shinil Villa,Residence,House,126.727941354432,37.496832002043206,대한민국,KOR,KOR,인천광역시,부평구,,부평동,,시장로71번길,15,240-40,2021-12-23 15:49:18,"빌딩,건물||주택||연립,빌라||빌라",False
1296,1297,5768654,대영빌라,,Daeyoung Villa,Residence,House,126.72708231355588,37.461255616289584,대한민국,KOR,KOR,인천광역시,남동구,,만수동,,서판로68번길,55-7,111-228,2022-05-01 12:37:48,"빌딩,건물||주택||연립,빌라||빌라",False
1300,1301,5688321,삼성빌라,,Samsung Villa,Residence,House,126.6859813636599,37.44751459563216,대한민국,KOR,KOR,인천광역시,미추홀구,,주안동,,인하로340번길,10,1498-29,2021-12-23 15:49:18,"빌딩,건물||주택||연립,빌라||빌라",False
1308,1309,175441,한국아파트,한국,Korean apartment,Residence,House,126.67833449995187,37.513840100830585,대한민국,KOR,KOR,인천광역시,서구,,가정동,,서달로163번길,6,569,2022-05-01 12:37:48,"빌딩,건물||주택||아파트||아파트명||500세대이상",False
1316,1317,6226786,인하우스,,in house,Residence,House,126.66493336207594,37.45016273676829,대한민국,KOR,KOR,인천광역시,미추홀구,,용현동,,인하로91번길,132,29-20,2021-12-23 15:49:18,"빌딩,건물||주택||연립,빌라||빌라",False
1319,1320,1261590,성원빌라,,Seongwon Villa,Residence,House,126.72660824315092,37.46382601625348,대한민국,KOR,KOR,인천광역시,남동구,,만수동,,서판로,62-1,842-2,2019-11-14 23:23:57,"빌딩,건물||주택||연립,빌라||빌라",False
1325,1326,98593,성지빌라,,Holy Land Villa,Residence,House,126.73980219505692,37.48697893029107,대한민국,KOR,KOR,인천광역시,부평구,,부개동,,수변로,4-5,304-11,2019-11-14 23:20:09,"빌딩,건물||주택||연립,빌라||빌라",False
1335,1336,5674609,해담캐슬,,Hadam Castle,Residence,House,126.68124170926588,37.49711128550468,대한민국,KOR,KOR,인천광역시,서구,,가좌동,,건지로366번길,10,99-3,2020-01-14 23:23:42,"빌딩,건물||주택||연립,빌라||빌라",False
1340,1341,292955,대영빌라,,Daeyoung Villa,Residence,House,126.6696345242959,37.49774954458979,대한민국,KOR,KOR,인천광역시,서구,,가좌동,,건지로250번길,16,119-11,2020-01-14 23:38:45,"빌딩,건물||주택||연립,빌라||빌라",False
1346,1347,1168800,금화빌라,,Geumhwa Villa,Residence,House,126.6645782062459,37.5130616822494,대한민국,KOR,KOR,인천광역시,서구,,석남동,,새오개로,27-13,199-64,2021-12-23 15:49:18,"빌딩,건물||주택||연립,빌라||빌라",False
1348,1349,5780554,정호빌라,,JeonghoVilla,Residence,House,126.69226661140792,37.46027847770707,대한민국,KOR,KOR,인천광역시,미추홀구,,주안동,,경원대로852번길,57-22,923-2,2022-05-01 12:37:48,"빌딩,건물||주택||연립,빌라||빌라",False
1352,1353,4360307,뜰안에하우스,,house in the garden,Residence,House,126.76161023306992,37.42712136520517,대한민국,KOR,KOR,인천광역시,남동구,,서창동,,서창방산로168번길,21,738-2,2019-12-09 10:50:24,"빌딩,건물||주택||연립,빌라||빌라",False
1354,1355,26960763,조은빌라,,Joeun Villa,Residence,House,126.67457543828692,37.4638904379547,대한민국,KOR,KOR,인천광역시,미추홀구,,주안동,,주안로46번길,6,285-34,2022-05-01 12:37:48,"빌딩,건물||주택||연립,빌라||빌라",False
1357,1358,2155605,대동주택,,Daedong Housing,Residence,House,126.72652854936288,37.5024392404792,대한민국,KOR,KOR,인천광역시,부평구,,부평동,,주부토로86번길,18,13-77,2021-12-23 15:49:18,"빌딩,건물||주택||연립,빌라||빌라",False
1358,1359,5768644,대성빌라,,Daesung Villa,Residence,House,126.6638087352959,37.42501557217916,대한민국,KOR,KOR,인천광역시,연수구,,청학동,,솔샘로,85-4,566-5,2022-05-01 12:37:48,"빌딩,건물||주택||연립,빌라||빌라",False
1364,1365,1260678,삼화빌라,,Samhwa Villa,Residence,House,126.66816474629888,37.47244679604588,대한민국,KOR,KOR,인천광역시,미추홀구,,도화동,,장고개로50번길,3,705,2022-05-01 12:37:48,"빌딩,건물||주택||연립,빌라||빌라",False
1365,1366,1265701,새약산빌라,,Sae Yaksan Villa,Residence,House,126.71124072354289,37.47046570694517,대한민국,KOR,KOR,인천광역시,남동구,,간석동,,풀무로26번길,13-7,65-2,2022-05-01 12:37:48,"빌딩,건물||주택||연립,빌라||빌라",False
1378,1379,2150948,옥진그린빌,,Okjin Greenville,Residence,House,126.67497312722588,37.46118932467776,대한민국,KOR,KOR,인천광역시,미추홀구,,도화동,,주안로50번길,65,372-20,2021-12-23 15:49:18,"빌딩,건물||주택||연립,빌라||빌라",False
1381,1382,2147437,영원빌라,영원,Youngone Villa,Residence,House,126.71075543701188,37.46273195560728,대한민국,KOR,KOR,인천광역시,남동구,,간석동,,석산로169번길,48,163-5,2021-12-23 15:49:18,"빌딩,건물||주택||연립,빌라||빌라",False
1382,1383,2150945,문화빌라,,Culture Villa,Residence,House,126.67321730207888,37.46258049546476,대한민국,KOR,KOR,인천광역시,미추홀구,,도화동,,석바위로1번길,28-13,401-3,2021-12-23 15:49:18,"빌딩,건물||주택||연립,빌라||빌라",False
1390,1391,4338337,그린타운,,green town,Residence,House,126.68404965673088,37.424777919710955,대한민국,KOR,KOR,인천광역시,연수구,,연수동,,함박로88번길,35,510-3,2021-12-23 15:49:18,"빌딩,건물||주택||연립,빌라||빌라",False
1391,1392,6207240,한빛빌라,,Hanbit Villa,Residence,House,126.7044445915739,37.46686851302149,대한민국,KOR,KOR,인천광역시,남동구,,간석동,,경인로599번길,44,244-11,2019-11-14 23:30:27,"빌딩,건물||주택||연립,빌라||빌라",False
1392,1393,2607768,힐하우스,,Hill House,Residence,House,126.51432102974972,37.51067420504525,대한민국,KOR,KOR,인천광역시,중구,,운북동,,백운로419번길,14,706-2,2020-01-14 23:43:20,"빌딩,건물||주택||연립,빌라||빌라",False
1397,1398,20200602,한우리타운,,Hanwoori Town,Residence,House,126.68080004860887,37.44405314219407,대한민국,KOR,KOR,인천광역시,미추홀구,,주안동,,승학길104번길,16,1287,2022-05-01 12:37:48,"빌딩,건물||주택||연립,빌라||빌라",False
1401,1402,1261489,동서아트빌,,Dongseo Artville,Residence,House,126.70945611780292,37.4805826360784,대한민국,KOR,KOR,인천광역시,부평구,,십정동,,마장로25번길,9,573-30,2021-12-23 15:49:18,"빌딩,건물||주택||연립,빌라||빌라",False
1403,1404,4352606,럭키빌라,,Lucky Villa,Residence,House,126.6804613703679,37.43945186825494,대한민국,KOR,KOR,인천광역시,미추홀구,,문학동,,매소홀로535번길,19-1,337-19,2021-12-23 15:49:18,"빌딩,건물||주택||연립,빌라||빌라",False
1406,1407,1269792,부흥아파트,,revival apartment,Residence,House,126.72431978828692,37.50181872774739,대한민국,KOR,KOR,인천광역시,부평구,,부평동,,주부토로75번길,17,433-166,2019-11-14 23:24:32,"빌딩,건물||주택||연립,빌라||빌라",False
1407,1408,714872,남부타운,남부타운빌라,Southern Town,Residence,House,126.71927249032991,37.48668716814238,대한민국,KOR,KOR,인천광역시,부평구,,부평동,,부영로4번길,27,760-68,2022-05-01 12:37:48,"빌딩,건물||주택||연립,빌라||빌라",False
1414,1415,655059,공명빌리지,,GongmyeongVillage,Residence,House,126.73838812922995,37.453982506819685,대한민국,KOR,KOR,인천광역시,남동구,,만수동,,인수북로,8,63-3,2021-12-23 15:49:18,"빌딩,건물||주택||연립,빌라||빌라",False
1417,1418,2597952,빌리지M,빌리지엠,Village M,Residence,House,126.7325684256819,37.50081281490889,대한민국,KOR,KOR,인천광역시,부평구,,부평동,,부흥북로,96,119-5,2021-12-23 15:49:18,"빌딩,건물||주택||연립,빌라||빌라",False
1421,1422,5694556,장원빌라8차,8차장원빌라,Jangwon Villa 8th,Residence,House,126.71893792920488,37.48483238775639,대한민국,KOR,KOR,인천광역시,부평구,,부평동,,경인로884번길,17-1,756-165,2022-05-01 12:37:48,"빌딩,건물||주택||연립,빌라||빌라",False
1427,1428,2622112,조은주택,,Jo Eun House,Residence,House,126.66650236183288,37.45155584445336,대한민국,KOR,KOR,인천광역시,미추홀구,,용현동,,인하로163번길,53,5-13,2021-12-23 15:49:18,"빌딩,건물||주택||연립,빌라||빌라",False
1429,1430,5684897,영타운,,Young Town,Residence,House,126.65348869999994,37.438079999999786,대한민국,KOR,KOR,인천광역시,미추홀구,,학익동,,한나루로357번길,158,713-6,2021-12-23 15:49:18,"빌딩,건물||주택||연립,빌라||빌라",False
1433,1434,512566,용우빌라,,Yongwoo Villa,Residence,House,126.7043854935769,37.48140037765609,대한민국,KOR,KOR,인천광역시,부평구,,십정동,,이규보로,99,186-463,2021-12-23 15:49:18,"빌딩,건물||주택||연립,빌라||빌라",False
1435,1436,20201631,동아그린아파트,,Donga Green Apartment,Residence,House,126.72116972460596,37.4931931903966,대한민국,KOR,KOR,인천광역시,부평구,,부평동,,경원대로1367번길,42-6,546-117,2022-05-01 12:37:48,"빌딩,건물||주택||연립,빌라||빌라",False
1438,1439,5679411,삼두빌라,,Three Villas,Residence,House,126.71343020027992,37.45145279986277,대한민국,KOR,KOR,인천광역시,남동구,,구월동,,,,1216-15,2022-05-01 12:37:48,"빌딩,건물||주택||연립,빌라||빌라",False
1446,1447,2155443,오성빌라,,Ohseong Villa,Residence,House,126.66187089922887,37.43055225096106,대한민국,KOR,KOR,인천광역시,연수구,,청학동,,청학안로24번길,7-1,517-1,2021-12-23 15:49:18,"빌딩,건물||주택||연립,빌라||빌라",False
1447,1448,1262532,현대빌라,,Hyundai Villa,Residence,House,126.70218732649089,37.48875396826688,대한민국,KOR,KOR,인천광역시,부평구,,산곡동,,화랑로,55,370-280,2021-12-23 15:49:18,"빌딩,건물||주택||연립,빌라||빌라",False
1450,1451,5673848,행복하우스,,happy house,Residence,House,126.66547611196889,37.455380026780766,대한민국,KOR,KOR,인천광역시,미추홀구,,주안동,,경인남길,228,650-1,2019-12-09 10:50:24,"빌딩,건물||주택||연립,빌라||빌라",False
1451,1452,2155115,프라자빌리지,,Plaza Village,Residence,House,126.68043137385187,37.45289623324698,대한민국,KOR,KOR,인천광역시,미추홀구,,주안동,,미추홀대로614번길,13-39,1471-2,2021-12-23 15:49:18,"빌딩,건물||주택||연립,빌라||빌라",False
1452,1453,1872796,희망빌라,,Hope Villa,Residence,House,126.68305936345688,37.45363085830168,대한민국,KOR,KOR,인천광역시,미추홀구,,주안동,,미추홀대로632번길,54,1475-32,2021-12-23 15:49:18,"빌딩,건물||주택||연립,빌라||빌라",False
1454,1455,416874,선경주택,,Sunkyung House,Residence,House,126.64852358698684,37.477532280574174,대한민국,KOR,KOR,인천광역시,동구,,송림동,,육송로10번길,4,42-330,2021-12-23 15:49:18,"빌딩,건물||주택||연립,빌라||연립주택",False
1458,1459,3135728,신세계빌라,,Shinsegae Villa,Residence,House,126.68542598655588,37.43806787612687,대한민국,KOR,KOR,인천광역시,미추홀구,,문학동,,매소홀로562번길,5-40,384-9,2021-12-23 15:49:18,"빌딩,건물||주택||연립,빌라||빌라",False
1459,1460,6221069,사해빌라,,Dead Sea Villa,Residence,House,126.67944277255596,37.58901941162145,대한민국,KOR,KOR,인천광역시,서구,,당하동,,청마로134번길,18-5,1110-17,2019-08-13 2:30:40,"빌딩,건물||주택||연립,빌라||빌라",False
1466,1467,1259834,태진주택,,Taejin House,Residence,House,126.69668583768988,37.456944245226175,대한민국,KOR,KOR,인천광역시,남동구,,간석동,,구월로56번길,3,901-58,2019-11-14 0:00:00,"빌딩,건물||주택||연립,빌라||연립주택",False
1472,1473,5654141,현대파크빌라,,Hyundai Park Villa,Residence,House,126.67163568334789,37.45389952506586,대한민국,KOR,KOR,인천광역시,미추홀구,,주안동,,남주길,42,704-14,2021-12-23 15:49:18,"빌딩,건물||주택||연립,빌라||빌라",False
1475,1476,338287,현대빌라,,Hyundai Villa,Residence,House,126.71028059999996,37.486025499999805,대한민국,KOR,KOR,인천광역시,부평구,,십정동,,신촌로,25-15,177-22,2018-10-05 10:30:30,"빌딩,건물||주택||연립,빌라||빌라",False
1478,1479,5691182,건용빌라,,Gunyong Villa,Residence,House,126.66332299904792,37.44883532571695,대한민국,KOR,KOR,인천광역시,미추홀구,,용현동,,한나루로463번길,78,49-26,2021-12-23 15:49:18,"빌딩,건물||주택||연립,빌라||빌라",False
1480,1481,1164434,협신빌라,,Hyeopsin Villa,Residence,House,126.71742365280691,37.43164828832416,대한민국,KOR,KOR,인천광역시,남동구,,남촌동,,남촌동로,11,325-8,2019-11-14 23:06:52,"빌딩,건물||주택||연립,빌라||빌라",False
1483,1484,3143179,형제주택,,brother house,Residence,House,126.68394737021988,37.43624528517447,대한민국,KOR,KOR,인천광역시,미추홀구,,문학동,,소성로332번길,30,373-4,2021-12-23 15:49:18,"빌딩,건물||주택||연립,빌라||빌라",False
1486,1487,5657258,서림빌라,,Seorim Villa,Residence,House,126.71778554563188,37.45122688118538,대한민국,KOR,KOR,인천광역시,남동구,,구월동,,호구포로765번길,14-9,1238-19,2021-12-23 15:49:18,"빌딩,건물||주택||연립,빌라||빌라",False
1491,1492,5769643,동부빌라,,Dongbu Villa,Residence,House,126.72705574616892,37.46343878655828,대한민국,KOR,KOR,인천광역시,남동구,,만수동,,서판로68번길,8,111-144,2022-05-01 12:37:48,"빌딩,건물||주택||연립,빌라||빌라",False
1498,1499,735567,석진빌라,,Seokjin Villa,Residence,House,126.70198292925488,37.48886747685368,대한민국,KOR,KOR,인천광역시,부평구,,산곡동,,화랑로,59,370-100,2021-12-23 15:49:18,"빌딩,건물||주택||연립,빌라||빌라",False
1503,1504,1871873,드림스타빌,,Dream Starville,Residence,House,126.75347970807196,37.56244250628894,대한민국,KOR,KOR,인천광역시,계양구,,동양동,,양지말1길,16-5,602-1,2021-12-23 15:49:18,"빌딩,건물||주택||연립,빌라||빌라",False
1504,1505,110839,광명맨션B,광명맨션비,Gwangmyeong Mansion B,Residence,House,126.67625433985889,37.45721990483347,대한민국,KOR,KOR,인천광역시,미추홀구,,주안동,,미추홀대로669번길,65,551-1,2019-11-14 23:19:12,"빌딩,건물||주택||연립,빌라||빌라",False
1506,1507,786854,태창빌라,,Taechang Villa,Residence,House,126.69391399999992,37.45620669999981,대한민국,KOR,KOR,인천광역시,미추홀구,,주안동,,문화로169번길,117-1,1580-63,2018-08-11 9:09:09,"빌딩,건물||주택||연립,빌라||빌라",False
1519,1520,2155633,유심주택,,sim house,Residence,House,126.72660449999997,37.502656299999806,대한민국,KOR,KOR,인천광역시,부평구,,부평동,,주부토로86번길,17,13-43,2021-12-23 15:49:18,"빌딩,건물||주택||연립,빌라||빌라",False
1525,1526,5678567,단아하우스,,Danah House,Residence,House,126.68640979999996,37.55245709999983,대한민국,KOR,KOR,인천광역시,서구,,공촌동,,경명대로707번길,13,305-3,2018-08-16 9:30:30,"빌딩,건물||주택||연립,빌라||빌라",False
1530,1531,2155440,대동주택,,Daedong Housing,Residence,House,126.66908533251092,37.42683630429167,대한민국,KOR,KOR,인천광역시,연수구,,청학동,,계림로112번길,20,551-16,2021-12-23 15:49:18,"빌딩,건물||주택||연립,빌라||연립주택",False
1538,1539,505513,성산빌라,,Seongsan Villa,Residence,House,126.72552438223192,37.462140062489595,대한민국,KOR,KOR,인천광역시,남동구,,만수동,,서판로54번길,39,855-23,2021-12-23 15:49:18,"빌딩,건물||주택||연립,빌라||빌라",False
1540,1541,834536,씨티하우스,,City House,Residence,House,126.71971945404688,37.53941218055791,대한민국,KOR,KOR,인천광역시,계양구,,계산동,,향교로11번길,5-1,983-5,2021-12-23 15:49:18,"빌딩,건물||주택||연립,빌라||빌라",False
1546,1547,619211,창진하이츠빌라,창진빌라,ChangjinHeights Villa,Residence,House,126.71822494719288,37.45943391837428,대한민국,KOR,KOR,인천광역시,남동구,,구월동,,당좌로,36-1,1247-24,2021-12-23 15:49:18,"빌딩,건물||주택||연립,빌라||빌라",False
1551,1552,5692891,동그란산빌라,,Round Mountain Villa,Residence,House,126.5083704734117,37.486099736488256,대한민국,KOR,KOR,인천광역시,중구,,운서동,,운서2로,17,2887-4,2020-01-14 23:24:59,"빌딩,건물||주택||연립,빌라||빌라",False
1555,1556,6216244,하랑하우스,,Harang House,Residence,House,126.50735058455172,37.48323191301214,대한민국,KOR,KOR,인천광역시,중구,,운서동,,운서1로,8,2930-7,2020-01-14 23:36:38,"빌딩,건물||주택||연립,빌라||빌라",False
1557,1558,6218786,아내트아파트,,wife apartment,Residence,House,126.67103534919788,37.507897232682296,대한민국,KOR,KOR,인천광역시,서구,,석남동,,염곡로260번길,23,516-5,2022-05-18 1:19:31,"빌딩,건물||주택||아파트||아파트명||아파트명-일반",False
1563,1564,677524,강남빌라,,Gangnam Villa,Residence,House,126.70835899952888,37.52901109975621,대한민국,KOR,KOR,인천광역시,계양구,,효성동,,,,163-9,2022-05-01 12:37:48,"빌딩,건물||주택||연립,빌라||빌라",False
1565,1566,1261765,은하빌라,,Eunha Villa,Residence,House,126.6756934616929,37.54836330298212,대한민국,KOR,KOR,인천광역시,서구,,연희동,,연희로13번길,9,688-8,2021-12-23 15:49:18,"빌딩,건물||주택||연립,빌라||빌라",False
1568,1569,3137951,한성빌라,,Hanseong Villa,Residence,House,126.73946679165795,37.54713318285231,대한민국,KOR,KOR,인천광역시,계양구,,임학동,,계양산로216번길,4,5-55,2021-12-23 15:49:18,"빌딩,건물||주택||연립,빌라||빌라",False
1569,1570,43989,대경빌라,,Daegyeong Villa,Residence,House,126.7334836974749,37.54707099007761,대한민국,KOR,KOR,인천광역시,계양구,,임학동,,임학서로46번길,13,34-8,2019-11-14 23:19:39,"빌딩,건물||주택||연립,빌라||빌라",False
1571,1572,1262634,금호주택,,Kumho House,Residence,House,126.7123666012059,37.48630060176789,대한민국,KOR,KOR,인천광역시,부평구,,부평동,,동수북로48번길,10,767-122,2021-12-23 15:49:18,"빌딩,건물||주택||연립,빌라||연립주택",False
1572,1573,1268001,삼화맨션,,Samhwa Mansion,Residence,House,126.72936715449993,37.519464602716496,대한민국,KOR,KOR,인천광역시,부평구,,갈산동,,주부토로280번길,22,26-2,2019-11-14 23:19:39,"빌딩,건물||주택||연립,빌라||연립주택",False
1573,1574,895323,한우주택,,Hanwoo Housing,Residence,House,126.73955122501395,37.48805795718549,대한민국,KOR,KOR,인천광역시,부평구,,부개동,,수변로,17,289-10,2021-12-23 15:49:18,"빌딩,건물||주택||연립,빌라||연립주택",False
1588,1589,520321,휴먼아트빌,,Human Artville,Residence,House,126.67817426481088,37.54933417917122,대한민국,KOR,KOR,인천광역시,서구,,연희동,,간촌로,11-3,708-4,2021-12-23 15:49:18,"빌딩,건물||주택||연립,빌라||빌라",False
1592,1593,925719,정원주택,,Garden House,Residence,House,126.47862499999984,37.74601799999991,대한민국,KOR,KOR,인천광역시,강화군,,강화읍,신문리,향나무길28번길,12,661,2021-12-23 15:49:18,"빌딩,건물||주택||연립,빌라||연립주택",False
1595,1596,2150345,인성아트빌,,Inseong Artville,Residence,House,126.62054622723689,37.47405993343107,대한민국,KOR,KOR,인천광역시,중구,,관동1가,,제물량로232번길,20-12,20,2020-01-14 23:40:45,"빌딩,건물||주택||연립,빌라||빌라",False
1597,1598,3139779,동은주택,,Dongeun House,Residence,House,126.6820154246419,37.43801189276036,대한민국,KOR,KOR,인천광역시,미추홀구,,문학동,,문학길,9-30,367-8,2021-12-23 15:49:18,"빌딩,건물||주택||연립,빌라||연립주택",False
1598,1599,5769659,럭키빌라,,Lucky Villa,Residence,House,126.73146263887593,37.4884900213412,대한민국,KOR,KOR,인천광역시,부평구,,부평동,,장제로38번길,30-9,616-7,2022-05-01 12:37:48,"빌딩,건물||주택||연립,빌라||빌라",False
1601,1602,5679374,현대타운,,Hyundai Town,Residence,House,126.73415224362992,37.49516753323578,대한민국,KOR,KOR,인천광역시,부평구,,부개동,,충선로65번길,24,102-2,2019-11-14 23:05:38,"빌딩,건물||주택||연립,빌라||빌라",False
1602,1603,1162704,신비주택,,Mystery House,Residence,House,126.69597459999996,37.4562869999998,대한민국,KOR,KOR,인천광역시,남동구,,간석동,,구월로52번길,20,508-41,2018-10-05 10:30:30,"빌딩,건물||주택||연립,빌라||연립주택",False
1614,1615,424808,태화빌라,,Taehwa Villa,Residence,House,126.66257307627488,37.42985162068486,대한민국,KOR,KOR,인천광역시,연수구,,청학동,,청학로27번길,16,520-5,2021-12-23 15:49:18,"빌딩,건물||주택||연립,빌라||빌라",False
1620,1621,881109,유일아파트,,Yooil Apartment,Residence,House,126.72818520006292,37.488232300875886,대한민국,KOR,KOR,인천광역시,부평구,,부평동,,장제로27번길,18,609-7,2022-05-01 12:37:48,"빌딩,건물||주택||아파트||아파트명||100세대미만",False
1624,1625,3139969,대영타운,,Daeyoung Town,Residence,House,126.68156646105793,37.5669373114073,대한민국,KOR,KOR,인천광역시,서구,,검암동,,검암로30번길,9,505-8,2020-01-14 23:40:18,"빌딩,건물||주택||연립,빌라||빌라",False
1625,1626,5667783,헤렌파크빌,,Heren Park Ville,Residence,House,126.73230772618592,37.5048488566864,대한민국,KOR,KOR,인천광역시,부평구,,부평동,,길주남로89번길,12-9,10-764,2019-12-09 10:50:24,"빌딩,건물||주택||연립,빌라||빌라",False
1626,1627,883357,세령파크빌,,Seryeong Parkville,Residence,House,126.66961313591788,37.462037769970074,대한민국,KOR,KOR,인천광역시,미추홀구,,도화동,,경인북길471번길,36,533-11,2021-12-23 15:49:18,"빌딩,건물||주택||연립,빌라||빌라",False
1629,1630,753921,현대아트빌,,Hyundai Artville,Residence,House,126.69365452892892,37.470865649836696,대한민국,KOR,KOR,인천광역시,부평구,,십정동,,백범로529번길,9-8,360-1,2021-12-23 15:49:18,"빌딩,건물||주택||연립,빌라||빌라",False
1631,1632,2598963,영빈빌라,,Youngbin Villa,Residence,House,126.63364647841186,37.468891230253966,대한민국,KOR,KOR,인천광역시,중구,,율목동,,율목로,18-2,249-38,2021-12-23 15:49:18,"빌딩,건물||주택||연립,빌라||빌라",False
1632,1633,2620229,뉴보래타운,,New Borae Town,Residence,House,126.52940702598572,37.50786228062725,대한민국,KOR,KOR,인천광역시,중구,,운북동,,백운로228번길,42,68-9,2021-12-23 15:49:18,"빌딩,건물||주택||연립,빌라||빌라",False
1633,1634,734822,반디빌라,,BandiVilla,Residence,House,126.66230978107188,37.42952775872246,대한민국,KOR,KOR,인천광역시,연수구,,청학동,,청학로27번길,19,521-1,2021-12-23 15:49:18,"빌딩,건물||주택||연립,빌라||빌라",False
1646,1647,4346985,우본주택C,,Ubon House C,Residence,House,126.69554915604888,37.42386884501736,대한민국,KOR,KOR,인천광역시,연수구,,선학동,,비류대로541번길,14-14,366-4,2021-12-23 15:49:18,"빌딩,건물||주택||연립,빌라||빌라",False
1651,1652,2151600,천호맨션,,Cheonho Mansion,Residence,House,126.6932856144639,37.46034394613269,대한민국,KOR,KOR,인천광역시,미추홀구,,주안동,,경원대로852번길,75-1,917-41,2021-12-23 15:49:18,"빌딩,건물||주택||연립,빌라||빌라",False
1655,1656,6071808,수정빌라,,Sujeong Villa,Residence,House,126.66887083050692,37.50070015189959,대한민국,KOR,KOR,인천광역시,서구,,석남동,,석남로,68-6,590-8,2021-12-23 15:49:18,"빌딩,건물||주택||연립,빌라||빌라",False
1656,1657,20200954,해드림,,let's do it,Residence,House,126.71988508307992,37.48747939844248,대한민국,KOR,KOR,인천광역시,부평구,,부평동,,경인로901번길,26,752-31,2022-05-01 12:37:48,"빌딩,건물||주택||연립,빌라||빌라",False
1660,1661,2152858,선일빌라,선일,Sunil Villa,Residence,House,126.73644719973194,37.5290481996597,대한민국,KOR,KOR,인천광역시,계양구,,작전동,,,,589-1,2022-05-01 12:37:48,"빌딩,건물||주택||연립,빌라||빌라",False
1661,1662,2151427,미성빌라,미성,Miseong Villa,Residence,House,126.66728337248288,37.45420514523588,대한민국,KOR,KOR,인천광역시,미추홀구,,주안동,,인주대로251번길,76-35,688-12,2021-12-23 15:49:18,"빌딩,건물||주택||연립,빌라||빌라",False
1662,1663,5780151,지선주택,,branch house,Residence,House,126.73698723172994,37.492998659021886,대한민국,KOR,KOR,인천광역시,부평구,,부개동,,동수천로,86-6,124-48,2022-05-01 12:37:48,"빌딩,건물||주택||연립,빌라||연립주택",False
1669,1670,26864888,신비주택,,Mystery House,Residence,House,126.70378458172496,37.46222397179949,대한민국,KOR,KOR,인천광역시,남동구,,간석동,,남동대로897번길,75,444-5,2022-05-01 12:37:48,"빌딩,건물||주택||연립,빌라||빌라",False
1670,1671,26875201,신비주택,,Mystery House,Residence,House,126.68020965087204,37.41956205385819,대한민국,KOR,KOR,인천광역시,연수구,,연수동,,먼우금로252번길,7-13,575-3,2022-05-01 12:37:48,"빌딩,건물||주택||연립,빌라||연립주택",False
1673,1674,26969145,라온주택,,Raon House,Residence,House,126.65797120535784,37.476480424480656,대한민국,KOR,KOR,인천광역시,미추홀구,,도화동,,연송로,93,866,2022-05-01 12:37:48,"빌딩,건물||주택||연립,빌라||빌라",False
1679,1680,27036463,채블리하우스,,Chable House,Residence,House,126.68238846040094,37.43534438766908,대한민국,KOR,KOR,인천광역시,미추홀구,,문학동,,문학길70번길,17-9,115,2022-05-01 12:37:48,"빌딩,건물||주택||연립,빌라||빌라",False
1851,1852,27455722,아이원캐슬,,I One Castle,Residence,House,126.73317625330296,37.49727359810091,대한민국,KOR,KOR,인천광역시,부평구,,부평동,,부흥로376번길,10-17,156-3,2022-08-18 12:00:50,"빌딩,건물||주택||연립,빌라||빌라",False
1867,1868,485371,남송빌라, ,NamsongVilla,Residence,House,126.49222739999986,37.63627289999986,대한민국,KOR,KOR,인천광역시,강화군,,길상면,온수리,삼랑성길,37,619-4,2021-12-23 15:49:18,"빌딩,건물||주택||연립,빌라||빌라",False
1871,1872,1872598,미건빌라,,Megan Villa,Residence,House,126.7173191498239,37.44872568391639,대한민국,KOR,KOR,인천광역시,남동구,,구월동,,인주대로722번길,5-4,1231,2021-12-23 15:49:18,"빌딩,건물||주택||연립,빌라||빌라",False
1882,1883,388964,한별프라이빌아파트,프라이빌아파트,Hanbyeol Private Apartment,Residence,House,126.63464209979684,37.46350160219096,대한민국,KOR,KOR,인천광역시,중구,,신흥동3가,,인중로63번길,28,7-9,2022-05-01 12:37:48,"빌딩,건물||주택||아파트||아파트명||100세대이상",False
1898,1899,868372,순환맨션,,circulation mansion,Residence,House,126.65594226877288,37.456808225387775,대한민국,KOR,KOR,인천광역시,미추홀구,,용현동,,수봉남로,9,454-33,2021-12-23 15:49:18,"빌딩,건물||주택||연립,빌라||빌라",False
1906,1907,530599,인성아파트,,Inseong Apartment,Residence,House,126.6752854867897,37.507601093962535,대한민국,KOR,KOR,인천광역시,서구,,석남동,,옻우물로14번길,19,500-25,2022-05-01 12:37:48,"빌딩,건물||주택||아파트||아파트명||100세대미만",False
1916,1917,4765890,해피드림,,Happy Dream,Residence,House,126.72353039894791,37.4828190027588,대한민국,KOR,KOR,인천광역시,부평구,,부평동,,동수로52번길,15-41,665-566,2022-05-01 12:37:48,"빌딩,건물||주택||오피스텔||오피스텔-일반||100세대미만",False
1938,1939,4337786,예드림,,Yerim,Residence,House,126.67563102081589,37.56326879025792,대한민국,KOR,KOR,인천광역시,서구,,검암동,,승학로506번길,23,620-11,2022-08-18 12:00:50,"빌딩,건물||주택||연립,빌라||빌라",False
1940,1941,2156471,제일빌라,제일,Cheil Villa,Residence,House,126.66817932725688,37.514301858925776,대한민국,KOR,KOR,인천광역시,서구,,신현동,,염곡로,333-5,143-26,2021-12-23 15:49:18,"빌딩,건물||주택||연립,빌라||빌라",False
1947,1948,5659162,행복주택,,happy house,Residence,House,126.71288170130988,37.43216523862788,대한민국,KOR,KOR,인천광역시,남동구,,남촌동,,남촌로124번길,30,346-3,2019-12-09 10:51:37,"빌딩,건물||주택||연립,빌라||연립주택",False
1958,1959,2596449,에덴빌라,,Eden Villa,Residence,House,126.72434506455095,37.40670263286695,대한민국,KOR,KOR,인천광역시,남동구,,논현동,,은봉로315번길,13-2,593-15,2019-12-09 10:51:37,"빌딩,건물||주택||연립,빌라||빌라",False
1963,1964,2153195,상록수빌라,상록수,Evergreen Villa,Residence,House,126.65120637854884,37.467550370352576,대한민국,KOR,KOR,인천광역시,미추홀구,,숭의동,,석정로140번길,24,90-1,2021-12-23 15:49:18,"빌딩,건물||주택||연립,빌라||빌라",False
1964,1965,2154595,대인아트빌,,DaeinArtville,Residence,House,126.67487824530804,37.456149573606325,대한민국,KOR,KOR,인천광역시,미추홀구,,주안동,,한나루로564번길,74,555-4,2022-05-01 12:37:48,"빌딩,건물||주택||연립,빌라||빌라",False
1979,1980,187151,제일그린타운,,Jeil Green Town,Residence,House,126.72327210579692,37.515517768692206,대한민국,KOR,KOR,인천광역시,부평구,,갈산동,,부평대로278번길,34-3,178-27,2019-11-14 23:06:52,"빌딩,건물||주택||연립,빌라||빌라",False
1987,1988,2153787,영재빌라,영재,Youngjae Villa,Residence,House,126.63938928949484,37.46898271876618,대한민국,KOR,KOR,인천광역시,중구,,도원동,,도원로56번길,18,18-122,2021-12-23 15:49:18,"빌딩,건물||주택||연립,빌라||빌라",False
1993,1994,2152892,조흥빌라2차,,Choheung Villa 2nd,Residence,House,126.73602417115896,37.54785357746472,대한민국,KOR,KOR,인천광역시,계양구,,임학동,,병방시장로,40,252,2021-12-23 15:49:18,"빌딩,건물||주택||연립,빌라||빌라",False
2015,2016,4333715,삼성레미안,,Samsung Remian,Residence,House,126.74783005916092,37.5153435460908,대한민국,KOR,KOR,인천광역시,부평구,,삼산동,,체육관로174번길,43-5,530-4,2021-12-23 15:49:18,"빌딩,건물||주택||연립,빌라||빌라",False
2019,2020,5693065,한성하우스,,Hansung House,Residence,House,126.53199824645372,37.49252068761594,대한민국,KOR,KOR,인천광역시,중구,,운남동,,관창북로14번길,16,1528-3,2020-01-14 23:23:42,"빌딩,건물||주택||연립,빌라||빌라",False
2045,2046,870151,우일하이츠빌라,우일빌라,Wooil Heights Villa,Residence,House,126.71307068729293,37.452223671582175,대한민국,KOR,KOR,인천광역시,남동구,,구월동,,인주대로681번길,60,1215-30,2019-11-14 23:11:36,"빌딩,건물||주택||연립,빌라||빌라",False
2062,2063,1466433,청라호반베르디움14블럭아파트,14블럭청라호반베르디움아파트,Cheongna Lake Van Verdium 14 Block Apartment,Residence,House,126.65181560028988,37.53702300226321,대한민국,KOR,KOR,인천광역시,서구,,청라동,,청라라임로,109,116-6,2022-05-01 12:37:48,"빌딩,건물||주택||아파트||아파트명||500세대이상",False
2068,2069,418680,삼삼그린빌라,,SamsamGreen Villa,Residence,House,126.72731444537592,37.46140039964068,대한민국,KOR,KOR,인천광역시,남동구,,만수동,,백범로206번길,37,111-230,2021-12-23 15:49:18,"빌딩,건물||주택||연립,빌라||빌라",False
2070,2071,352181,한미네쌍스아파트,,Hanmi Nessence Apartment,Residence,House,126.72341483973192,37.50051895170988,대한민국,KOR,KOR,인천광역시,부평구,,부평동,,부흥북로16번길,22,438-2,2019-11-14 23:28:31,"빌딩,건물||주택||아파트||아파트명||아파트명-일반",False
2090,2091,1269791,부림빌라,,Burim Villa,Residence,House,126.7243212020549,37.505683978105296,대한민국,KOR,KOR,인천광역시,부평구,,부평동,,신트리로,28-1,887-4,2021-12-23 15:49:18,"빌딩,건물||주택||연립,빌라||빌라",False
2133,2134,4636495,명성빌리지,,Myeongseong Village,Residence,House,126.63564029659284,37.45042287249735,대한민국,KOR,KOR,인천광역시,미추홀구,,용현동,,낙섬서로18번길,30,627-249,2021-12-23 15:49:18,"빌딩,건물||주택||연립,빌라||빌라",False
2138,2139,367006,정광아트빌,,Jeonggwang Artville,Residence,House,126.68371241223691,37.46741028794058,대한민국,KOR,KOR,인천광역시,미추홀구,,주안동,,주염로28번길,33,18-50,2021-12-23 15:49:18,"빌딩,건물||주택||연립,빌라||빌라",False
2139,2140,1156476,범마을논현휴먼시아2단지아파트,2단지범마을논현휴먼시아아파트,Beommaeul Nonhyeon Humansia Apartment Complex 2,Residence,House,126.7089260002089,37.404585900498475,대한민국,KOR,KOR,인천광역시,남동구,,논현동,,은봉로166번길,27,643-1,2022-05-01 12:37:48,"빌딩,건물||주택||아파트||아파트명||1000세대이상",False
2148,2149,1262944,제왕맨션,제왕맨숀,King Mansion,Residence,House,126.70492460787992,37.46229980732177,대한민국,KOR,KOR,인천광역시,남동구,,간석동,,남동대로897번길,55,332-8,2021-12-23 15:49:18,"빌딩,건물||주택||연립,빌라||연립주택",False
2156,2157,2153378,싸이버썬오피스텔,사이버썬오피스텔,Cyber Sun Officetel,Residence,House,126.68041473218588,37.44063245148306,대한민국,KOR,KOR,인천광역시,미추홀구,,문학동,,승학길26번길,15,333-6,2019-11-14 23:28:00,"빌딩,건물||주택||오피스텔||오피스텔-일반||세대수미확인",False
2162,2163,5664892,해품달빌라,,Haepoom Moon Villa,Residence,House,126.65416840282388,37.536710990460094,대한민국,KOR,KOR,인천광역시,서구,,청라동,,청라라임로106번길,18,126-6,2021-12-23 15:49:18,"빌딩,건물||주택||연립,빌라||빌라",False
2166,2167,373327,무궁화빌라,,Mugunghwa Villa,Residence,House,126.71930964453192,37.48843202872539,대한민국,KOR,KOR,인천광역시,부평구,,부평동,,부영로28번길,31-12,751-136,2022-05-01 12:37:48,"빌딩,건물||주택||연립,빌라||빌라",False
2191,2192,4332081,삼보아트빌라,,Sambo Art Villa,Residence,House,126.63384423092484,37.47005282554108,대한민국,KOR,KOR,인천광역시,중구,,율목동,,율목로32번길,11,173,2021-12-23 15:49:18,"빌딩,건물||주택||연립,빌라||빌라",False
2213,2214,2149101,솔뫼드림파크,,Solmo Dream Park,Residence,House,126.68502777259188,37.5638715525993,대한민국,KOR,KOR,인천광역시,서구,,검암동,,검암로2번길,37-12,538-1,2020-01-14 23:40:10,"빌딩,건물||주택||연립,빌라||연립주택",False
2216,2217,270718,초록마을빌라,,Green Village Villa,Residence,House,126.74120753828296,37.44598756110788,대한민국,KOR,KOR,인천광역시,남동구,,만수동,,장승로,78,1097-2,2021-12-23 15:49:18,"빌딩,건물||주택||연립,빌라||빌라",False
2228,2229,2153175,한빛빌라,한빛,Hanbit Villa,Residence,House,126.65226903294588,37.46483030998566,대한민국,KOR,KOR,인천광역시,미추홀구,,숭의동,,독정이로100번길,34,72-11,2019-11-14 23:28:27,"빌딩,건물||주택||연립,빌라||빌라",False
2233,2234,4505420,문빌리지,MoonVillage,Moon Village,Residence,House,126.53224043138275,37.49305984273435,대한민국,KOR,KOR,인천광역시,중구,,운남동,,운남서로76번길,17,1512-7,2020-01-14 23:22:24,"빌딩,건물||주택||연립,빌라||빌라",False
2238,2239,1263935,성신2차아파트,2차성신아파트,Sungshin 2nd Apartment,Residence,House,126.73577499978094,37.46480130093926,대한민국,KOR,KOR,인천광역시,남동구,,만수동,,만수로75번길,57,5-6,2021-12-23 15:49:18,"빌딩,건물||주택||아파트||아파트명||아파트명-일반",False
2241,2242,1266856,석암아파트,,Seokam Apartment,Residence,House,126.72611629905391,37.50170959758999,대한민국,KOR,KOR,인천광역시,부평구,,부평동,,부흥북로35번길,8,375-115,2019-11-14 23:24:16,"빌딩,건물||주택||연립,빌라||연립주택",False
2246,2247,1253455,선경하이츠빌라,선경빌라,Sunkyung Heights Villa,Residence,House,126.63963491826784,37.46880190143009,대한민국,KOR,KOR,인천광역시,중구,,도원동,,참외전로244번길,18-9,18-115,2021-12-23 15:49:18,"빌딩,건물||주택||연립,빌라||빌라",False
2265,2266,861769,동방빌라트,,Oriental Villa,Residence,House,126.7027932220849,37.49494525528928,대한민국,KOR,KOR,인천광역시,부평구,,산곡동,,화랑로,138,361-2,2021-12-23 15:49:18,"빌딩,건물||주택||연립,빌라||빌라",False
2270,2271,5654314,뉴서울타운빌,,New Seoul Townville,Residence,House,126.6756277534249,37.446545014938074,대한민국,KOR,KOR,인천광역시,미추홀구,,주안동,,인하로248번길,37,1332-203,2021-12-23 15:49:18,"빌딩,건물||주택||연립,빌라||빌라",False
2274,2275,1264493,대풍아트맨션,대풍맨션,DaepungArt Mansion,Residence,House,126.70550840308988,37.46642145923377,대한민국,KOR,KOR,인천광역시,남동구,,간석동,,예술로362번길,46,245-6,2021-12-23 15:49:18,"빌딩,건물||주택||연립,빌라||연립주택",False
2279,2280,5684056,아람채빌라,,Aram Chae Villa,Residence,House,126.66774409999992,37.51317309999981,대한민국,KOR,KOR,인천광역시,서구,,석남동,,율도로50번길,5,168-15,2021-12-23 15:49:18,"빌딩,건물||주택||연립,빌라||빌라",False
2284,2285,2155232,소망맨션,,Hope Mansion,Residence,House,126.68789985077092,37.462149771433175,대한민국,KOR,KOR,인천광역시,미추홀구,,주안동,,경원대로887번길,30,980-8,2019-12-09 10:50:24,"빌딩,건물||주택||연립,빌라||빌라",False
2292,2293,467346,주원그린힐,,Joowon Green Hill,Residence,House,126.67546503568688,37.541704966634086,대한민국,KOR,KOR,인천광역시,서구,,심곡동,,승학로216번길,25-1,256-11,2021-12-23 15:49:18,"빌딩,건물||주택||연립,빌라||빌라",False
2308,2309,20482513,해드림2차,,Had Dream 2nd,Residence,House,126.71925566296196,37.4597288830175,대한민국,KOR,KOR,인천광역시,남동구,,구월동,,석산로248번길,24,1248-22,2022-05-01 12:37:48,"빌딩,건물||주택||연립,빌라||빌라",False
2337,2338,1871561,그린타운,,green town,Residence,House,126.68031634199488,37.56736832414702,대한민국,KOR,KOR,인천광역시,서구,,검암동,,검암로,35,500-10,2020-01-14 23:43:14,"빌딩,건물||주택||연립,빌라||빌라",False
2341,2342,2154894,동보아트빌라,동보아트,Dongbo Art Villa,Residence,House,126.67801642082188,37.44592377323388,대한민국,KOR,KOR,인천광역시,미추홀구,,주안동,,인하로266번길,49-5,1342-139,2021-12-23 15:49:18,"빌딩,건물||주택||연립,빌라||빌라",False
2368,2369,5724196,대한주택,,Korea House,Residence,House,126.7146248544429,37.45184075600308,대한민국,KOR,KOR,인천광역시,남동구,,구월동,,호구포로765번길,68-21,1225-13,2021-12-23 15:49:18,"빌딩,건물||주택||연립,빌라||연립주택",False
2391,2392,4448958,다인캐슬,,Dine Castle,Residence,House,126.64587693765884,37.46554746856297,대한민국,KOR,KOR,인천광역시,미추홀구,,숭의동,,미추로,62-1,128-16,2019-11-14 23:24:16,"빌딩,건물||주택||연립,빌라||빌라",False
2393,2394,1261054,롯데파크빌,,Lotte Park Ville,Residence,House,126.70406763907685,37.445880847126645,대한민국,KOR,KOR,인천광역시,남동구,,구월동,,인주대로604번길,49-50,1162-45,2021-12-23 15:49:18,"빌딩,건물||주택||연립,빌라||빌라",False
2404,2405,5662977,대우주택,,Daewoo Housing,Residence,House,126.71506415647188,37.46576301420387,대한민국,KOR,KOR,인천광역시,남동구,,간석동,,간석로66번길,11,48-2,2022-05-01 12:37:48,"빌딩,건물||주택||연립,빌라||연립주택",False
2405,2406,2418146,청림아파트,부평청림,Cheonglim Apartment,Residence,House,126.72262590003392,37.49987550108419,대한민국,KOR,KOR,인천광역시,부평구,,부평동,,부흥북로6번길,38,440-3,2019-10-22 23:01:57,"빌딩,건물||주택||아파트||아파트명||100세대미만",False
2421,2422,3138466,소망아트빌,,Somang Artville,Residence,House,126.6942277832139,37.481944990439686,대한민국,KOR,KOR,인천광역시,부평구,,십정동,,함봉로42번길,7-1,75-7,2019-11-14 23:24:14,"빌딩,건물||주택||연립,빌라||빌라",False
2427,2428,70495,한국아파트,한국공영,Korean apartment,Residence,House,126.6729113002399,37.44144870098278,대한민국,KOR,KOR,인천광역시,미추홀구,,학익동,,학익소로63번길,37,38,2022-05-01 12:37:48,"빌딩,건물||주택||아파트||아파트명||100세대이상",False
2451,2452,5667378,로미하우스빌,,Romi Houseville,Residence,House,126.66375385313287,37.60199840949244,대한민국,KOR,KOR,인천광역시,서구,,마전동,,검단로502번길,21-27,995-13,2021-12-23 15:49:18,"빌딩,건물||주택||연립,빌라||빌라",False
2453,2454,2153965,우리아트빌,,Woori Artville,Residence,House,126.64113293691888,37.46996720155198,대한민국,KOR,KOR,인천광역시,동구,,창영동,,우각로62번길,7,85,2021-12-23 15:49:18,"빌딩,건물||주택||연립,빌라||빌라",False
2460,2461,1262131,드림파크,,Dream Park,Residence,House,126.67577388078288,37.55825778757462,대한민국,KOR,KOR,인천광역시,서구,,검암동,,도요지로227번길,16,655-8,2021-12-23 15:49:18,"빌딩,건물||주택||연립,빌라||빌라",False
2462,2463,3136375,신거북빌라,,New Turtle Villa,Residence,House,126.67501877836592,37.45673134170978,대한민국,KOR,KOR,인천광역시,미추홀구,,주안동,,경인로326번길,42-24,552-9,2021-12-23 15:49:18,"빌딩,건물||주택||연립,빌라||빌라",False
2464,2465,3657248,구월아시아드선수촌8단지아파트,8단지구월아시아드선수촌아파트,Guwol Asiad Athletes' Village 8th Apartment Complex,Residence,House,126.7163650997039,37.440471000653176,대한민국,KOR,KOR,인천광역시,남동구,,구월동,,선수촌로,8,1554,2022-05-01 12:37:48,"빌딩,건물||주택||아파트||아파트명||500세대이상",False
2467,2468,2147919,허브아파트,,Herb Apartment,Residence,House,126.72903011727892,37.49545490785079,대한민국,KOR,KOR,인천광역시,부평구,,부평동,,장제로109번길,16,148-22,2021-12-23 15:49:18,"빌딩,건물||주택||아파트||아파트명||아파트명-일반",False
2472,2473,4335295,NS타운,엔에스타운,NS Town,Residence,House,126.66191279999993,37.43099779999977,대한민국,KOR,KOR,인천광역시,연수구,,청학동,,청솔안로53번길,16,516-1,2016-07-29 12:13:14,"빌딩,건물||주택||연립,빌라||빌라",False
2478,2479,5725025,다솜빌라,,Dasom Villa,Residence,House,126.6810098129399,37.418973461252335,대한민국,KOR,KOR,인천광역시,연수구,,연수동,,먼우금로252번길,29,574-7,2020-01-14 0:00:00,"빌딩,건물||주택||연립,빌라||빌라",False
2506,2507,1655398,현대렉스힐2차,2차현대렉스힐,Hyundai Rex Hill 2nd,Residence,House,126.75365199999996,37.563069599999835,대한민국,KOR,KOR,인천광역시,계양구,,동양동,,양지말3길,17,601-2,2018-10-05 10:30:30,"빌딩,건물||주택||연립,빌라||빌라",False
2518,2519,5779079,정진빌라,,Jeongjin Villa,Residence,House,126.70160614836288,37.46982157593039,대한민국,KOR,KOR,인천광역시,부평구,,십정동,,백범로456번길,20-25,408-51,2022-05-01 12:37:48,"빌딩,건물||주택||연립,빌라||빌라",False
2522,2523,389971,금강주택,,Geumgang House,Residence,House,126.67760595597991,37.46971997232807,대한민국,KOR,KOR,인천광역시,미추홀구,,주안동,,길파로41번길,39,10-97,2021-12-23 15:49:18,"빌딩,건물||주택||연립,빌라||연립주택",False
2543,2544,2151581,명경하이츠빌라,명경하이츠,Myunggyeong Heights Villa,Residence,House,126.68316014042692,37.44742634331277,대한민국,KOR,KOR,인천광역시,미추홀구,,주안동,,인하로318번길,12-6,1161-85,2021-12-23 15:49:18,"빌딩,건물||주택||연립,빌라||빌라",False
2544,2545,5654330,삼성빌라,,Samsung Villa,Residence,House,126.7061622991639,37.463797762914176,대한민국,KOR,KOR,인천광역시,남동구,,간석동,,경인로614번길,28,321-23,2021-12-23 15:49:18,"빌딩,건물||주택||연립,빌라||빌라",False
2553,2554,2150134,라이프빌라3차,3차라이프빌라,Life Villa 3,Residence,House,126.7199227631399,37.449920441224975,대한민국,KOR,KOR,인천광역시,남동구,,구월동,,구월말로3번길,82-10,1283-12,2019-11-14 23:27:34,"빌딩,건물||주택||연립,빌라||빌라",False
2561,2562,27294104,백향빌라,,Baekhyang Villa,Residence,House,126.67979405000035,37.43987515189632,대한민국,KOR,KOR,인천광역시,미추홀구,,문학동,,승학길,6-15,335-10,2022-08-12 13:15:03,"빌딩,건물||주택||연립,빌라||빌라",False
2562,2563,5672251,서광빌라,,Seogwang Villa,Residence,House,126.72144362395692,37.45035054282348,대한민국,KOR,KOR,인천광역시,남동구,,구월동,,호구포로764번길,46,1279-4,2021-12-23 15:49:18,"빌딩,건물||주택||연립,빌라||빌라",False
2567,2568,1262620,천일빌라,,Cheonil Villa,Residence,House,126.70993374205588,37.47524156814188,대한민국,KOR,KOR,인천광역시,남동구,,간석동,,평온로6번길,34,773-10,2022-05-01 12:37:48,"빌딩,건물||주택||연립,빌라||빌라",False
2580,2581,2154794,삼성아트빌A,삼성아트빌에이,Samsung Artville A,Residence,House,126.67130148783488,37.45124683159947,대한민국,KOR,KOR,인천광역시,미추홀구,,주안동,,한나루로502번길,68,723-3,2021-12-23 15:49:18,"빌딩,건물||주택||연립,빌라||빌라",False
2581,2582,5780565,진명빌라,,Jinmyung Villa,Residence,House,126.68832229752287,37.44588640680757,대한민국,KOR,KOR,인천광역시,미추홀구,,관교동,,주승로,153-60,451-31,2022-05-01 12:37:48,"빌딩,건물||주택||연립,빌라||빌라",False
2593,2594,5781869,한양빌라,,Hanyang Villa,Residence,House,126.7160197977449,37.53193253540409,대한민국,KOR,KOR,인천광역시,계양구,,효성동,,봉오대로601번길,11-3,11,2022-05-01 12:37:48,"빌딩,건물||주택||연립,빌라||빌라",False
2595,2596,1058157,삼천리3차아파트,3차삼천리아파트,Samchully 3rd Apartment,Residence,House,126.72946380038891,37.53564770087482,대한민국,KOR,KOR,인천광역시,계양구,,작전동,,주부토로,470,34-6,2022-05-01 12:37:48,"빌딩,건물||주택||아파트||아파트명||500세대이상",False
2600,2601,27036202,다송캐슬,,Dasong Castle,Residence,House,126.66537870622393,37.46382318850179,대한민국,KOR,KOR,인천광역시,미추홀구,,도화동,,경인로206번길,26,624-133,2022-05-01 12:37:48,"빌딩,건물||주택||연립,빌라||빌라",False
2614,2615,459337,서원아파트,서원,Seowon Apartment,Residence,House,126.67227889987493,37.442374501086384,대한민국,KOR,KOR,인천광역시,미추홀구,,학익동,,학익소로61번길,36-23,산36-10,2022-08-19 9:48:28,"빌딩,건물||주택||아파트||아파트명||100세대이상",False
2629,2630,1850347,공군아파트,,air force apartment,Residence,House,124.64001250020584,37.948076301840814,대한민국,KOR,KOR,인천광역시,옹진군,,백령면,연화리,백령로,1123,922,2019-11-07 23:00:35,"빌딩,건물||주택||아파트||아파트명||아파트명-일반",False
2636,2637,69234,냇마을신영지웰아파트,신영지웰아파트,Natmaeul Shinyoung Jiwell Apartment,Residence,House,126.72931750018992,37.403779000541846,대한민국,KOR,KOR,인천광역시,남동구,,논현동,,소래역로,93,604-1,2022-05-01 12:37:48,"빌딩,건물||주택||아파트||아파트명||500세대이상",False
2643,2644,380005,롯데맨션,,Lotte Mansion,Residence,House,126.6996726295159,37.526590672990096,대한민국,KOR,KOR,인천광역시,계양구,,효성동,,효서로,34,553-7,2021-12-23 15:49:18,"빌딩,건물||주택||연립,빌라||빌라",False
2647,2648,4325767,에이플캐슬,,Apple Castle,Residence,House,126.66159785592188,37.45213399740496,대한민국,KOR,KOR,인천광역시,미추홀구,,용현동,,한나루로489번길,103,96-18,2019-11-14 23:06:52,"빌딩,건물||주택||연립,빌라||빌라",False
2680,2681,26870449,포레스타오피스텔,포레스타오피스텔,Foresta Officetel,Residence,House,126.6411277001368,37.46389692570944,대한민국,KOR,KOR,인천광역시,미추홀구,,숭의동,,인중로16번길,19-16,435-4,2022-05-01 12:37:48,"빌딩,건물||주택||오피스텔||오피스텔-일반||세대수미확인",False
2682,2683,1259942,귀빈주택,,VIP House,Residence,House,126.68153328101592,37.45300369716677,대한민국,KOR,KOR,인천광역시,미추홀구,,주안동,,미추홀대로626번길,28,1473-16,2019-11-14 23:28:27,"빌딩,건물||주택||연립,빌라||빌라",False
2694,2695,1131240,동보아트빌,,DongboArtville,Residence,House,126.75281711005697,37.43284105566538,대한민국,KOR,KOR,인천광역시,남동구,,서창동,,장아산로205번길,22,575-5,2021-12-23 15:49:18,"빌딩,건물||주택||연립,빌라||빌라",False
2698,2699,1093328,검암마젤란21아파트,마젤란21아파트,Geomam Magellan 21 Apartment,Residence,House,126.67182110046387,37.565390000653714,대한민국,KOR,KOR,인천광역시,서구,,검암동,,도요지로189번길,104,595-5,2021-12-23 15:49:18,"빌딩,건물||주택||아파트||아파트명||100세대이상",False
2702,2703,812159,신생동삼성아파트,신생삼성아파트,Shinsaeng-dong Samsung Apartment,Residence,House,126.62986009974784,37.46552620119135,대한민국,KOR,KOR,인천광역시,중구,,신생동,,인중로,111,38-5,2022-05-01 12:37:48,"빌딩,건물||주택||아파트||아파트명||100세대이상",False
2709,2710,616032,그린하이츠빌,,Green Heightsville,Residence,House,126.71243618717088,37.431696086795675,대한민국,KOR,KOR,인천광역시,남동구,,남촌동,,남촌로122번길,5,491-5,2021-12-23 15:49:18,"빌딩,건물||주택||연립,빌라||빌라",False
2716,2717,5775361,신촌빌라,,Sinchon Villa,Residence,House,126.7095615604249,37.48600893887398,대한민국,KOR,KOR,인천광역시,부평구,,십정동,,신촌로15번길,17-2,174-64,2022-05-01 12:37:48,"빌딩,건물||주택||연립,빌라||빌라",False
2728,2729,4324859,나우그린빌3차,3차나우그린빌,Now Greenville 3rd,Residence,House,126.66992620009393,37.46634356130238,대한민국,KOR,KOR,인천광역시,미추홀구,,도화동,,석정로314번길,32,233-9,2022-05-01 12:37:48,"빌딩,건물||주택||연립,빌라||빌라",False
2730,2731,5707556,화인아트빌라,,Fine Art Villa,Residence,House,126.72544292510791,37.48620463336818,대한민국,KOR,KOR,인천광역시,부평구,,부평동,,육동로8번길,15-1,653-57,2022-05-01 12:37:48,"빌딩,건물||주택||연립,빌라||빌라",False
2761,2762,5654281,태원아파트2차,태원2차아파트,Taewon Apartment 2,Residence,House,126.72097018278691,37.50109095680351,대한민국,KOR,KOR,인천광역시,부평구,,부평동,,부흥로267번길,53,464-55,2022-05-01 12:37:48,"빌딩,건물||주택||연립,빌라||빌라",False
2801,2802,1871310,예은아트빌,,YeeunArtville,Residence,House,126.74687869965196,37.43754919928029,대한민국,KOR,KOR,인천광역시,남동구,,서창동,,독곡로,8,557-3,2019-11-14 23:28:27,"빌딩,건물||주택||연립,빌라||빌라",False
2802,2803,3144111,공원주택,,Park House,Residence,House,126.75077824254694,37.43155464618959,대한민국,KOR,KOR,인천광역시,남동구,,서창동,,장아산로224번길,12,578-8,2019-12-09 10:50:24,"빌딩,건물||주택||연립,빌라||빌라",False
2809,2810,2821874,신태양4차아파트,신태양4차,Shin Taeyang 4th Apartment,Residence,House,126.66965680006788,37.467084400877766,대한민국,KOR,KOR,인천광역시,미추홀구,,도화동,,석정로302번길,17,134-2,2022-05-01 12:37:48,"빌딩,건물||주택||아파트||아파트명||100세대미만",False
2815,2816,5754518,스타디움센트럴시티아파트,,Dowon Station Seohee Star Hill Cruise City,Residence,House,126.64426649999795,37.4666446999991,대한민국,KOR,KOR,인천광역시,미추홀구,,숭의동,,참외전로,268,462,2022-05-02 21:16:34,"빌딩,건물||주택||아파트||아파트명||브랜드아파트",False
2823,2824,1262458,솔뫼아트빌,,Solmo Artville,Residence,House,126.66579065368688,37.51008479769069,대한민국,KOR,KOR,인천광역시,서구,,석남동,,신석로,34,211-5,2020-01-14 0:00:00,"빌딩,건물||주택||연립,빌라||빌라",False
2824,2825,5657019,엘리트빌라,,Elite Villa,Residence,House,126.6623049957229,37.60326731584902,대한민국,KOR,KOR,인천광역시,서구,,마전동,,완정로156번길,36,990-6,2020-01-14 0:00:00,"빌딩,건물||주택||연립,빌라||빌라",False
2827,2828,4330269,이화빌라,,Ewha Villa,Residence,House,126.66137799802787,37.450251204538255,대한민국,KOR,KOR,인천광역시,미추홀구,,용현동,,인하로119번길,5,92-28,2021-12-23 15:49:18,"빌딩,건물||주택||연립,빌라||빌라",False
2851,2852,2155707,인향그린빌,,Inhyang Green Ville,Residence,House,126.72392771417894,37.4886444126567,대한민국,KOR,KOR,인천광역시,부평구,,부평동,,동수북로158번길,5,724-2,2022-05-01 12:37:48,"빌딩,건물||주택||연립,빌라||빌라",False
2877,2878,5697944,리안빌리지,,Rihanna Village,Residence,House,126.72483358557588,37.40771569611447,대한민국,KOR,KOR,인천광역시,남동구,,논현동,,논고개로176번길,40,594-14,2019-11-14 23:20:09,"빌딩,건물||주택||연립,빌라||빌라",False
2880,2881,291963,삼성빌리지,,Samsung Village,Residence,House,126.73711430060592,37.48362622962048,대한민국,KOR,KOR,인천광역시,부평구,,부개동,,항동로13번길,23,420-15,2021-12-23 15:49:18,"빌딩,건물||주택||연립,빌라||빌라",False
2903,2904,4328568,성우아파트,,Sungwoo Apartment,Residence,House,126.6784597829089,37.46319909180967,대한민국,KOR,KOR,인천광역시,미추홀구,,주안동,,미추홀대로733번길,30,229-7,2019-11-14 23:19:12,"빌딩,건물||주택||아파트||아파트명||아파트명-일반",False
2938,2939,2148287,중앙그린파크,,Jungang Green Park,Residence,House,126.70234143837088,37.52152532708418,대한민국,KOR,KOR,인천광역시,부평구,,청천동,,평천로93번길,7,384-17,2021-12-23 15:49:18,"빌딩,건물||주택||연립,빌라||빌라",False
2946,2947,1262366,번성맨션,,prosperous mansion,Residence,House,126.73085492943392,37.48664534572799,대한민국,KOR,KOR,인천광역시,부평구,,부평동,,경인로1002번길,6-1,628-5,2022-05-01 12:37:48,"빌딩,건물||주택||연립,빌라||연립주택",False
2948,2949,5711919,팰리스타운105,,Palace Town 105,Residence,House,126.75884445856197,37.56045288178582,대한민국,KOR,KOR,인천광역시,계양구,,동양동,,당미2길,27,625-14,2022-05-01 12:37:48,"빌딩,건물||주택||연립,빌라||빌라",False
2949,2950,4337899,원진홈타운2차,2차원진홈타운,Wonjin Hometown 2nd,Residence,House,126.66086164383287,37.60620536650353,대한민국,KOR,KOR,인천광역시,서구,,마전동,,검단로487번안길,5,924-12,2022-05-01 12:37:48,"빌딩,건물||주택||연립,빌라||연립주택",False
2958,2959,2598952,신나래빌라,,SinNarae Villa,Residence,House,126.63935695224885,37.46830299996638,대한민국,KOR,KOR,인천광역시,중구,,도원동,,참외전로244번길,21,22-7,2021-12-23 15:49:18,"빌딩,건물||주택||연립,빌라||빌라",False
2966,2967,1855938,영종빌하우스,,Yeongjong Bill House,Residence,House,126.54889244395775,37.49675516711696,대한민국,KOR,KOR,인천광역시,중구,,중산동,,운중로177번길,27-10,879-8,2021-12-23 15:49:18,"빌딩,건물||주택||연립,빌라||연립주택",False
2994,2995,27032132,제일풍경채검단II아파트(2025년4월예정),,Jeil Punggyeong Chaegomdan II Apartment (planned for April 2025),Residence,House,126.69701014485383,37.61130893750072,대한민국,KOR,KOR,인천광역시,서구,,불로동,,,,산56-1,2022-08-02 16:47:12,"빌딩,건물||주택||아파트||아파트명||예정,공사중",False
2997,2998,2155408,까치빌라,까치,Magpie Villa,Residence,House,126.66842698619188,37.42652202749855,대한민국,KOR,KOR,인천광역시,연수구,,청학동,,비류대로303번길,15,550-14,2021-12-23 15:49:18,"빌딩,건물||주택||연립,빌라||빌라",False
3001,3002,1266268,대우그린맨션,,Daewoo Green Mansion,Residence,House,126.74155898338596,37.48478293001899,대한민국,KOR,KOR,인천광역시,부평구,,부개동,,경인로1104번길,26-10,328-21,2021-12-23 15:49:18,"빌딩,건물||주택||연립,빌라||빌라",False
3008,3009,3128146,드림빌라,,Dream Villa,Residence,House,126.65715429933988,37.46116504241246,대한민국,KOR,KOR,인천광역시,미추홀구,,숭의동,,수봉로68번길,31-15,20-34,2021-12-23 15:49:18,"빌딩,건물||주택||연립,빌라||빌라",False
3010,3011,4452996,스위트리아아파트,,Suiteria Apartment,Residence,House,126.67561419936996,37.4645651011403,대한민국,KOR,KOR,인천광역시,미추홀구,,주안동,,주안로,53,394,2022-05-01 12:37:48,"빌딩,건물||주택||아파트||아파트명||100세대미만",False
3018,3019,755206,대륙하이츠타운,,Continental Heights Town,Residence,House,126.62228629999981,37.481144999999685,대한민국,KOR,KOR,인천광역시,중구,,송월동1가,,참외전로59번길,30-11,19,2022-05-01 12:37:48,"빌딩,건물||주택||연립,빌라||연립주택",False
3026,3027,975628,청솔빌라,,Cheongsol Villa,Residence,House,126.71884999979488,37.54597500025281,대한민국,KOR,KOR,인천광역시,계양구,,계산동,,,,894-9,2022-05-01 12:37:48,"빌딩,건물||주택||연립,빌라||빌라",False
