,OID_,id,name,name_alias,name_eng,category,subcategory,lon,lat,country,country_code,language_code,sd,sgg,sgg_sub,emd,ri,street,number_st,number_jb,update_date,dwnm,result
33,34,4710673,세심요양원,,Sesim Nursing Home,Residence,Nursing Home,126.6712935277569,37.461985302332366,대한민국,KOR,KOR,인천광역시,미추홀구,,도화동,,경인로,270-1,480-1,2022-08-18 12:00:50,의료시설||요양원||요양원-일반,False
652,653,3239090,온유한요양원,,meek nursing home,Residence,Nursing Home,126.68659369427496,37.46351748118629,대한민국,KOR,KOR,인천광역시,미추홀구,,주안동,,주안로,150,50-4,2022-08-16 16:52:33,의료시설||요양원||요양원-일반,False
1219,1220,27071939,벧엘요양원,,Bethel Nursing Home,Residence,Nursing Home,126.7077942942729,37.5282860833,대한민국,KOR,KOR,인천광역시,계양구,,효성동,,효서로111번길,5,192-1,2022-08-08 10:29:42,의료시설||요양원||요양원-일반,False
1693,1694,27059764,동인천요양원,,Dongincheon Nursing Home,Residence,Nursing Home,126.63784011006884,37.473150324111785,대한민국,KOR,KOR,인천광역시,동구,,금곡동,,송림로,24,33-2,2022-08-16 16:52:33,의료시설||요양원||요양원-일반,False
1754,1755,27181394,더사랑요양원,,The Sarang Nursing Home,Residence,Nursing Home,126.72578270858992,37.45526980871789,대한민국,KOR,KOR,인천광역시,남동구,,만수동,,구월로,318,916-4,2022-05-01 12:37:48,의료시설||요양원||요양원-일반,False
2322,2323,4324118,지안요양원,,Jian Nursing Home,Residence,Nursing Home,126.68092723604488,37.46703130546108,대한민국,KOR,KOR,인천광역시,미추홀구,,주안동,,석정로,409,15-41,2022-05-01 12:37:48,의료시설||요양원||요양원-일반,False
3489,3490,27076758,자연실버타운,,Natural Silver Town,Residence,Nursing Home,126.7262508575359,37.41504416333785,대한민국,KOR,KOR,인천광역시,남동구,,도림동,,논고개로,273,355-7,2022-05-01 12:37:48,의료시설||요양원||요양원-일반,False
3605,3606,26786481,인천시 장기요양요원지원센터,,Incheon City  Long-Term Care Personnel Support Center,Residence,Nursing Home,126.66093324161788,37.46874357358348,대한민국,KOR,KOR,인천광역시,미추홀구,,도화동,,석정로,229,1000,2022-05-01 12:37:48,의료시설||요양원||요양원-일반,False
4374,4375,5448577,소망노인복지센타,,Somang Senior Welfare Center,Residence,Nursing Home,126.64866172330424,37.458057000370445,대한민국,KOR,KOR,인천광역시,미추홀구,,용현동,,독배로,433-11,473-6,2022-08-12 13:15:03,의료시설||요양원||요양원-일반,False
4399,4400,3029096,사랑마루 계양점,,Sarangmaru Gyeyang,Residence,Nursing Home,126.73589440747892,37.53218814780912,대한민국,KOR,KOR,인천광역시,계양구,,작전동,,계양문화로,15,904-1,2022-09-22 0:00:00,의료시설||요양원||요양원-일반,False
4810,4811,27428686,아름다운 동행 요양원,,beautiful companion nursing home,Residence,Nursing Home,126.73019482289392,37.49924859207589,대한민국,KOR,KOR,인천광역시,부평구,,부평동,,장제로,153,378-1,2022-08-08 10:29:42,의료시설||요양원||요양원-일반,False
4888,4889,5668578,우리들요양원,,Wooridul Nursing Home,Residence,Nursing Home,126.63121827184386,37.47443162535008,대한민국,KOR,KOR,인천광역시,중구,,인현동,,우현로90번길,1-6,26-5,2022-08-16 16:52:33,의료시설||요양원||요양원-일반,False
5408,5409,2606624,바다의별요양원,,Sea Star Nursing Home,Residence,Nursing Home,126.47458069999983,37.72492709999991,대한민국,KOR,KOR,인천광역시,강화군,,선원면,선행리,시리미로,42,176-4,2018-09-28 14:00:00,의료시설||요양원||요양원-일반,False
5788,5789,27102715,행복드림요양원,,Happy Dream Nursing Home,Residence,Nursing Home,126.67247029999994,37.54799049999984,대한민국,KOR,KOR,인천광역시,서구,,연희동,,연희로39번길,16,743-14,2022-08-12 13:15:03,의료시설||요양원||요양원-일반,False
5823,5824,4329318,인천효요양원,,Incheon Hyo Nursing Home,Residence,Nursing Home,126.69293604242688,37.465420313846494,대한민국,KOR,KOR,인천광역시,남동구,,간석동,,석정로,516,895-3,2022-08-16 16:52:33,의료시설||요양원||요양원-일반,False
5917,5918,27226046,가나안노인주간보호센터,,Canaan Senior Day Care Center,Residence,Nursing Home,126.7216581541929,37.5277343465446,대한민국,KOR,KOR,인천광역시,계양구,,작전동,,효서로,230,444-1,2022-05-01 12:37:48,의료시설||요양원||요양원-일반,False
6634,6635,27124153,하늘소리너싱홈요양원,,Sky Sound Nursing Home Nursing Home,Residence,Nursing Home,126.66632043636488,37.42724300479386,대한민국,KOR,KOR,인천광역시,연수구,,청학동,,계림로58번길,27,538-4,2022-08-16 16:52:33,의료시설||요양원||요양원-일반,False
7821,7822,3028720,검단탑요양원,검단요양원,Geomdan Tower Nursing Home,Residence,Nursing Home,126.6723109532769,37.59213259586902,대한민국,KOR,KOR,인천광역시,서구,,당하동,,청마로51번안길,22,1082-1,2022-08-16 16:52:33,의료시설||요양원||요양원-일반,False
8014,8015,3589824,늘편한요양원,,Nursing Home,Residence,Nursing Home,126.65528563933287,37.557064136954,대한민국,KOR,KOR,인천광역시,서구,,경서동,,도요지로42번길,21-1,749-6,2022-08-18 12:00:50,의료시설||요양원||요양원-일반,False
8581,8582,27101185,주안요양원,,Juan Nursing Home,Residence,Nursing Home,126.68048639999996,37.4608393999998,대한민국,KOR,KOR,인천광역시,미추홀구,,주안동,,석바위로,68,173-1,2022-08-16 16:52:33,의료시설||요양원||요양원-일반,False
8799,8800,5684704,햇살누리요양센터,,Sunshine Nuri Nursing Center,Residence,Nursing Home,126.64907462993284,37.45796937269928,대한민국,KOR,KOR,인천광역시,미추홀구,,용현동,,독배로,431,473-1,2022-08-16 16:52:33,의료시설||요양원||요양원-일반,False
8964,8965,20202038,천사의집요양원,,Angel's Home Nursing Home,Residence,Nursing Home,126.71066943248094,37.451334283943915,대한민국,KOR,KOR,인천광역시,남동구,,구월동,,남동대로774번길,47,1202-5,2021-12-23 15:49:18,의료시설||요양원||요양원-일반,False
9112,9113,1872295,계양노인전문요양원,계양요양병원,Gyeyang Senior Nursing Home,Residence,Nursing Home,126.74977500026796,37.526425000036895,대한민국,KOR,KOR,인천광역시,계양구,,서운동,,아나지로,517,130-5,2022-05-01 12:37:48,의료시설||요양원||요양원-일반,False
9463,9464,27157807,생생요양원,,live nursing home,Residence,Nursing Home,126.73203590817891,37.51793536868329,대한민국,KOR,KOR,인천광역시,부평구,,갈산동,,장제로,361,52-5,2022-08-12 13:15:03,의료시설||요양원||요양원-일반,False
10287,10288,27209676,백산 실버홈,,Baeksan Silver Home,Residence,Nursing Home,126.47691399999968,37.690978899999706,대한민국,KOR,KOR,인천광역시,강화군,,불은면,삼동암리,강화동로,625,92,2022-05-01 12:37:48,의료시설||요양원||요양원-일반,False
11700,11701,27425183,가족사랑요양원,,Family Love Nursing Home,Residence,Nursing Home,126.72631495204791,37.45521295315607,대한민국,KOR,KOR,인천광역시,남동구,,만수동,,구월로,320-1,916-15,2022-08-08 10:29:42,의료시설||요양원||요양원-일반,False
11766,11767,27117154,자경요양원,,Vigilant Nursing Home,Residence,Nursing Home,126.73483773678696,37.50834950887128,대한민국,KOR,KOR,인천광역시,부평구,,삼산동,,체육관로,30,459-1,2022-08-16 16:52:33,의료시설||요양원||요양원-일반,False
12288,12289,27228614,참마음요양원,,Chammaeum Nursing Home,Residence,Nursing Home,126.72950956571891,37.492065926416174,대한민국,KOR,KOR,인천광역시,부평구,,부평동,,장제로,73,561-1,2022-08-24 14:41:06,의료시설||요양원||요양원-일반,False
12424,12425,27164463,다온실버케어요양원,,Daon Silver Care Nursing Home,Residence,Nursing Home,126.6988569289939,37.59250098563052,대한민국,KOR,KOR,인천광역시,서구,,당하동,,고산후로,97,1028-21,2022-08-16 16:52:33,의료시설||요양원||요양원-일반,False
13200,13201,646708,강화요양원,,Ganghwa Nursing Home,Residence,Nursing Home,126.3978171999998,37.78450009999991,대한민국,KOR,KOR,인천광역시,강화군,,하점면,신봉리,인화로,28,19-3,2022-08-18 12:00:50,의료시설||요양원||요양원-일반,False
13598,13599,4325883,한마음요양원,,Hanmaeum Nursing Home,Residence,Nursing Home,126.7114340317059,37.44911952735986,대한민국,KOR,KOR,인천광역시,남동구,,구월동,,인주대로,670,277,2022-08-24 14:41:06,의료시설||요양원||요양원-일반,False
14805,14806,4349174,소나무요양원,,Pine Nursing Home,Residence,Nursing Home,126.70588563985588,37.517693087669805,대한민국,KOR,KOR,인천광역시,부평구,,청천동,,평천로142번길,50,11-12,2022-08-16 16:52:33,의료시설||요양원||요양원-일반,False
15032,15033,27185547,실버벨공동생활가정,,Silverbell communal living family,Residence,Nursing Home,126.6839049877099,37.49683590773688,대한민국,KOR,KOR,인천광역시,서구,,가좌동,,원적로,121,84-5,2022-08-08 10:29:42,의료시설||요양원||요양원-일반,False
15677,15678,27069277,새숨365노인요양센타,,Saesum 365 Senior Care Center,Residence,Nursing Home,126.73573498139596,37.46323063790037,대한민국,KOR,KOR,인천광역시,남동구,,만수동,,만수로75번길,21,5-9,2022-05-01 12:37:48,의료시설||요양원||요양원-일반,False
15854,15855,27184132,다솜요양원,,Dasom Nursing Home,Residence,Nursing Home,126.72361339940124,37.40124031666198,대한민국,KOR,KOR,인천광역시,남동구,,논현동,,청능대로,581,631-8,2022-08-18 12:00:50,의료시설||요양원||요양원-일반,False
16679,16680,27182744,제일요양원,,Cheil Nursing Home,Residence,Nursing Home,126.66898959999995,37.44548859999978,대한민국,KOR,KOR,인천광역시,미추홀구,,학익동,,학익소로,19,25,2022-08-12 13:15:03,의료시설||요양원||요양원-일반,False
17154,17155,5697050,참요양복지센터,참요양센터,Cham Nursing Welfare Center,Residence,Nursing Home,126.70537741135188,37.50681219274309,대한민국,KOR,KOR,인천광역시,부평구,,산곡동,,마장로324번길,33,120-23,2019-11-14 23:28:31,의료시설||요양원||요양원-일반,False
17727,17728,20058738,봄날인천요양원,봄날요양원,spring day incheon nursing home,Residence,Nursing Home,126.70999259999996,37.51973069999982,대한민국,KOR,KOR,인천광역시,부평구,,청천동,,안남로,413,397-10,2022-08-18 12:00:50,의료시설||요양원||요양원-일반,False
18034,18035,5725405,행복노인전문요양원,,Happy Senior Specialist nursing home,Residence,Nursing Home,126.7059278999999,37.48733779999978,대한민국,KOR,KOR,인천광역시,부평구,,산곡동,,화랑로,14,310-134,2022-08-12 13:15:03,의료시설||요양원||요양원-일반,False
18225,18226,5663484,꿈꾸는요양원,,Dream Nursing Home,Residence,Nursing Home,126.65408589955092,37.41467070054087,대한민국,KOR,KOR,인천광역시,연수구,,동춘동,,솔밭로,20,811,2022-08-08 10:29:42,의료시설||요양원||요양원-일반,False
18485,18486,27099974,미래간호요양원,,Future Nursing Home,Residence,Nursing Home,126.63783770999784,37.47324712356507,대한민국,KOR,KOR,인천광역시,동구,,금곡동,,송림로,24,33-2,2022-08-12 13:15:03,의료시설||요양원||요양원-일반,False
19619,19620,27184777,가족사랑삼산요양원,,Family Love Samsan Nursing Home,Residence,Nursing Home,126.73578393489792,37.508270654918,대한민국,KOR,KOR,인천광역시,부평구,,삼산동,,체육관로,38,459-4,2022-08-16 16:52:33,의료시설||요양원||요양원-일반,False
19708,19709,5723944,은빛요양원,,Silver Nursing Home,Residence,Nursing Home,126.70591939999996,37.487323799999785,대한민국,KOR,KOR,인천광역시,부평구,,산곡동,,화랑로,14,310-134,2022-08-24 14:41:06,의료시설||요양원||요양원-일반,False
20895,20896,27101036,더드림재가요양센터,,The Dream Home Care Center,Residence,Nursing Home,126.70755570657091,37.46593941543376,대한민국,KOR,KOR,인천광역시,남동구,,간석동,,남동대로,935,273-1,2022-05-01 12:37:48,의료시설||요양원||요양원-일반,False
21317,21318,27231757,유니실버요양원,,Unisilver Nursing Home,Residence,Nursing Home,126.65028749999992,37.4639845999998,대한민국,KOR,KOR,인천광역시,미추홀구,,숭의동,,독정이로,95,131-1,2022-05-01 12:37:48,의료시설||요양원||요양원-일반,False
21894,21895,27162612,부모사랑요양원,,Parents Love Nursing Home,Residence,Nursing Home,126.67151849999993,37.408188299999765,대한민국,KOR,KOR,인천광역시,연수구,,동춘동,,앵고개로,250,936-1,2022-06-07 17:23:36,의료시설||요양원||요양원-일반,False
22039,22040,5677987,믿음요양원,,Faith Nursing Home,Residence,Nursing Home,126.67868522660692,37.43970495106726,대한민국,KOR,KOR,인천광역시,미추홀구,,문학동,,매소홀로,507,329-6,2022-08-16 16:52:33,의료시설||요양원||요양원-일반,False
22727,22728,27059278,김인옥간호요양원,,Kim In-ok Nursing Home,Residence,Nursing Home,126.63781230984982,37.47314502415276,대한민국,KOR,KOR,인천광역시,동구,,금곡동,,송림로,24,33-2,2022-05-01 12:37:48,의료시설||요양원||요양원-일반,False
22796,22797,4857456,효양요양원,,Hyoyang Nursing Home,Residence,Nursing Home,126.73733364197896,37.53556740314891,대한민국,KOR,KOR,인천광역시,계양구,,계산동,,오조산로57번길,11-1,1081-2,2022-08-24 14:41:06,의료시설||요양원||요양원-일반,False
23510,23511,3029233,고은손요양원,고은손요양원,Go Eun Son Nursing Home,Residence,Nursing Home,126.72680419289492,37.518365892779,대한민국,KOR,KOR,인천광역시,부평구,,갈산동,,주부토로,261,169-16,2022-08-18 12:00:50,의료시설||요양원||요양원-일반,False
24014,24015,27050624,행복한효요양원 2호점,,Happy Hyo Nursing Home 2nd Branch,Residence,Nursing Home,126.63783770999784,37.47324712356507,대한민국,KOR,KOR,인천광역시,동구,,금곡동,,송림로,24,33-2,2022-08-16 16:52:33,의료시설||요양원||요양원-일반,False
24138,24139,27361500,인천골드VIP요양원,인천골드VIP요양원,Incheon Gold VIP Nursing Home,Residence,Nursing Home,126.6357529368079,37.4720148983142,대한민국,KOR,KOR,인천광역시,중구,,경동,,참외전로,178,3-6,2022-08-16 16:52:33,의료시설||요양원||요양원-일반,False
24197,24198,27152742,중구요양원,,Jung Nursing Home,Residence,Nursing Home,126.63262769999984,37.465594999999766,대한민국,KOR,KOR,인천광역시,중구,,신흥동2가,,인중로,96,50-10,2022-05-01 12:37:48,의료시설||요양원||요양원-일반,False
24333,24334,5681548,효담요양원,,Hyodam Nursing Home,Residence,Nursing Home,126.65804340709488,37.601725329004125,대한민국,KOR,KOR,인천광역시,서구,,왕길동,,완정로,163,662-1,2022-08-16 16:52:33,의료시설||요양원||요양원-일반,False
24735,24736,1872988,삼성너싱홈요양원,삼성요양원,Samsung Nursing Home nursing home,Residence,Nursing Home,126.4436923997046,37.704912101172994,대한민국,KOR,KOR,인천광역시,강화군,,불은면,삼성리,중앙로,671,825-5,2022-05-01 12:37:48,의료시설||요양원||요양원-일반,False
24807,24808,27107711,송도요양원,,Songdo Nursing Home,Residence,Nursing Home,126.67239029999992,37.41663239999978,대한민국,KOR,KOR,인천광역시,연수구,,동춘동,,청능대로,54,53-3,2022-08-16 16:52:33,의료시설||요양원||요양원-일반,False
25051,25052,3269369,서구 효요양원,사랑채노인공동생활가정1호,Sarangchae Nursing Home,Residence,Nursing Home,126.67355027125691,37.59645364659482,대한민국,KOR,KOR,인천광역시,서구,,마전동,,완정로64번길,66,1006-12,2022-08-08 10:29:42,의료시설||요양원||요양원-일반,False
25101,25102,27328715,주안애요양원,,Juanae Nursing Home,Residence,Nursing Home,126.68311509999997,37.46310609999979,대한민국,KOR,KOR,인천광역시,미추홀구,,주안동,,주안중로50번길,3,109-3,2022-06-13 10:44:13,의료시설||요양원||요양원-일반,False
26501,26502,1029787,영락요양원,,Youngnak Nursing Home,Residence,Nursing Home,126.65876929999992,37.41453340000145,대한민국,KOR,KOR,인천광역시,연수구,,동춘동,,청량로,64,798,2019-08-08 23:03:25,의료시설||요양원||요양원-일반,False
26549,26550,27185006,지평재활요양원,,Jipyeong Rehabilitation Center,Residence,Nursing Home,126.73309739697692,37.5084044997357,대한민국,KOR,KOR,인천광역시,부평구,,삼산동,,체육관로,14,462-1,2022-08-18 12:00:50,의료시설||요양원||요양원-일반,False
26683,26684,27194825,새봄요양원,,Saebom Nursing Home,Residence,Nursing Home,126.73854900831896,37.53903798288909,대한민국,KOR,KOR,인천광역시,계양구,,용종동,,오조산로,91,212-4,2022-08-16 16:52:33,의료시설||요양원||요양원-일반,False
26796,26797,27069397,하나실버케어,,Hana Silver Care,Residence,Nursing Home,126.73352962042495,37.50723037840969,대한민국,KOR,KOR,인천광역시,부평구,,삼산동,,길주로,639,464-3,2022-08-16 16:52:33,의료시설||요양원||요양원-일반,False
27047,27048,27160177,참사랑요양원,,Chamsarang Nursing Home,Residence,Nursing Home,126.6601420328199,37.60326290897033,대한민국,KOR,KOR,인천광역시,서구,,마전동,,검단로,505,932-1,2022-08-12 13:15:03,의료시설||요양원||요양원-일반,False
27197,27198,1850425,인천사랑노인요양원,인천사랑요양병원,Incheon love elderly nursing home,Residence,Nursing Home,126.63311989468286,37.45058932444777,대한민국,KOR,KOR,인천광역시,미추홀구,,용현동,,낙섬서로,3-14,627-422,2022-08-18 12:00:50,의료시설||요양원||요양원-일반,False
27369,27370,27050148,모심과 돌봄 요양원,,Nursing home with mother-in-law and care,Residence,Nursing Home,126.67640548341488,37.41816470596076,대한민국,KOR,KOR,인천광역시,연수구,,청학동,,청명로,34,496,2022-05-01 12:37:48,의료시설||요양원||요양원-일반,False
27445,27446,27182733,포도나무요양원,,Vine Nursing Home,Residence,Nursing Home,126.6728414384159,37.44363911083787,대한민국,KOR,KOR,인천광역시,미추홀구,,학익동,,주승로,22,649,2022-08-12 13:15:03,의료시설||요양원||요양원-일반,False
27763,27764,27069119,간호사랑요양원,,nurse and nursing home,Residence,Nursing Home,126.7216581541929,37.5277343465446,대한민국,KOR,KOR,인천광역시,계양구,,작전동,,효서로,230,444-1,2022-08-16 16:52:33,의료시설||요양원||요양원-일반,False
28960,28961,3268468,서천노인요양원,서천요양원,Seocheon Nursing Home for the Elderly,Residence,Nursing Home,126.68527899999992,37.54577599999983,대한민국,KOR,KOR,인천광역시,서구,,심곡동,,심곡로132번길,22,14-7,2022-08-16 16:52:33,의료시설||요양원||요양원-일반,False
29535,29536,6319032,인천영락전문요양센터,,Incheon Youngnak Specialized Nursing Center,Residence,Nursing Home,126.65913582766893,37.41432778078426,대한민국,KOR,KOR,인천광역시,연수구,,동춘동,,청량로,60,798-11,2021-12-23 15:49:18,의료시설||요양원||요양원-일반,False
31007,31008,20201703,조은재가요양센터,조은요양센터,Jo Eunjae Home Care Center,Residence,Nursing Home,126.68647995448396,37.4869218300631,대한민국,KOR,KOR,인천광역시,서구,,가좌동,,고래울로37번길,6-1,352-10,2021-12-23 15:49:18,의료시설||요양원||요양원-일반,False
31150,31151,1872497,사랑마루 부평점,,Sarangmaru Bupyeong,Residence,Nursing Home,126.73209180727893,37.51795506865131,대한민국,KOR,KOR,인천광역시,부평구,,갈산동,,장제로,361,52-5,2019-11-14 23:09:16,의료시설||요양원||요양원-일반,False
32321,32322,517756,인천신생전문요양원,인천신생요양원,Incheon New Professional Nursing Home,Residence,Nursing Home,126.67067716044497,37.58325425399914,대한민국,KOR,KOR,인천광역시,서구,,백석동,,드림로,284-4,86-11,2022-06-29 11:25:35,의료시설||요양원||요양원-일반,False
32814,32815,611005,덕화요양원,,Deokhwa Nursing Home,Residence,Nursing Home,126.65399470000284,37.41499990000245,대한민국,KOR,KOR,인천광역시,연수구,,동춘동,,청량로109번길,95,822,2022-07-05 16:31:26,의료시설||요양원||요양원-일반,False
33071,33072,4344388,예수사랑노인복지원,예수사랑복지원,jesus love Senior Welfare Center,Residence,Nursing Home,126.72314361142791,37.430433964780256,대한민국,KOR,KOR,인천광역시,남동구,,수산동,,덕골로,117-1,529-8,2022-08-08 10:29:42,의료시설||요양원||요양원-일반,False
33606,33607,4447303,한사랑케어,,Hansarang Care,Residence,Nursing Home,126.71963869760192,37.50427589459749,대한민국,KOR,KOR,인천광역시,부평구,,부평동,,원적로471번길,26-26,61-14,2019-11-14 23:25:13,의료시설||요양원||요양원-일반,False
34166,34167,3801949,우림실버홈,,Woorim Silver Home,Residence,Nursing Home,126.49236959999986,37.652861799999854,대한민국,KOR,KOR,인천광역시,강화군,,길상면,길직리,강화동로,151,1068-1,2018-07-18 16:16:15,의료시설||요양원||요양원-일반,False
34875,34876,1870643,남동노인요양센터,만수노인요양센터,Namdong Elderly Care Center,Residence,Nursing Home,126.73331279999996,37.44671229999978,대한민국,KOR,KOR,인천광역시,남동구,,만수동,,소래로,640,1077,2022-08-18 12:00:50,의료시설||요양원||요양원-일반,False
35142,35143,2612028,참사랑소망의집,소망의집,House of Tragedy and Hope,Residence,Nursing Home,126.70425702404788,37.528210140017805,대한민국,KOR,KOR,인천광역시,계양구,,효성동,,마장로559번길,8,578-12,2022-09-22 0:00:00,의료시설||요양원||요양원-일반,False
35377,35378,3028721,검단희망요양원,희망요양원,Geomdan Hope Nursing Home,Residence,Nursing Home,126.65837190046392,37.60152540015662,대한민국,KOR,KOR,인천광역시,서구,,왕길동,,완정로,159,662-6,2022-08-16 16:52:33,의료시설||요양원||요양원-일반,False
35702,35703,27103920,삼성요양원,,Samsung Nursing Home,Residence,Nursing Home,126.72804624274092,37.540948414008405,대한민국,KOR,KOR,인천광역시,계양구,,계산동,,주부토로,525,948-2,2022-08-12 13:15:03,의료시설||요양원||요양원-일반,False
35711,35712,3074947,늘사랑전문요양원,늘사랑요양원,Always Love Specialized Nursing Home,Residence,Nursing Home,126.73510692563195,37.5083397223785,대한민국,KOR,KOR,인천광역시,부평구,,삼산동,,체육관로,32,459-2,2022-08-16 16:52:33,의료시설||요양원||요양원-일반,False
36116,36117,4324931,남동노아요양원,,Namdong Noah Nursing Home,Residence,Nursing Home,126.72242784376692,37.45139431517156,대한민국,KOR,KOR,인천광역시,남동구,,구월동,,인주대로763번길,50,1299-14,2022-08-16 16:52:33,의료시설||요양원||요양원-일반,False
36225,36226,27134723,가람요양원,,Garam Nursing Home,Residence,Nursing Home,126.63477820245384,37.44917162035434,대한민국,KOR,KOR,인천광역시,미추홀구,,용현동,,매소홀로,81-1,627-351,2022-08-16 16:52:33,의료시설||요양원||요양원-일반,False
38415,38416,27113355,행복여정요양원,,Happy Journey Nursing Home,Residence,Nursing Home,126.73730234103095,37.535936071850095,대한민국,KOR,KOR,인천광역시,계양구,,계산동,,오조산로57번길,11,1081-1,2022-08-16 16:52:33,의료시설||요양원||요양원-일반,False
38710,38711,6230778,행복실버요양센터,행복요양센터,happy silver Nursing Center,Residence,Nursing Home,126.6845697993009,37.451662166482656,대한민국,KOR,KOR,인천광역시,미추홀구,,주안동,,미추홀대로614번길,82,1482-5,2021-12-23 15:49:18,의료시설||요양원||요양원-일반,False
38755,38756,27121182,행복의집,,house of happiness,Residence,Nursing Home,126.64086307507688,37.45626406582888,대한민국,KOR,KOR,인천광역시,미추홀구,,용현동,,아암대로29번길,86,565-2,2022-05-01 12:37:48,의료시설||요양원||요양원-일반,False
40191,40192,27093786,효은요양원,,Hyoeun Nursing Home,Residence,Nursing Home,126.74906359906194,37.42287180074988,대한민국,KOR,KOR,인천광역시,남동구,,서창동,,서창남순환로216번길,30,704-1,2022-08-16 16:52:33,의료시설||요양원||요양원-일반,False
40432,40433,4635577,경인실버요양원,,Gyeongin Silver nursing home,Residence,Nursing Home,126.71700161428288,37.44950072380037,대한민국,KOR,KOR,인천광역시,남동구,,구월동,,인주대로,719,1221-16,2019-11-14 23:09:16,의료시설||요양원||요양원-일반,False
40979,40980,27185179,효성비전노인복지센터,,Hyosung Vision Senior Welfare Center,Residence,Nursing Home,126.6997479236909,37.5255225367611,대한민국,KOR,KOR,인천광역시,계양구,,효성동,,아나지로,75,549-2,2022-08-24 14:41:06,의료시설||요양원||요양원-일반,False
41009,41010,27155464,노블레스요양원,인천노블레스요양원,Noblesse Nursing Home,Residence,Nursing Home,126.63024129999977,37.596489099999786,대한민국,KOR,KOR,인천광역시,서구,,오류동,,오류로26번길,9,1737-7,2022-08-16 16:52:33,의료시설||요양원||요양원-일반,False
41468,41469,4341028,연수인하요양원,,Yeonsu Inha Nursing Home,Residence,Nursing Home,126.6980535241669,37.42713248464587,대한민국,KOR,KOR,인천광역시,연수구,,선학동,,학나래로118번길,30,403-32,2022-08-16 16:52:33,의료시설||요양원||요양원-일반,False
41571,41572,27071262,사랑마루 요양원 원당센터,,Sarangmaru Nursing Home Wondang Center,Residence,Nursing Home,126.6964857051049,37.59400841493783,대한민국,KOR,KOR,인천광역시,서구,,원당동,,원당대로,853,824-6,2022-08-16 16:52:33,의료시설||요양원||요양원-일반,False
42409,42410,4331620,도화요양원,,Dohwa Nursing Home,Residence,Nursing Home,126.6728685234589,37.45979977490537,대한민국,KOR,KOR,인천광역시,미추홀구,,도화동,,한나루로,604,429-1,2022-08-18 12:00:50,의료시설||요양원||요양원-일반,False
42550,42551,27086779,축복전문요양원,,Blessing Specialized Nursing Home,Residence,Nursing Home,126.6778065478079,37.415124417162765,대한민국,KOR,KOR,인천광역시,연수구,,연수동,,용담로,115,596-7,2022-05-01 12:37:48,의료시설||요양원||요양원-일반,False
42570,42571,6434989,산곡기쁨복지센터,,Sangok Joy Welfare Center,Residence,Nursing Home,126.70809006753095,37.4989949968823,대한민국,KOR,KOR,인천광역시,부평구,,산곡동,,안남로,181,285-3,2020-01-22 15:30:31,의료시설||요양원||요양원-일반,False
43519,43520,1253207,백령도노인요양원,백령요양원,Baengnyeongdo Senior Nursing Home,Residence,Nursing Home,124.71079529996923,37.96470139999928,대한민국,KOR,KOR,인천광역시,옹진군,,백령면,진촌리,백령남로72번길,84-26,2333-27,2018-09-18 15:00:00,의료시설||요양원||요양원-일반,False
44112,44113,707075,숭의요양원,,Sungui Nursing Home,Residence,Nursing Home,126.64798995538087,37.46403819695156,대한민국,KOR,KOR,인천광역시,미추홀구,,숭의동,,경인로,42,177-7,2021-12-23 15:49:18,의료시설||요양원||요양원-일반,False
44151,44152,3028143,강화실버케어스,강화실버요양원,Ganghwa Silver Cares,Residence,Nursing Home,126.4422731999996,37.63175799999947,대한민국,KOR,KOR,인천광역시,강화군,,화도면,덕포리,마니산로,474,1354-1,2022-09-22 0:00:00,의료시설||요양원||요양원-일반,False
44552,44553,2620207,금곡노인요양원,금곡요양원,Geumgok Senior Nursing Home,Residence,Nursing Home,126.64337213290784,37.47483376707737,대한민국,KOR,KOR,인천광역시,동구,,송림동,,샛골로141번길,21,57-30,2022-08-18 12:00:50,의료시설||요양원||요양원-일반,False
44652,44653,1273550,임마누엘요양원,임마누엘복지원,Immanuel nursing home,Residence,Nursing Home,126.4130691999998,37.67944949999986,대한민국,KOR,KOR,인천광역시,강화군,,양도면,삼흥리,강화남로905번길,36,1138-1,2021-12-23 15:49:18,의료시설||요양원||요양원-일반,False
44879,44880,501289,호세요양원,,Ho Nursing Home,Residence,Nursing Home,126.47795779999984,37.67419429999986,대한민국,KOR,KOR,인천광역시,강화군,,불은면,두운리,고려왕릉로,376,342-4,2022-08-18 12:00:50,의료시설||요양원||요양원-일반,False
44894,44895,5721415,행복한노인요양센터,행복한요양센터,Happy Seniors  Nursing Center,Residence,Nursing Home,126.69530768899288,37.440725112963165,대한민국,KOR,KOR,인천광역시,미추홀구,,관교동,,경원대로640번길,26-17,502-4,2019-11-14 0:00:00,의료시설||요양원||요양원-일반,False
44973,44974,3940868,주안하주요양원,하주요양원,Juanhaju nursing home,Residence,Nursing Home,126.68856525091388,37.45917742947556,대한민국,KOR,KOR,인천광역시,미추홀구,,주안동,,경인로435번길,23,1001,2022-08-24 14:41:06,의료시설||요양원||요양원-일반,False
45444,45445,27185389,새한림요양원,,Saehanlim Nursing Home,Residence,Nursing Home,126.73428543055894,37.531841337460406,대한민국,KOR,KOR,인천광역시,계양구,,작전동,,장제로,718,901-1,2022-08-12 13:15:03,의료시설||요양원||요양원-일반,False
46142,46143,6358903,인천시립요양원(2023년9월예정),,Incheon Municipal Nursing Home (Scheduled for 2023),Residence,Nursing Home,126.72351260014791,37.417319300292256,대한민국,KOR,KOR,인천광역시,남동구,,도림동,,,,386-8,2022-05-01 12:37:48,의료시설||요양원||요양원-일반,False
46418,46419,27101101,실버홈요양복지센터,,Silver Home Nursing Welfare Center,Residence,Nursing Home,126.70252936325188,37.45814459725108,대한민국,KOR,KOR,인천광역시,남동구,,간석동,,예술로,270,905-2,2022-05-01 12:37:48,의료시설||요양원||요양원-일반,False
46702,46703,4340372,미래복지요양센터,미래요양센터,future welfare Nursing Center,Residence,Nursing Home,126.66426119999991,37.58405929999984,대한민국,KOR,KOR,인천광역시,서구,,백석동,,드림로,227,201-4,2022-08-30 9:43:30,의료시설||요양원||요양원-일반,False
46874,46875,26879661,인천프라임요양원,,Incheon Prime nursing home,Residence,Nursing Home,126.74490732476195,37.5191018355296,대한민국,KOR,KOR,인천광역시,부평구,,삼산동,,영성중로,31,117-5,2022-08-08 10:29:42,의료시설||요양원||요양원-일반,False
47958,47959,6209258,햇살요양원,,Sunshine Nursing Home,Residence,Nursing Home,126.42276401492758,37.76534487865621,대한민국,KOR,KOR,인천광역시,강화군,,하점면,삼거리,고려산로,201,4-2,2021-12-23 15:49:18,의료시설||요양원||요양원-일반,False
48168,48169,27185554,주은요양원,,Jueun Nursing Home,Residence,Nursing Home,126.6784729340669,37.4930097483421,대한민국,KOR,KOR,인천광역시,서구,,가좌동,,신진말로,26,210-3,2022-08-12 13:15:03,의료시설||요양원||요양원-일반,False
49774,49775,27179312,필그림요양원,,Pilgrim Nursing Home,Residence,Nursing Home,126.67656809999994,37.413478199999766,대한민국,KOR,KOR,인천광역시,연수구,,연수동,,먼우금로188번길,12,599-1,2022-05-01 12:37:48,의료시설||요양원||요양원-일반,False
50174,50175,5689609,자미원요양원,,Jamiwon Nursing Home,Residence,Nursing Home,126.65212236372984,37.46647240870837,대한민국,KOR,KOR,인천광역시,미추홀구,,숭의동,,참외전로,341,117-10,2022-08-16 16:52:33,의료시설||요양원||요양원-일반,False
50264,50265,27083473,고은요양원,,Goeun Nursing Home,Residence,Nursing Home,126.7216581541929,37.5277343465446,대한민국,KOR,KOR,인천광역시,계양구,,작전동,,효서로,230,444-1,2022-08-12 13:15:03,의료시설||요양원||요양원-일반,False
51010,51011,581373,만수효요양원,만수요양원,Mansuhyo Nursing Home,Residence,Nursing Home,126.73468441353796,37.44610836501807,대한민국,KOR,KOR,인천광역시,남동구,,만수동,,장승로,18,1079,2022-08-16 16:52:33,의료시설||요양원||요양원-일반,False
51120,51121,27129662,영광재가방문요양센터,,Yeonggwangjae Home Visiting Nursing Center,Residence,Nursing Home,126.72228305136596,37.51812415722969,대한민국,KOR,KOR,인천광역시,부평구,,갈산동,,부평대로296번길,7-4,163-2,2022-05-01 12:37:48,의료시설||요양원||요양원-일반,False
51507,51508,27101829,사랑요양원,,Love Nursing Home,Residence,Nursing Home,126.73729024855292,37.53969489747061,대한민국,KOR,KOR,인천광역시,계양구,,용종동,,오조산공원로,22,209-4,2022-08-12 13:15:03,의료시설||요양원||요양원-일반,False
52760,52761,1263549,만수요양원,,Mansu Nursing Home,Residence,Nursing Home,126.73542279999998,37.44739699999978,대한민국,KOR,KOR,인천광역시,남동구,,만수동,,인주대로888번길,20,1073-10,2022-08-08 10:29:42,의료시설||요양원||요양원-일반,False
52931,52932,26964688,노인보금자리건강센터,보금자리요양원,Elderly Bogeumjari Health Center,Residence,Nursing Home,126.46684983149264,37.26469915789236,대한민국,KOR,KOR,인천광역시,옹진군,,영흥면,내리,영흥로326번길,355,359-61,2022-05-01 12:37:48,의료시설||요양원||요양원-일반,False
53896,53897,4343673,가족사랑중앙효요양원,가족사랑요양원,Family Love Central Hygiene Nursing Home,Residence,Nursing Home,126.72770908310692,37.53571682500111,대한민국,KOR,KOR,인천광역시,계양구,,작전동,,주부토로,465,857-34,2022-08-08 10:29:42,의료시설||요양원||요양원-일반,False
53955,53956,27190601,수봉요양원,,Subong Nursing Home,Residence,Nursing Home,126.65851372126691,37.45550077008976,대한민국,KOR,KOR,인천광역시,미추홀구,,용현동,,수봉남로6번길,52-10,129-17,2022-05-01 12:37:48,의료시설||요양원||요양원-일반,False
54225,54226,5167659,반딧불노인요양원,,Firefly Nursing Home for the Elderly,Residence,Nursing Home,126.67225313822787,37.50140475555688,대한민국,KOR,KOR,인천광역시,서구,,석남동,,가정로,186-3,577-65,2022-08-16 16:52:33,의료시설||요양원||요양원-일반,False
54288,54289,5711984,부모섬김요양원,,Parent-Serving Nursing Home,Residence,Nursing Home,126.6600952638839,37.60274493562582,대한민국,KOR,KOR,인천광역시,서구,,마전동,,검단로,504,983-2,2022-08-16 16:52:33,의료시설||요양원||요양원-일반,False
54808,54809,27193310,오셀복지요양원,,Ocell Welfare Nursing Home,Residence,Nursing Home,126.70770064363091,37.48555672823527,대한민국,KOR,KOR,인천광역시,부평구,,십정동,,마장로,75,186-84,2022-05-01 12:37:48,의료시설||요양원||요양원-일반,False
54856,54857,27249061,중구요양원,,Jung Nursing Home,Residence,Nursing Home,126.62429379999988,37.44414559999976,대한민국,KOR,KOR,인천광역시,중구,,신흥동3가,,축항대로290번길,52,50-10,2022-05-01 12:37:48,의료시설||요양원||요양원-일반,False
55785,55786,471797,강화하나요양원,,Ganghwa Hana Nursing Home,Residence,Nursing Home,126.48891889948784,37.73079240102969,대한민국,KOR,KOR,인천광역시,강화군,,선원면,창리,중앙로,144,465-1,2021-12-23 15:49:18,의료시설||요양원||요양원-일반,False
56137,56138,474079,새소망요양원,새소망요양원,New Hope Nursing Home,Residence,Nursing Home,126.7047615416309,37.45867770536529,대한민국,KOR,KOR,인천광역시,남동구,,간석동,,구월로131번길,41,414-8,2022-09-06 15:18:26,의료시설||요양원||요양원-일반,False
56223,56224,1268584,들꽃피는 실버요양원,들꽃피는요양원,Wildflowers  Silver Nursing Home,Residence,Nursing Home,126.69046100910188,37.51699760606921,대한민국,KOR,KOR,인천광역시,부평구,,청천동,,세월천로,188,70-90,2019-12-09 10:50:24,의료시설||요양원||요양원-일반,False
56558,56559,4350167,하나미엘요양원,,Hanamiel nursing home,Residence,Nursing Home,126.73574199999996,37.54328309999982,대한민국,KOR,KOR,인천광역시,계양구,,임학동,,경명대로,1157,73-19,2022-08-16 16:52:33,의료시설||요양원||요양원-일반,False
57068,57069,3074682,노아요양원,,Noah Nursing Home,Residence,Nursing Home,126.69012502981388,37.46250195012637,대한민국,KOR,KOR,인천광역시,미추홀구,,주안동,,경원대로,892,929-13,2022-08-18 12:00:50,의료시설||요양원||요양원-일반,False
58853,58854,20200898,인천어르신재가요양센터,인천어르신요양센터,Incheon Senior Citizen Care Center,Residence,Nursing Home,126.6289837106139,37.47314185990219,대한민국,KOR,KOR,인천광역시,중구,,내동,,우현로67번길,1-3,197,2021-12-23 15:49:18,의료시설||요양원||요양원-일반,False
59023,59024,27091619,참빛요양원,,Chambit Nursing Home,Residence,Nursing Home,126.7267879921099,37.51837189331211,대한민국,KOR,KOR,인천광역시,부평구,,갈산동,,주부토로,261,169-16,2022-08-12 13:15:03,의료시설||요양원||요양원-일반,False
59424,59425,27213979,해피트리요양원,,Happy Tree Nursing Home,Residence,Nursing Home,126.7090780158029,37.452805787454174,대한민국,KOR,KOR,인천광역시,남동구,,구월동,,구월남로,174,1199-1,2022-08-16 16:52:33,의료시설||요양원||요양원-일반,False
59481,59482,4335730,송도사랑요양원,사랑요양원,Songdo love nursing home,Residence,Nursing Home,126.65583717320288,37.42562844979794,대한민국,KOR,KOR,인천광역시,연수구,,옥련동,,옥련로,147,340-2,2022-08-24 14:41:06,의료시설||요양원||요양원-일반,False
62022,62023,27069601,효누리요양원,,Hyonuri Nursing Home,Residence,Nursing Home,126.73425918593097,37.5310271780328,대한민국,KOR,KOR,인천광역시,계양구,,작전동,,장제로,708,901-4,2022-08-30 9:43:30,의료시설||요양원||요양원-일반,False
62856,62857,5705784,함박꽃방문요양센터,함박꽃요양센터,hambak flower Visiting Nursing Center,Residence,Nursing Home,126.69597949755088,37.46387245802089,대한민국,KOR,KOR,인천광역시,남동구,,간석동,,주안로235번길,9,395-7,2021-12-23 15:49:18,의료시설||요양원||요양원-일반,False
63495,63496,27183988,삼성요양원,,Samsung Nursing Home,Residence,Nursing Home,126.73737429469595,37.46147886263039,대한민국,KOR,KOR,인천광역시,남동구,,만수동,,만수서로,101,6-43,2022-08-16 16:52:33,의료시설||요양원||요양원-일반,False
63758,63759,3173157,사랑채노인요양원,,Sarangchae Nursing Home,Residence,Nursing Home,126.73952889999998,37.443309499999785,대한민국,KOR,KOR,인천광역시,남동구,,만수동,,장승남로,66,1039-2,2022-08-18 12:00:50,의료시설||요양원||요양원-일반,False
64225,64226,83572,소망요양원,,Somang Nursing Home,Residence,Nursing Home,126.67282739999996,37.51172279999981,대한민국,KOR,KOR,인천광역시,서구,,석남동,,가정로,302,457-4,2020-01-14 23:36:49,의료시설||요양원||요양원-일반,False
67020,67021,27212916,다정요양원,,Dajeong Nursing Home,Residence,Nursing Home,126.69726901503988,37.592890998670825,대한민국,KOR,KOR,인천광역시,서구,,당하동,,고산후로95번안길,21,1030-1,2022-05-01 12:37:48,의료시설||요양원||요양원-일반,False
67332,67333,27196438,효성어르신주간보호방문요양센터,,Hyosung Seniors Weekly Protection Visiting Nursing Center,Residence,Nursing Home,126.6976269524156,37.42500224123652,대한민국,KOR,KOR,인천광역시,연수구,,선학동,,학나래로6번길,41,408-3,2022-05-01 12:37:48,의료시설||요양원||요양원-일반,False
67681,67682,5668020,금빛요양원,,Golden Nursing Home,Residence,Nursing Home,126.73114217169191,37.449739704141,대한민국,KOR,KOR,인천광역시,남동구,,만수동,,하촌로,18,980,2019-11-14 23:25:17,의료시설||요양원||요양원-일반,False
68737,68738,27073593,행복노인요양원,,Happy Elderly Nursing Home,Residence,Nursing Home,126.6832147435209,37.567371280912006,대한민국,KOR,KOR,인천광역시,서구,,검암동,,승학로,577,508-1,2022-05-01 12:37:48,의료시설||요양원||요양원-일반,False
69418,69419,5721050,다조아방문요양센터,다조아요양센터,Dajo Child Visiting Nursing Center,Residence,Nursing Home,126.65795756980492,37.46740943761706,대한민국,KOR,KOR,인천광역시,미추홀구,,도화동,,석정로202번길,7,89-5,2022-05-01 12:37:48,의료시설||요양원||요양원-일반,False
69424,69425,27101192,계양다사랑요양원,,Gyeyang Dasarang Nursing Home,Residence,Nursing Home,126.72867883048092,37.53697324317511,대한민국,KOR,KOR,인천광역시,계양구,,계산동,,계산로,148,304-2,2022-05-01 12:37:48,의료시설||요양원||요양원-일반,False
70154,70155,27418994,주연요양원,,Jooyeon Nursing Home,Residence,Nursing Home,126.71293730534396,37.39518585110647,대한민국,KOR,KOR,인천광역시,남동구,,고잔동,,논현고잔로135번길,9,163-24,2022-08-12 13:15:03,의료시설||요양원||요양원-일반,False
70791,70792,27118003,새빛요양원,,Saebit Nursing Home,Residence,Nursing Home,126.69776391707688,37.593920399375214,대한민국,KOR,KOR,인천광역시,서구,,원당동,,원당대로,865,824-10,2022-08-16 16:52:33,의료시설||요양원||요양원-일반,False
72582,72583,3074929,남구늘푸른노인요양원,늘푸른요양원,Namgunpurun Nursing Home for the Elderly,Residence,Nursing Home,126.67017600267488,37.44141991111206,대한민국,KOR,KOR,인천광역시,미추홀구,,학익동,,소성로,193-26,240-7,2022-08-12 13:15:03,의료시설||요양원||요양원-일반,False
72887,72888,27184063,남동바다의별요양원,,Byeol Nursing Home in the Southeast Sea,Residence,Nursing Home,126.70967542582189,37.40278941735045,대한민국,KOR,KOR,인천광역시,남동구,,논현동,,호구포로,221,647-1,2022-08-08 10:29:42,의료시설||요양원||요양원-일반,False
73563,73564,859944,영락전문요양원,영락요양원,Youngnak Specialized Nursing Home,Residence,Nursing Home,126.6585875118529,37.41358520763024,대한민국,KOR,KOR,인천광역시,연수구,,동춘동,,앵고개로103번길,30,786-2,2022-05-01 12:37:48,의료시설||요양원||요양원-일반,False
73607,73608,27077245,가현요양원,,Gahyeon Nursing Home,Residence,Nursing Home,126.6716864119799,37.594951972370325,대한민국,KOR,KOR,인천광역시,서구,,마전동,,완정로,19,1016-7,2022-08-12 13:15:03,의료시설||요양원||요양원-일반,False
73893,73894,5705517,아름다운요양원,,beautiful nursing home,Residence,Nursing Home,126.73060602099592,37.53570287088118,대한민국,KOR,KOR,인천광역시,계양구,,계산동,,장제로755번길,32,298-4,2019-11-14 23:11:36,의료시설||요양원||요양원-일반,False
74584,74585,20095387,아름드리요양원,아름드리요양원,Arumduri Nursing Home,Residence,Nursing Home,126.7205198999999,37.54387529999982,대한민국,KOR,KOR,인천광역시,계양구,,계산동,,경명대로,1023,932-18,2022-08-18 12:00:50,의료시설||요양원||요양원-일반,False
74635,74636,4324889,인천VIP요양원,인천브이아이피요양원,Incheon VIP nursing home,Residence,Nursing Home,126.72769474249192,37.448949386561374,대한민국,KOR,KOR,인천광역시,남동구,,구월동,,인주대로,813,1318,2022-08-16 16:52:33,의료시설||요양원||요양원-일반,False
74643,74644,27091112,소망드림요양원,,Hope Dream Nursing Home,Residence,Nursing Home,126.62246096316483,37.47206172613417,대한민국,KOR,KOR,인천광역시,중구,,중앙동3가,,신포로23번길,49,4-41,2022-08-16 16:52:33,의료시설||요양원||요양원-일반,False
74764,74765,1870184,가족사랑요양원,사랑케어센터,Family Love Nursing Home,Residence,Nursing Home,126.67417960781988,37.50776110505369,대한민국,KOR,KOR,인천광역시,서구,,석남동,,신석로112번길,24,505-15,2022-08-12 13:15:03,의료시설||요양원||요양원-일반,False
75011,75012,1855045,사랑의 집 노인요양원,사랑의집요양원,Love Home Senior Nursing Home,Residence,Nursing Home,126.49200592356785,37.640447619540375,대한민국,KOR,KOR,인천광역시,강화군,,길상면,온수리,길상로,329,548-3,2022-05-01 12:37:48,의료시설||요양원||요양원-일반,False
75238,75239,2621578,에덴요양원,,Eden Nursing Home,Residence,Nursing Home,126.7217524968228,37.43696015499136,대한민국,KOR,KOR,인천광역시,남동구,,수산동,,찬우물로,45,142-4,2022-08-12 13:15:03,의료시설||요양원||요양원-일반,False
76453,76454,3813036,시니어빌리지요양원,,Senior Village nursing home,Residence,Nursing Home,126.64871074081088,37.47739303035637,대한민국,KOR,KOR,인천광역시,동구,,송림동,,송림로,129,42-277,2022-08-16 16:52:33,의료시설||요양원||요양원-일반,False
77266,77267,27215104,인천요양원,,Incheon Nursing Home,Residence,Nursing Home,126.6446276847399,37.47497922873627,대한민국,KOR,KOR,인천광역시,동구,,송림동,,샛골로,142,59-20,2022-05-01 12:37:48,의료시설||요양원||요양원-일반,False
77727,77728,2595712,참노인요양원,참요양원,True Elderly Nursing Home,Residence,Nursing Home,126.73771734036492,37.53936563056942,대한민국,KOR,KOR,인천광역시,계양구,,용종동,,계산새로87번길,15,209-5,2022-08-18 12:00:50,의료시설||요양원||요양원-일반,False
77780,77781,27080983,더숲요양원,,The Forest Nursing Home,Residence,Nursing Home,126.64573216222087,37.46466526281626,대한민국,KOR,KOR,인천광역시,미추홀구,,숭의동,,미추로,53,159-14,2022-05-01 12:37:48,의료시설||요양원||요양원-일반,False
78182,78183,1851770,영락요양의집,,Youngnak Nursing Home,Residence,Nursing Home,126.65973499999996,37.413606999999786,대한민국,KOR,KOR,인천광역시,연수구,,동춘동,,청량로,51,782-5,2018-09-18 15:00:00,의료시설||요양원||요양원-일반,False
79010,79011,5714320,국제메디칼요양원,국제요양원,International Medical Nursing Home,Residence,Nursing Home,126.68106029720389,37.5434854535046,대한민국,KOR,KOR,인천광역시,서구,,심곡동,,탁옥로,104,295-1,2022-08-24 14:41:06,의료시설||요양원||요양원-일반,False
79589,79590,4326108,사랑의쉼터요양원,,Love Shelter Nursing Home,Residence,Nursing Home,126.72008166670292,37.462449497721856,대한민국,KOR,KOR,인천광역시,남동구,,간석동,,호구포로,897,916-18,2022-05-01 12:37:48,의료시설||요양원||요양원-일반,False
79741,79742,4343823,강화정다운요양센터,정다운요양센터,Ganghwajeong down Nursing Center,Residence,Nursing Home,126.48821649999984,37.7408967999999,대한민국,KOR,KOR,인천광역시,강화군,,강화읍,남산리,남문로,33,71-4,2022-09-22 0:00:00,의료시설||요양원||요양원-일반,False
81411,81412,27093554,제1푸른성노인요양원,,The 1st Purunseong Nursing Home for the Elderly,Residence,Nursing Home,126.71107094389788,37.525919797489486,대한민국,KOR,KOR,인천광역시,계양구,,효성동,,안남로,480,273-85,2022-08-16 16:52:33,의료시설||요양원||요양원-일반,False
81527,81528,2612579,강화사랑의집,,Ganghwa Love House,Residence,Nursing Home,126.51547559999987,37.73964139999989,대한민국,KOR,KOR,인천광역시,강화군,,강화읍,용정리,강화대로154번길,40,1057-6,2018-07-18 16:16:15,의료시설||요양원||요양원-일반,False
82466,82467,1871305,송암노인요양원,송암요양병원,Songam Elderly Nursing Home,Residence,Nursing Home,126.74601989886996,37.483030707932,대한민국,KOR,KOR,인천광역시,부평구,,일신동,,일신로,25,62,2019-11-14 23:26:14,의료시설||요양원||요양원-일반,False
82837,82838,2603646,예랑요양원,예랑요양원,Yerang Nursing Home,Residence,Nursing Home,126.72487230198294,37.450274192556655,대한민국,KOR,KOR,인천광역시,남동구,,구월동,,구월말로4번길,9-23,1313-1,2022-08-18 12:00:50,의료시설||요양원||요양원-일반,False
83987,83988,572040,인천은혜요양원,은혜요양원,Incheon Grace nursing home,Residence,Nursing Home,126.6765868013169,37.46873138426616,대한민국,KOR,KOR,인천광역시,미추홀구,,주안동,,길파로29번길,53,9-24,2019-11-14 23:26:14,의료시설||요양원||요양원-일반,False
84006,84007,27100199,가족사랑요양원,,Family Love Nursing Home,Residence,Nursing Home,126.67571138364688,37.41431384569816,대한민국,KOR,KOR,인천광역시,연수구,,청학동,,청능대로,93,503-4,2022-08-08 10:29:42,의료시설||요양원||요양원-일반,False
84538,84539,27049785,효성요양원,,Hyosung Nursing Home,Residence,Nursing Home,126.70599099999984,37.5290138999998,대한민국,KOR,KOR,인천광역시,계양구,,효성동,,봉오대로512번길,5,185-5,2022-07-19 20:20:05,의료시설||요양원||요양원-일반,False
85248,85249,27228504,참존요양원,,Charmzone Nursing Home,Residence,Nursing Home,126.73799129003994,37.5226966810341,대한민국,KOR,KOR,인천광역시,부평구,,삼산동,,부평북로,399,55,2022-08-16 16:52:33,의료시설||요양원||요양원-일반,False
86637,86638,4332865,평화요양원,,Peace Nursing Home,Residence,Nursing Home,126.72044396843891,37.464106975911584,대한민국,KOR,KOR,인천광역시,남동구,,간석동,,호구포로,915,225-19,2022-05-01 12:37:48,의료시설||요양원||요양원-일반,False
86806,86807,27141593,갤럭시요양원,,Galaxy Nursing Home,Residence,Nursing Home,126.70751796682688,37.465481475195375,대한민국,KOR,KOR,인천광역시,남동구,,간석동,,남동대로,931,275-1,2022-08-12 13:15:03,의료시설||요양원||요양원-일반,False
87071,87072,5667591,사랑요양원,,Love Nursing Home,Residence,Nursing Home,126.67877459544488,37.45988591944026,대한민국,KOR,KOR,인천광역시,미추홀구,,주안동,,미추홀대로697번길,22,204-2,2022-08-12 13:15:03,의료시설||요양원||요양원-일반,False
87483,87484,6004992,연세요양복지센터,,Yonsei Welfare Center,Residence,Nursing Home,126.67596136397825,37.51575247146901,대한민국,KOR,KOR,인천광역시,서구,,가정동,,가정로352번길,28-6,522-14,2022-05-01 12:37:48,의료시설||요양원||요양원-일반,False
87640,87641,20184871,인천노인요양센터,인천노인센터,Incheon Senior Care Center,Residence,Nursing Home,126.69680498475496,37.47495350483799,대한민국,KOR,KOR,인천광역시,부평구,,십정동,,열우물로87번길,10-9,281-16,2021-12-23 15:49:18,의료시설||요양원||요양원-일반,False
88786,88787,27081617,홍시요양원,,Hongsi Nursing Home,Residence,Nursing Home,126.7216581541929,37.5277343465446,대한민국,KOR,KOR,인천광역시,계양구,,작전동,,효서로,230,444-1,2022-08-16 16:52:33,의료시설||요양원||요양원-일반,False
88923,88924,27130277,참삶노인전문요양원,참삶노인요양원,True Life Senior Nursing Home,Residence,Nursing Home,126.7309890274309,37.5005887775709,대한민국,KOR,KOR,인천광역시,부평구,,부평동,,장제로,170,124-3,2022-05-01 12:37:48,의료시설||요양원||요양원-일반,False
89214,89215,688275,강화은혜요양원,은혜요양원,Ganghwa Grace Nursing Home,Residence,Nursing Home,126.49366249999984,37.665407099999776,대한민국,KOR,KOR,인천광역시,강화군,,불은면,신현리,강화동로314번길,22,10-8,2019-08-08 23:04:37,의료시설||요양원||요양원-일반,False
89270,89271,27064490,미래요양원,,Future Nursing Home,Residence,Nursing Home,126.73788682398596,37.5356077492758,대한민국,KOR,KOR,인천광역시,계양구,,계산동,,오조산로57번길,7-1,1080-7,2022-08-16 16:52:33,의료시설||요양원||요양원-일반,False
89378,89379,20200277,올리사랑재가복지센터,올리사랑복지센터,Olli Sarang Home Welfare Center,Residence,Nursing Home,126.67287941968392,37.494643640275086,대한민국,KOR,KOR,인천광역시,서구,,가좌동,,가정로112번길,9-2,144-83,2022-08-24 14:41:06,의료시설||요양원||요양원-일반,False
89607,89608,2157062,샤미나드노인전문요양원,,Chaminade Senior Nursing Home,Residence,Nursing Home,126.70271597477988,37.512013329363086,대한민국,KOR,KOR,인천광역시,부평구,,산곡동,,마장로,375,5-15,2022-05-01 12:37:48,의료시설||요양원||요양원-일반,False
89664,89665,2601930,강화노인요양공동생활가정,강화노인요양공동생활가정,Ganghwa Elderly Nursing Co-living Family,Residence,Nursing Home,126.37755399999946,37.787304099999695,대한민국,KOR,KOR,인천광역시,강화군,,양사면,인화리,인화로,212,556-3,2022-08-08 10:29:42,의료시설||요양원||요양원-일반,False
89853,89854,5706705,민들레요양원,,Dandelion Nursing Home,Residence,Nursing Home,126.67285350468693,37.5944043744933,대한민국,KOR,KOR,인천광역시,서구,,마전동,,완정로,8,1010-2,2022-08-18 12:00:50,의료시설||요양원||요양원-일반,False
89978,89979,27069651,운학요양원,운학요양원,Unhak Nursing Home,Residence,Nursing Home,126.68125804856692,37.48776232973358,대한민국,KOR,KOR,인천광역시,서구,,가좌동,,장고개로,262,322-2,2022-08-12 13:15:03,의료시설||요양원||요양원-일반,False
91427,91428,5789588,강화군요양원,,Ganghwa Nursing Home,Residence,Nursing Home,126.49509899999984,37.635545599999865,대한민국,KOR,KOR,인천광역시,강화군,,길상면,온수리,길상로,272,605-23,2022-05-01 12:37:48,의료시설||요양원||요양원-일반,False
91741,91742,27140663,어르신이행복한세상,,Happy old people,Residence,Nursing Home,126.6246829738968,37.46866714193328,대한민국,KOR,KOR,인천광역시,중구,,사동,,인중로,176,13-5,2022-05-01 12:37:48,의료시설||요양원||요양원-일반,False
92633,92634,4351726,강화백석전문요양원,강화백석요양원,Ganghwa Baekseok Nursing Home,Residence,Nursing Home,126.42874629999957,37.65502209999946,대한민국,KOR,KOR,인천광역시,강화군,,양도면,조산리,강화남로,596,403-4,2022-08-16 16:52:33,의료시설||요양원||요양원-일반,False
92661,92662,27552944,생명수요양원,,Life Nursing Home,Residence,Nursing Home,126.66955740443494,37.44895251842898,대한민국,KOR,KOR,인천광역시,미추홀구,,주안동,,인하로,193,749-4,2022-09-06 15:18:26,의료시설||요양원||요양원-일반,False
92910,92911,2606707,가족같은효성요양원,효성요양원,Family-like Hyosung Nursing Home,Residence,Nursing Home,126.60036684306584,37.45353786557156,대한민국,KOR,KOR,인천광역시,중구,,항동7가,,연안부두로55번길,5,58-155,2022-08-18 12:00:50,의료시설||요양원||요양원-일반,False
93313,93314,5694322,행복한요양원,,Happy Nursing Home,Residence,Nursing Home,126.72625013871892,37.455229874553766,대한민국,KOR,KOR,인천광역시,남동구,,만수동,,구월로,320-1,916-15,2022-05-01 12:37:48,의료시설||요양원||요양원-일반,False
93985,93986,26823910,인천치매전담공립요양시설(2024년03월예정),,Incheon dementia-only public nursing facility (planned in March 2024),Residence,Nursing Home,126.72818895599296,37.57490989125274,대한민국,KOR,KOR,인천광역시,계양구,,갈현동,,,,80-2,2022-05-01 12:37:48,의료시설||요양원||요양원-일반,False
95677,95678,27097699,두드림요양센터,,Do Dream Nursing Center,Residence,Nursing Home,126.6725780005659,37.5271346000338,대한민국,KOR,KOR,인천광역시,서구,,가정동,,봉오재3로,116,645-6,2022-05-01 12:37:48,의료시설||요양원||요양원-일반,False
96102,96103,27156718,예손제이헤븐요양원,,Yeson J Heaven Nursing Home,Residence,Nursing Home,126.72450609999991,37.401750599999765,대한민국,KOR,KOR,인천광역시,남동구,,논현동,,논고개로,118,616-2,2022-05-01 12:37:48,의료시설||요양원||요양원-일반,False
96597,96598,4336130,효나무의료복지요양원,효나무요양원,Hyonamu Medical Welfare Nursing Home,Residence,Nursing Home,126.66062454497467,37.60292610124404,대한민국,KOR,KOR,인천광역시,서구,,마전동,,검단로,508,983-4,2022-08-12 13:15:03,의료시설||요양원||요양원-일반,False
97557,97558,27068996,밝은햇살요양원,,Bright Sunshine Nursing Home,Residence,Nursing Home,126.73900921662693,37.50330523785471,대한민국,KOR,KOR,인천광역시,부평구,,부개동,,부개로,61-14,498-9,2022-08-16 16:52:33,의료시설||요양원||요양원-일반,False
99672,99673,1272799,우리요양원,강화우리요양원,Woori Nursing Home,Residence,Nursing Home,126.50996470000472,37.70516849999864,대한민국,KOR,KOR,인천광역시,강화군,,선원면,연리,연동로73번길,13,403-1,2022-08-08 10:29:42,의료시설||요양원||요양원-일반,False
101879,101880,27194579,큰사랑재가장기요양센터,,Keunsarangjae Long-Term Care Center,Residence,Nursing Home,126.53575299999989,37.49071299999979,대한민국,KOR,KOR,인천광역시,중구,,운남동,,운남동로,38-28,348-1,2022-05-01 12:37:48,의료시설||요양원||요양원-일반,False
102110,102111,3137806,선학요양원,,Seonhak Nursing Home,Residence,Nursing Home,126.70272385954488,37.43484961218086,대한민국,KOR,KOR,인천광역시,연수구,,선학동,,예술로20번길,75,96-9,2022-08-16 16:52:33,의료시설||요양원||요양원-일반,False
102482,102483,27195458,검단메디컬요양원,,Geomdan Medical Nursing Home,Residence,Nursing Home,126.6565379374329,37.60226007024172,대한민국,KOR,KOR,인천광역시,서구,,왕길동,,완정로,179,638-4,2022-08-16 16:52:33,의료시설||요양원||요양원-일반,False
102621,102622,2622110,천사의집노인요양원,,angel's house elderly nursing home,Residence,Nursing Home,126.68227102990492,37.436559546236474,대한민국,KOR,KOR,인천광역시,미추홀구,,문학동,,소성로318번길,30,371-11,2022-05-01 12:37:48,의료시설||요양원||요양원-일반,False
103932,103933,4343718,참조은요양원,,Reference Eun Nursing Home,Residence,Nursing Home,126.6802531011989,37.493358741327285,대한민국,KOR,KOR,인천광역시,서구,,가좌동,,신진말로,39,197-13,2022-05-24 13:48:55,의료시설||요양원||요양원-일반,False
104324,104325,27185263,인천하이요양원,,Incheon High Nursing Home,Residence,Nursing Home,126.73086069999997,37.54342589999983,대한민국,KOR,KOR,인천광역시,계양구,,계산동,,경명대로,1115,918-6,2022-08-16 16:52:33,의료시설||요양원||요양원-일반,False
104698,104699,27388183,예은요양원,,Yeeun Nursing Home,Residence,Nursing Home,126.72359039999996,37.401283199999774,대한민국,KOR,KOR,인천광역시,남동구,,논현동,,청능대로,581,631-8,2022-07-19 20:20:05,의료시설||요양원||요양원-일반,False
104749,104750,27065157,인성요양원,,Inseong Nursing Home,Residence,Nursing Home,126.70428459999988,37.46502439999977,대한민국,KOR,KOR,인천광역시,남동구,,간석동,,경인로,599,269-2,2022-05-01 12:37:48,의료시설||요양원||요양원-일반,False
105211,105212,27072822,이레요양원,,Ire Nursing Home,Residence,Nursing Home,126.6601420328199,37.60326290897033,대한민국,KOR,KOR,인천광역시,서구,,마전동,,검단로,505,932-1,2022-05-01 12:37:48,의료시설||요양원||요양원-일반,False
105212,105213,4345184,아가페노인요양원,,Agape Senior Nursing Home,Residence,Nursing Home,126.63784660927185,37.47317652403438,대한민국,KOR,KOR,인천광역시,동구,,금곡동,,송림로,24,33-2,2020-01-14 23:21:05,의료시설||요양원||요양원-일반,False
105515,105516,27136915,굿힐링요양원,,Good Healing Nursing Home,Residence,Nursing Home,126.72580686055692,37.5151375407482,대한민국,KOR,KOR,인천광역시,부평구,,갈산동,,주부토로,223,171-11,2022-05-02 21:16:34,의료시설||요양원||요양원-일반,False
106847,106848,3028142,강화노인복지센터부설한울요양원,강화복지센터한울요양원,Ganghwa Senior Welfare Center Hanul Nursing Home,Residence,Nursing Home,126.4551759999996,37.72486229999952,대한민국,KOR,KOR,인천광역시,강화군,,선원면,선행리,시리미로225번길,3-27,437-2,2022-05-18 1:20:07,의료시설||요양원||요양원-일반,False
107356,107357,27241818,해오름요양원,,Haeoreum Nursing Home,Residence,Nursing Home,126.70271939999986,37.435440099999774,대한민국,KOR,KOR,인천광역시,연수구,,선학동,,예술로22번길,76,98-2,2022-08-12 13:15:03,의료시설||요양원||요양원-일반,False
107414,107415,4341496,박사요양원,,Doctoral Nursing Home,Residence,Nursing Home,126.7063396991419,37.46484888512088,대한민국,KOR,KOR,인천광역시,남동구,,간석동,,남동대로921번길,29,315-3,2022-08-16 16:52:33,의료시설||요양원||요양원-일반,False
108417,108418,3445028,사랑의 요양원,,Nursing Home of Love,Residence,Nursing Home,126.72919929999996,37.49799609999981,대한민국,KOR,KOR,인천광역시,부평구,,부평동,,부흥로,336,217-2,2022-08-18 12:00:50,의료시설||요양원||요양원-일반,False
109102,109103,27189440,가족공감요양원,,Family Empathy Nursing Home,Residence,Nursing Home,126.72804473604091,37.4555086680209,대한민국,KOR,KOR,인천광역시,남동구,,만수동,,구월로,335,888-3,2022-08-16 16:52:33,의료시설||요양원||요양원-일반,False
109715,109716,4341928,창덕궁그린케어요양원,,Changdeokgung Green care nursing home,Residence,Nursing Home,126.69900022684988,37.43593986380415,대한민국,KOR,KOR,인천광역시,연수구,,선학동,,예술로20번길,3,101-1,2022-08-12 13:15:03,의료시설||요양원||요양원-일반,False
109820,109821,27156575,효사랑요양원,,filial piety nursing home,Residence,Nursing Home,126.67175817213388,37.59486539599715,대한민국,KOR,KOR,인천광역시,서구,,마전동,,완정로,19,1016-7,2022-08-16 16:52:33,의료시설||요양원||요양원-일반,False
110010,110011,5658041,영종재가센터,,Yeongjong Family Center,Residence,Nursing Home,126.53155667974174,37.506882568740366,대한민국,KOR,KOR,인천광역시,중구,,운북동,,백운로228번길,20,33-136,2022-05-01 12:37:48,의료시설||요양원||요양원-일반,False
110410,110411,27173432,아가페요양원,,Agape Nursing Home,Residence,Nursing Home,126.7125079849319,37.463710599157594,대한민국,KOR,KOR,인천광역시,남동구,,간석동,,남동대로916번길,75,125-4,2022-08-18 12:00:50,의료시설||요양원||요양원-일반,False
110560,110561,27182463,사랑의요양원 3호점,,3rd Branch of Nursing Home of Love,Residence,Nursing Home,126.72860916124785,37.49184960582146,대한민국,KOR,KOR,인천광역시,부평구,,부평동,,대정로,92,563-1,2022-08-12 13:15:03,의료시설||요양원||요양원-일반,False
111391,111392,27121072,착한이웃재가복지센터,,Good Neighbor Home Welfare Center,Residence,Nursing Home,126.72972767567792,37.53079926653481,대한민국,KOR,KOR,인천광역시,계양구,,작전동,,봉오대로,727,231-1,2022-05-01 12:37:48,의료시설||요양원||요양원-일반,False
112020,112021,2623210,아름다운실버타운,아름다운요양원,beautiful Silver Town,Residence,Nursing Home,126.51870769999984,37.64822949999986,대한민국,KOR,KOR,인천광역시,강화군,,불은면,덕성리,해안동로283번길,17,481,2022-08-18 12:00:50,의료시설||요양원||요양원-일반,False
112438,112439,1252871,마리실버힐,,marie silver hill,Residence,Nursing Home,126.4139124999998,37.629540399999854,대한민국,KOR,KOR,인천광역시,강화군,,화도면,상방리,마니산로739번길,26-49,1040,2021-12-23 15:49:18,의료시설||요양원||요양원-일반,False
112516,112517,5721855,매화요양원,,Maehwa Nursing Home,Residence,Nursing Home,126.64015408427785,37.462157030497664,대한민국,KOR,KOR,인천광역시,미추홀구,,숭의동,,제물량로4번길,34-33,353-27,2022-05-01 12:37:48,의료시설||요양원||요양원-일반,False
113692,113693,3429122,인하요양원,,Inha Nursing Home,Residence,Nursing Home,126.6680880365229,37.44717426407057,대한민국,KOR,KOR,인천광역시,미추홀구,,학익동,,한나루로456번길,8,5-15,2022-08-16 16:52:33,의료시설||요양원||요양원-일반,False
114323,114324,27159180,빅토리아요양원,,Victoria Nursing Home,Residence,Nursing Home,126.73578567043594,37.538422201429526,대한민국,KOR,KOR,인천광역시,계양구,,계산동,,계산새로,71,1062,2022-08-16 16:52:33,의료시설||요양원||요양원-일반,False
114361,114362,3140562,성화은혜노인요양원,은혜요양원,Seonghwa Grace Nursing Home for the Elderly,Residence,Nursing Home,126.72585651452891,37.46471758513949,대한민국,KOR,KOR,인천광역시,남동구,,만수동,,서판로53번길,15,839-8,2019-11-14 23:26:14,의료시설||요양원||요양원-일반,False
114693,114694,27151793,한사랑 요양원,,Hansarang Nursing Home,Residence,Nursing Home,126.6837136296584,37.5513129247202,대한민국,KOR,KOR,인천광역시,서구,,공촌동,,심곡로208번길,14,312-14,2022-05-01 12:37:48,의료시설||요양원||요양원-일반,False
114825,114826,4337570,아이러브요양원,,i love nursing home,Residence,Nursing Home,126.7214572514339,37.40094786491167,대한민국,KOR,KOR,인천광역시,남동구,,논현동,,청능대로,559,631-6,2022-08-16 16:52:33,의료시설||요양원||요양원-일반,False
115379,115380,4349115,소나무요양원,,Pine Nursing Home,Residence,Nursing Home,126.69651981186492,37.594657891789424,대한민국,KOR,KOR,인천광역시,서구,,원당동,,고산후로121번길,25,825-4,2022-08-12 13:15:03,의료시설||요양원||요양원-일반,False
115854,115855,27182584,라온실버케어 요양원,,Raon Silver Care Nursing Home,Residence,Nursing Home,126.73944759484093,37.5035662462303,대한민국,KOR,KOR,인천광역시,부평구,,부개동,,길주남로,158,498-7,2022-08-16 16:52:33,의료시설||요양원||요양원-일반,False
116043,116044,1856870,구립해송노인요양원,해송노인요양원,Gu Haesong Nursing Home for the Elderly,Residence,Nursing Home,126.51023173443772,37.51589603646515,대한민국,KOR,KOR,인천광역시,중구,,운북동,,백운로,494,752-79,2022-05-01 12:37:48,의료시설||요양원||요양원-일반,False
117693,117694,4006214,간호나라2요양원,간호나라,Nursing Country 2 nursing home,Residence,Nursing Home,126.67435639994488,37.415872700906654,대한민국,KOR,KOR,인천광역시,연수구,,청학동,,청능대로,71,502-1,2022-08-12 13:15:03,의료시설||요양원||요양원-일반,False
117878,117879,3931456,하나요양원,,Hana Nursing Home,Residence,Nursing Home,126.6715551927609,37.54145603079069,대한민국,KOR,KOR,인천광역시,서구,,심곡동,,승학로197번길,20-9,341-12,2022-08-16 16:52:33,의료시설||요양원||요양원-일반,False
117929,117930,26996815,보람가정방문요양,,Boram home visit care,Residence,Nursing Home,126.73961159321794,37.448355190932574,대한민국,KOR,KOR,인천광역시,남동구,,만수동,,담방로,105,1005,2022-05-01 12:37:48,의료시설||요양원||요양원-일반,False
118052,118053,27036398,영화복지타운,,Movie Welfare Town,Residence,Nursing Home,126.49407038444885,37.66284156120287,대한민국,KOR,KOR,인천광역시,강화군,,불은면,신현리,강화동로,262,30-8,2022-05-01 12:37:48,의료시설||요양원||요양원-일반,False
118096,118097,4323348,새보금자리요양원,,Saebogeumjari Nursing Home,Residence,Nursing Home,126.70776965865988,37.44848229086548,대한민국,KOR,KOR,인천광역시,남동구,,구월동,,남동대로,742,1191-3,2019-11-14 23:28:16,의료시설||요양원||요양원-일반,False
118189,118190,3022314,낙원요양원,,Paradise Nursing Home,Residence,Nursing Home,126.6736828410779,37.594764965098605,대한민국,KOR,KOR,인천광역시,서구,,마전동,,완정로10번길,6-7,1009-4,2022-05-01 12:37:48,의료시설||요양원||요양원-일반,False
118524,118525,27048202,샛별요양원,,Saetbyeol Nursing Home,Residence,Nursing Home,126.73423878635892,37.53104357815052,대한민국,KOR,KOR,인천광역시,계양구,,작전동,,장제로,708,901-4,2022-08-16 16:52:33,의료시설||요양원||요양원-일반,False
119665,119666,4322698,행복드림요양원,,happy dream nursing home,Residence,Nursing Home,126.69181768576092,37.45098189789898,대한민국,KOR,KOR,인천광역시,미추홀구,,주안동,,인주대로,495,1562-13,2022-08-16 16:52:33,의료시설||요양원||요양원-일반,False
119847,119848,27131600,꽃마루요양원,꽃마루요양원,Flower Maru Nursing Home,Residence,Nursing Home,126.63705679610284,37.61251007294883,대한민국,KOR,KOR,인천광역시,서구,,금곡동,,봉화로223번안길,5,403-2,2022-08-16 16:52:33,의료시설||요양원||요양원-일반,False
120428,120429,5034758,경인사회서비스요양기관,경인사회요양기관,Gyeongin Social Service Rehabilitation Institution,Residence,Nursing Home,126.6978845921009,37.45401625133898,대한민국,KOR,KOR,인천광역시,남동구,,구월동,,구월남로,75,1089-3,2019-11-14 23:27:34,의료시설||요양원||요양원-일반,False
120523,120524,5696752,연희요양원,,Yeonhui Nursing Home,Residence,Nursing Home,126.67926207876688,37.543538182416086,대한민국,KOR,KOR,인천광역시,서구,,심곡동,,탁옥로,88,298,2022-08-18 12:00:50,의료시설||요양원||요양원-일반,False
120703,120704,4013461,효담채요양원,,Hyodamchae Nursing Home,Residence,Nursing Home,126.65468794559888,37.466504115116166,대한민국,KOR,KOR,인천광역시,미추홀구,,숭의동,,경인로,109,79-8,2022-08-16 16:52:33,의료시설||요양원||요양원-일반,False
121416,121417,6208278,행복나눔방문요양센터,행복나눔요양센터,Sharing Happiness  Visiting Nursing Center,Residence,Nursing Home,126.65404027136188,37.46764655708128,대한민국,KOR,KOR,인천광역시,미추홀구,,도화동,,석정로150번길,37,80-25,2022-05-01 12:37:48,의료시설||요양원||요양원-일반,False
121451,121452,3259040,새날노인전문요양원,새날노인요양원,Saenal Senior Nursing Home,Residence,Nursing Home,126.71983778988688,37.460612281937685,대한민국,KOR,KOR,인천광역시,남동구,,구월동,,석산로,248,1248-34,2019-11-14 23:29:25,의료시설||요양원||요양원-일반,False
121516,121517,4327579,사랑요양원,,Love Nursing Home,Residence,Nursing Home,126.71814806601088,37.45062131271977,대한민국,KOR,KOR,인천광역시,남동구,,구월동,,호구포로765번길,9,1236,2022-05-01 12:37:48,의료시설||요양원||요양원-일반,False
121584,121585,4787460,노인요양시설한결데이케어,,Elderly Nursing Facility Hangyeol Day Care,Residence,Nursing Home,126.74130150218792,37.5494856863169,대한민국,KOR,KOR,인천광역시,계양구,,방축동,,장제로927번길,4,119,2022-08-16 16:52:33,의료시설||요양원||요양원-일반,False
121698,121699,27053897,생명샘요양원,,Life Sam Nursing Home,Residence,Nursing Home,126.65639553686088,37.60227146995933,대한민국,KOR,KOR,인천광역시,서구,,왕길동,,완정로,179,638-4,2022-05-01 12:37:48,의료시설||요양원||요양원-일반,False
122035,122036,191637,강화정신요양원,강화요양원,Ganghwa Mental Nursing Home,Residence,Nursing Home,126.4935499999997,37.728734999999645,대한민국,KOR,KOR,인천광역시,강화군,,선원면,창리,고식이길20번길,19-3,323-2,2018-12-04 17:21:37,의료시설||요양원||요양원-일반,False
122221,122222,27133763,예지요양원,,Yeji Nursing Home,Residence,Nursing Home,126.73756765772193,37.53814031461272,대한민국,KOR,KOR,인천광역시,계양구,,용종동,,계산새로,85,210-6,2022-08-16 16:52:33,의료시설||요양원||요양원-일반,False
124019,124020,1870478,고운빛요양원,,Gounbit Nursing Home,Residence,Nursing Home,126.73708144958196,37.534128473927815,대한민국,KOR,KOR,인천광역시,계양구,,계산동,,도두리로,25,1082-5,2022-05-01 12:37:48,의료시설||요양원||요양원-일반,False
124027,124028,27184685,노블시니어스요양원,,Noble Seniors Nursing Home,Residence,Nursing Home,126.73540470122796,37.507570243650285,대한민국,KOR,KOR,인천광역시,부평구,,삼산동,,충선로203번길,16,460-7,2022-05-01 12:37:48,의료시설||요양원||요양원-일반,False
124592,124593,27210464,인주사랑요양원,,Inju Sarang Nursing Home,Residence,Nursing Home,126.69186198558688,37.450922498083166,대한민국,KOR,KOR,인천광역시,미추홀구,,주안동,,인주대로,495,1562-13,2022-05-01 12:37:48,의료시설||요양원||요양원-일반,False
124823,124824,27051395,사랑숲요양원,,Sarang Forest Nursing Home,Residence,Nursing Home,126.65498339999986,37.422544899999735,대한민국,KOR,KOR,인천광역시,연수구,,옥련동,,청량로164번길,53,405-21,2022-06-13 10:44:13,의료시설||요양원||요양원-일반,False
125265,125266,3071502,그린요양원,,Green Nursing Home,Residence,Nursing Home,126.69395868276888,37.463925040704375,대한민국,KOR,KOR,인천광역시,미추홀구,,주안동,,주안로213번길,10-1,46-3,2022-05-01 12:37:48,의료시설||요양원||요양원-일반,False
127717,127718,20477873,무궁채요양원,,Mugungchae Nursing Home,Residence,Nursing Home,126.74006228504297,37.44535049698528,대한민국,KOR,KOR,인천광역시,남동구,,만수동,,담방로60번길,23,1100-5,2022-05-01 12:37:48,의료시설||요양원||요양원-일반,False
128111,128112,274963,협성요양원,협성양로원,Hyupseong Nursing Home,Residence,Nursing Home,126.70328024558589,37.4896057001277,대한민국,KOR,KOR,인천광역시,부평구,,산곡동,,화랑로,70,370-34,2022-05-01 12:37:48,의료시설||요양원||요양원-일반,False
128387,128388,27196444,국제공항요양원,,International Airport Nursing Home,Residence,Nursing Home,126.53965029987276,37.48987999989928,대한민국,KOR,KOR,인천광역시,중구,,운남동,,운중로48번길,21-46,156-5,2022-08-16 16:52:33,의료시설||요양원||요양원-일반,False
128662,128663,5094388,정성요양원,,Jeongseong Nursing Home,Residence,Nursing Home,126.63069476328384,37.47197514685557,대한민국,KOR,KOR,인천광역시,중구,,경동,,개항로,73,232-11,2022-08-16 16:52:33,의료시설||요양원||요양원-일반,False
129456,129457,27214534,인일효요양원,,Inil Hyo Nursing Home,Residence,Nursing Home,126.6729800238059,37.459833474346375,대한민국,KOR,KOR,인천광역시,미추홀구,,도화동,,한나루로,604,429-1,2022-08-16 16:52:33,의료시설||요양원||요양원-일반,False
129463,129464,27229112,유니실버요양원,,Unisilver Nursing Home,Residence,Nursing Home,126.72008399999996,37.49426529999981,대한민국,KOR,KOR,인천광역시,부평구,,부평동,,부평문화로37번길,1,70-126,2022-05-01 12:37:48,의료시설||요양원||요양원-일반,False
129523,129524,5703487,도란도란요양원,,Doran Doran Nursing Home,Residence,Nursing Home,126.66269436166388,37.60424386803613,대한민국,KOR,KOR,인천광역시,서구,,마전동,,검단로,531,927-6,2022-05-01 12:37:48,의료시설||요양원||요양원-일반,False
129695,129696,27225770,벧엘요양원,,Bethel Nursing Home,Residence,Nursing Home,126.6601772068179,37.60123831139952,대한민국,KOR,KOR,인천광역시,서구,,마전동,,완정로,144,982-1,2022-08-16 16:52:33,의료시설||요양원||요양원-일반,False
131101,131102,3029095,우리누리요양원,계양우리누리요양원,Woori Nursing Home,Residence,Nursing Home,126.73430809999996,37.53317249999982,대한민국,KOR,KOR,인천광역시,계양구,,작전동,,장제로,732,899-4,2022-08-18 12:00:50,의료시설||요양원||요양원-일반,False
131166,131167,3127504,연세효드림 노인전문요양원,연세효드림요양원,Yonsei Hyo Dream Senior Nursing Home,Residence,Nursing Home,126.73506389999999,37.40173329999976,대한민국,KOR,KOR,인천광역시,남동구,,논현동,,앵고개로934번길,5,673-2,2018-07-18 16:16:15,의료시설||요양원||요양원-일반,False
131398,131399,3030703,행복한효요양원,,Happy Hyo Nursing Home,Residence,Nursing Home,126.63786230961284,37.47341222377429,대한민국,KOR,KOR,인천광역시,동구,,금곡동,,송림로,24,33-2,2022-08-12 13:15:03,의료시설||요양원||요양원-일반,False
131630,131631,27185169,푸른솔요양원,,Purunsol Nursing Home,Residence,Nursing Home,126.71108134442188,37.525883897175,대한민국,KOR,KOR,인천광역시,계양구,,효성동,,안남로,480,273-85,2022-08-16 16:52:33,의료시설||요양원||요양원-일반,False
132965,132966,4342726,해가든요양원,,Hae Garden Nursing Home,Residence,Nursing Home,126.69758689269688,37.42470653065495,대한민국,KOR,KOR,인천광역시,연수구,,선학동,,학나래로6번길,35,408-4,2020-01-14 23:23:42,의료시설||요양원||요양원-일반,False
133041,133042,3079389,은평요양원 2호점,반딧불요양원,Firefly Nursing Home for the Elderly,Residence,Nursing Home,126.72403779999996,37.53340609999982,대한민국,KOR,KOR,인천광역시,계양구,,작전동,,봉오대로677번길,29,854-18,2022-08-16 16:52:33,의료시설||요양원||요양원-일반,False
133093,133094,236847,내리요양원,,Naeri Nursing Home,Residence,Nursing Home,126.65239803559392,37.59685573188581,대한민국,KOR,KOR,인천광역시,서구,,왕길동,,봉수대로1394번길,12,154-2,2022-05-01 12:37:48,의료시설||요양원||요양원-일반,False
133413,133414,3074697,너싱홈효드림,효드림너싱홈,Nursing home filial piety,Residence,Nursing Home,126.72962292159492,37.49884876293879,대한민국,KOR,KOR,인천광역시,부평구,,부평동,,장제로,145,378-3,2022-08-18 12:00:50,의료시설||요양원||요양원-일반,False
133440,133441,27070244,실버벨요양원,,Silver Bell Nursing Home,Residence,Nursing Home,126.65357208946288,37.428400968081135,대한민국,KOR,KOR,인천광역시,연수구,,옥련동,,비류대로,170,265-8,2022-08-16 16:52:33,의료시설||요양원||요양원-일반,False
134638,134639,4327732,연세노인전문요양원 부평점,,Yonsei Senior Nursing Home Bupyeong,Residence,Nursing Home,126.74067799252794,37.5189578916143,대한민국,KOR,KOR,인천광역시,부평구,,삼산동,,대보로12번길,17-15,167-26,2022-08-08 10:29:42,의료시설||요양원||요양원-일반,False
135131,135132,833114,강화꽃동네노인요양원,꽃동네요양원,Ganghwa Kkottongnae Nursing Home,Residence,Nursing Home,126.42593539999957,37.796250599999325,대한민국,KOR,KOR,인천광역시,강화군,,양사면,덕하리,덕하로114번길,71,980-4,2022-05-01 12:37:48,의료시설||요양원||요양원-일반,False
135186,135187,27161991,햇살노인전문요양원,,Sunshine Senior Nursing Home,Residence,Nursing Home,126.64100562789388,37.46246688450666,대한민국,KOR,KOR,인천광역시,미추홀구,,숭의동,,인중로,13,343-15,2022-08-18 12:00:50,의료시설||요양원||요양원-일반,False
135335,135336,3240597,글로리요양원,,Glory Nursing Home,Residence,Nursing Home,126.73022902262392,37.4992433924488,대한민국,KOR,KOR,인천광역시,부평구,,부평동,,장제로,153,378-1,2022-08-16 16:52:33,의료시설||요양원||요양원-일반,False
136465,136466,6518783,계양한결요양원주간보호센터,,Gyeyang Hangyeol Nursing Home Day Care Center,Residence,Nursing Home,126.74138586508997,37.549439010883326,대한민국,KOR,KOR,인천광역시,계양구,,방축동,,장제로927번길,4,119,2020-05-11 20:01:45,의료시설||요양원||요양원-일반,False
137195,137196,27185542,굿모닝요양원,,Good Morning Nursing Home,Residence,Nursing Home,126.67921526190187,37.49777661066759,대한민국,KOR,KOR,인천광역시,서구,,가좌동,,건지로334번길,3,184-2,2022-08-16 16:52:33,의료시설||요양원||요양원-일반,False
137390,137391,2602222,수요양원,,Nursing Home,Residence,Nursing Home,126.63183889999992,37.4733832999998,대한민국,KOR,KOR,인천광역시,중구,,용동,,큰우물로,16,87,2022-08-18 12:00:50,의료시설||요양원||요양원-일반,False
137508,137509,5723923,성녀모니카의집요양원,성녀모니카요양원,St. Monica's House Nursing Home,Residence,Nursing Home,126.7273586541639,37.45985181949837,대한민국,KOR,KOR,인천광역시,남동구,,만수동,,만수서로37번길,81,863-3,2022-08-16 16:52:33,의료시설||요양원||요양원-일반,False
137541,137542,4332540,한우리요양원,,Hanwoori Nursing Home,Residence,Nursing Home,126.48906186550568,37.493678451813935,대한민국,KOR,KOR,인천광역시,중구,,운서동,,신도시남로141번길,9,2796-1,2022-08-16 16:52:33,의료시설||요양원||요양원-일반,False
137579,137580,27120330,다정노인요양원,다정요양원,Dajeong Nursing Home for the Elderly,Residence,Nursing Home,126.63038238957382,37.471793290605845,대한민국,KOR,KOR,인천광역시,중구,,경동,,개항로,72,231-6,2022-08-18 12:00:50,의료시설||요양원||요양원-일반,False
137777,137778,27221607,영종요양원,,Yeongjong Nursing Home,Residence,Nursing Home,126.53660927044572,37.503786273634255,대한민국,KOR,KOR,인천광역시,중구,,운남동,,백운로185번길,10-16,603-32,2022-08-16 16:52:33,의료시설||요양원||요양원-일반,False
139441,139442,3428458,예사랑요양원,,Yesarang Nursing Home,Residence,Nursing Home,126.64792421063684,37.46026728416008,대한민국,KOR,KOR,인천광역시,미추홀구,,숭의동,,미추로,1,171-16,2022-08-16 16:52:33,의료시설||요양원||요양원-일반,False
139998,139999,27361685,검단진요양원,검단진요양원,Geomdanjin Nursing Home,Residence,Nursing Home,126.66838451718696,37.608554086681046,대한민국,KOR,KOR,인천광역시,서구,,마전동,,마전로115번길,2-6,1140-7,2022-06-28 17:00:00,의료시설||요양원||요양원-일반,False
140088,140089,27043580,인향요양원,,Inhyang Nursing Home,Residence,Nursing Home,126.71142163202688,37.449103027396966,대한민국,KOR,KOR,인천광역시,남동구,,구월동,,인주대로,670,277,2022-08-12 13:15:03,의료시설||요양원||요양원-일반,False
141553,141554,5209288,청학숲요양원,,Cheonghak Forest Nursing Home,Residence,Nursing Home,126.6586799578759,37.43392330590397,대한민국,KOR,KOR,인천광역시,연수구,,청학동,,청솔로,158,3,2022-08-12 13:15:03,의료시설||요양원||요양원-일반,False
141827,141828,4345761,예봄요양원,,Yebom Nursing Home,Residence,Nursing Home,126.62905474559084,37.47325371388376,대한민국,KOR,KOR,인천광역시,중구,,내동,,우현로67번길,1-6,194,2022-08-16 16:52:33,의료시설||요양원||요양원-일반,False
141850,141851,2602854,우리들효요양원,,Wooridul Hyo Nursing Home,Residence,Nursing Home,126.62456538413085,37.468899401544256,대한민국,KOR,KOR,인천광역시,중구,,사동,,인중로,178,13-4,2022-08-16 16:52:33,의료시설||요양원||요양원-일반,False
143068,143069,27039624,송도제일요양원,,Songdo Jeil Nursing Home,Residence,Nursing Home,126.6460741579878,37.42184785568324,대한민국,KOR,KOR,인천광역시,연수구,,옥련동,,한나루로,74,456-5,2022-08-26 9:52:19,의료시설||요양원||요양원-일반,False
144080,144081,1262185,두경요양원,참사랑노인간호센터(구),Doogyeong Nursing Home,Residence,Nursing Home,126.70483873736988,37.46738358381928,대한민국,KOR,KOR,인천광역시,남동구,,간석동,,백범로,417,238-9,2019-11-14 23:24:14,의료시설||요양원||요양원-일반,False
144149,144150,27070572,고래요양원,,Whale Nursing Home,Residence,Nursing Home,126.73976389999996,37.547101599999806,대한민국,KOR,KOR,인천광역시,계양구,,임학동,,계양산로216번길,3,6-5,2022-08-18 12:00:50,의료시설||요양원||요양원-일반,False
144389,144390,6209562,사랑의마을요양원,,Love Village Nursing Home,Residence,Nursing Home,126.73168384315592,37.423147851731855,대한민국,KOR,KOR,인천광역시,남동구,,도림동,,도림북로19번길,37,202-5,2022-05-01 12:37:48,의료시설||요양원||요양원-일반,False
144391,144392,27050183,인천고운빛요양원,,Incheon Gounbit Nursing Home,Residence,Nursing Home,126.73714119999995,37.534164899999816,대한민국,KOR,KOR,인천광역시,계양구,,계산동,,도두리로,25,1082-5,2022-07-19 20:20:05,의료시설||요양원||요양원-일반,False
146090,146091,27196039,믿음요양원,,Faith Nursing Home,Residence,Nursing Home,126.49091093265169,37.49486904930614,대한민국,KOR,KOR,인천광역시,중구,,운서동,,영종대로,106,2800-1,2022-07-13 13:54:25,의료시설||요양원||요양원-일반,False
146631,146632,2595941,미소요양원 부평,,Smile Nursing Home Bupyeong,Residence,Nursing Home,126.70626280012092,37.518650159693486,대한민국,KOR,KOR,인천광역시,부평구,,청천동,,평천로142번길,27,6-11,2022-07-05 16:31:26,의료시설||요양원||요양원-일반,False
146856,146857,2153425,초도노인요양원,,Nursing Home for the Elderly,Residence,Nursing Home,126.71727778937088,37.44799647366039,대한민국,KOR,KOR,인천광역시,남동구,,구월동,,호구포로739번길,19,1232,2022-05-01 12:37:48,의료시설||요양원||요양원-일반,False
